timestamp,roll,pitch,yaw,thrust_body[0],thrust_body[1],thrust_body[2],reset_integral
2468704000,-0.026,0.013,-7.539e-05,0.0,0.0,-0.001,0
2468804000,-0.026,0.013,-0.000,0.0,0.0,-0.001,0
2468904000,-0.026,0.013,-9.119e-05,0.0,0.0,-0.001,0
2469004000,-0.026,0.013,-8.672e-05,0.0,0.0,-0.001,0
2469104000,-0.026,0.012,-6.169e-05,0.0,0.0,-0.001,0
2469204000,-0.026,0.012,-7.301e-05,0.0,0.0,-0.001,0
2469304000,-0.026,0.012,-5.394e-05,0.0,0.0,-0.001,0
2469404000,-0.026,0.011,-7.152e-05,0.0,0.0,-0.001,0
2469504000,-0.026,0.011,-5.125e-05,0.0,0.0,-0.001,0
2469604000,-0.026,0.010,-6.288e-05,0.0,0.0,-0.001,0
2469704000,-0.026,0.010,-4.857e-05,0.0,0.0,-0.001,0
2469804000,-0.026,0.010,-6.288e-05,0.0,0.0,-0.001,0
2469908000,-0.026,0.009,-5.871e-05,0.0,0.0,-0.001,0
2470024000,-0.026,0.009,-4.470e-05,0.0,0.0,-0.001,0
2470124000,-0.026,0.009,-4.589e-05,0.0,0.0,-0.001,0
2470224000,-0.026,0.009,-4.112e-05,0.0,0.0,-0.001,0
2470324000,-0.026,0.009,-4.112e-05,0.0,0.0,-0.001,0
2470424000,-0.026,0.009,-3.874e-05,0.0,0.0,-0.001,0
2470524000,-0.026,0.009,-2.980e-05,0.0,0.0,-0.001,0
2470624000,-0.026,0.009,-3.129e-05,0.0,0.0,-0.001,0
2470724000,-0.026,0.008,-3.069e-05,0.0,0.0,-0.001,0
2470824000,-0.026,0.008,-2.861e-05,0.0,0.0,-0.001,0
2470924000,-0.026,0.008,-3.248e-05,0.0,0.0,-0.001,0
2471024000,-0.026,0.008,-2.861e-05,0.0,0.0,-0.001,0
2471124000,-0.026,0.008,-2.831e-05,0.0,0.0,-0.001,0
2471224000,-0.027,0.116,-0.013,0.0,0.0,-0.006,0
2471324000,-0.024,0.010,-0.004,0.0,0.0,-0.018,0
2471424000,-0.023,0.008,-0.001,0.0,0.0,-0.031,0
2471524000,-0.023,0.007,-0.000,0.0,0.0,-0.044,0
2471624000,-0.023,0.005,-0.000,0.0,0.0,-0.060,0
2471724000,-0.022,0.003,-5.035e-05,0.0,0.0,-0.084,0
2471824000,-0.022,0.002,-1.409e-05,0.0,0.0,-0.110,0
2471924000,-0.022,0.001,1.551e-05,0.0,0.0,-0.135,0
2472024000,-0.022,0.001,4.294e-09,0.0,0.0,-0.163,0
2472124000,-0.021,0.000,5.349e-06,0.0,0.0,-0.190,0
2472224000,-0.021,-0.000,1.023e-05,0.0,0.0,-0.222,0
2472324000,-0.021,-0.001,8.397e-05,0.0,0.0,-0.253,0
2472424000,-0.021,-0.001,0.000,0.0,0.0,-0.288,0
2472524000,-0.020,-0.002,0.000,0.0,0.0,-0.323,0
2472624000,-0.020,-0.001,0.000,0.0,0.0,-0.362,0
2472724000,-0.020,-0.001,-2.145e-05,0.0,0.0,-0.400,0
2472824000,-0.019,-0.001,-6.645e-05,0.0,0.0,-0.444,0
2472924000,-0.020,-0.002,0.000,0.0,0.0,-0.485,0
2473024000,-0.019,-0.003,0.000,0.0,0.0,-0.533,0
2473124000,-0.020,-0.004,0.000,0.0,0.0,-0.578,0
2473224000,-0.019,-0.004,0.001,0.0,0.0,-0.629,0
2473324000,-0.019,-0.005,0.001,0.0,0.0,-0.678,0
2473424000,-0.020,-0.007,0.002,0.0,0.0,-0.708,0
2473524000,-0.020,-0.008,0.002,0.0,0.0,-0.722,0
2473644000,-0.020,-0.009,0.003,0.0,0.0,-0.740,0
2473744000,-0.020,-0.010,0.003,0.0,0.0,-0.756,0
2473844000,-0.020,-0.011,0.003,0.0,0.0,-0.770,0
2473944000,-0.021,-0.012,0.003,0.0,0.0,-0.786,0
2474044000,-0.021,-0.013,0.003,0.0,0.0,-0.801,0
2474144000,-0.022,-0.014,0.003,0.0,0.0,-0.818,0
2474244000,-0.022,-0.014,0.004,0.0,0.0,-0.833,0
2474344000,-0.022,-0.013,0.004,0.0,0.0,-0.849,0
2474444000,-0.022,-0.013,0.004,0.0,0.0,-0.864,0
2474544000,-0.023,-0.009,0.004,0.0,0.0,-0.878,0
2474644000,-0.022,0.001,0.003,0.0,0.0,-0.885,0
2474744000,-0.019,0.002,0.002,0.0,0.0,-0.889,0
2474844000,-0.015,0.002,0.001,0.0,0.0,-0.890,0
2474944000,-0.010,0.003,0.001,0.0,0.0,-0.890,0
2475044000,-0.005,0.002,0.000,0.0,0.0,-0.890,0
2475144000,-0.000,0.001,0.000,0.0,0.0,-0.889,0
2475244000,0.004,0.000,3.635e-05,0.0,0.0,-0.888,0
2475344000,0.009,0.000,-0.000,0.0,0.0,-0.887,0
2475444000,0.013,0.001,-0.000,0.0,0.0,-0.886,0
2475544000,0.016,0.001,-7.063e-05,0.0,0.0,-0.886,0
2475644000,0.018,0.001,7.450e-06,0.0,0.0,-0.885,0
2475744000,0.019,0.002,-8.702e-05,0.0,0.0,-0.884,0
2475844000,0.019,0.002,-0.000,0.0,0.0,-0.883,0
2475944000,0.019,0.001,-0.000,0.0,0.0,-0.882,0
2476044000,0.017,0.001,-0.001,0.0,0.0,-0.881,0
2476144000,0.016,0.000,-0.001,0.0,0.0,-0.880,0
2476244000,0.013,0.000,-0.001,0.0,0.0,-0.879,0
2476348000,0.010,0.000,-0.001,0.0,0.0,-0.879,0
2476464000,0.006,2.686e-05,-0.000,0.0,0.0,-0.878,0
2476564000,0.003,-7.675e-05,-0.000,0.0,0.0,-0.877,0
2476664000,0.000,-0.000,0.000,0.0,0.0,-0.876,0
2476764000,-0.001,-0.000,0.000,0.0,0.0,-0.876,0
2476864000,-0.003,-0.000,0.000,0.0,0.0,-0.875,0
2476964000,-0.005,-0.001,0.000,0.0,0.0,-0.875,0
2477064000,-0.006,-0.001,0.000,0.0,0.0,-0.875,0
2477164000,-0.007,-0.002,0.000,0.0,0.0,-0.874,0
2477264000,-0.007,-0.002,0.000,0.0,0.0,-0.874,0
2477364000,-0.007,-0.002,-0.000,0.0,0.0,-0.873,0
2477464000,-0.007,-0.002,-0.000,0.0,0.0,-0.873,0
2477564000,-0.007,-0.001,-0.001,0.0,0.0,-0.872,0
2477664000,-0.007,-0.001,-0.001,0.0,0.0,-0.872,0
2477764000,-0.007,-0.001,-0.002,0.0,0.0,-0.871,0
2477864000,-0.007,-0.000,-0.002,0.0,0.0,-0.871,0
2477964000,-0.006,-0.000,-0.003,0.0,0.0,-0.870,0
2478064000,-0.006,-0.000,-0.003,0.0,0.0,-0.870,0
2478164000,-0.006,0.000,-0.003,0.0,0.0,-0.869,0
2478264000,-0.007,0.001,-0.002,0.0,0.0,-0.869,0
2478364000,-0.007,0.001,-0.001,0.0,0.0,-0.869,0
2478464000,-0.007,0.001,-0.001,0.0,0.0,-0.869,0
2478564000,-0.006,0.000,-0.000,0.0,0.0,-0.869,0
2478664000,-0.004,0.000,-0.001,0.0,0.0,-0.869,0
2478764000,-0.002,2.206e-05,-0.001,0.0,0.0,-0.868,0
2478864000,-0.000,0.000,-0.001,0.0,0.0,-0.868,0
2478964000,0.001,0.000,-0.001,0.0,0.0,-0.868,0
2479064000,0.003,0.001,-0.000,0.0,0.0,-0.868,0
2479164000,0.005,0.001,-0.000,0.0,0.0,-0.868,0
2479264000,0.005,-4.877e-05,0.000,0.0,0.0,-0.868,0
2479364000,0.005,-0.000,0.000,0.0,0.0,-0.867,0
2479464000,0.004,-0.000,-5.960e-05,0.0,0.0,-0.867,0
2479564000,0.004,-0.001,-0.000,0.0,0.0,-0.867,0
2479664000,0.003,-0.001,-0.000,0.0,0.0,-0.867,0
2479764000,0.002,-0.001,-0.000,0.0,0.0,-0.898,0
2479864000,0.000,-0.001,-0.000,0.0,0.0,-0.887,0
2479964000,-0.000,-0.001,-0.000,0.0,0.0,-0.891,0
2480064000,-0.001,-0.001,-0.000,0.0,0.0,-0.884,0
2480164000,-0.003,-0.001,8.374e-05,0.0,0.0,-0.890,0
2480264000,-0.004,-0.001,0.000,0.0,0.0,-0.885,0
2480364000,-0.005,-0.000,0.000,0.0,0.0,-0.890,0
2480464000,-0.005,-0.000,0.000,0.0,0.0,-0.885,0
2480568000,-0.006,0.000,0.000,0.0,0.0,-0.891,0
2480684000,-0.006,0.000,0.000,0.0,0.0,-0.892,0
2480784000,-0.006,0.000,0.000,0.0,0.0,-0.887,0
2480884000,-0.005,-0.000,0.000,0.0,0.0,-0.893,0
2480984000,-0.005,0.000,3.427e-05,0.0,0.0,-0.889,0
2481084000,-0.004,0.000,6.258e-06,0.0,0.0,-0.894,0
2481184000,-0.003,0.000,4.261e-05,0.0,0.0,-0.890,0
2481284000,-0.003,0.000,9.089e-05,0.0,0.0,-0.896,0
2481384000,-0.002,0.001,0.000,0.0,0.0,-0.891,0
2481484000,-0.001,0.000,0.000,0.0,0.0,-0.898,0
2481604000,0.000,-0.000,0.000,0.0,0.0,-0.899,0
2481704000,0.001,4.414e-05,0.000,0.0,0.0,-0.895,0
2481804000,0.003,-0.000,8.821e-05,0.0,0.0,-0.901,0
2481904000,0.003,-0.000,7.271e-05,0.0,0.0,-0.896,0
2482004000,0.004,0.000,8.344e-06,0.0,0.0,-0.902,0
2482104000,0.006,0.001,-0.000,0.0,0.0,-0.862,0
2482204000,0.007,0.001,-0.000,0.0,0.0,-0.850,0
2482304000,0.007,0.001,-0.000,0.0,0.0,-0.858,0
2482404000,0.008,0.001,-0.001,0.0,0.0,-0.862,0
2482504000,0.008,0.002,-0.001,0.0,0.0,-0.865,0
2482604000,0.007,0.002,-0.001,0.0,0.0,-0.866,0
2482704000,0.007,0.000,-0.002,0.0,0.0,-0.867,0
2482804000,0.007,-0.000,-0.001,0.0,0.0,-0.867,0
2482904000,0.006,-0.001,-0.001,0.0,0.0,-0.867,0
2483004000,0.004,-0.000,-0.001,0.0,0.0,-0.867,0
2483104000,0.003,-9.227e-05,-0.000,0.0,0.0,-0.867,0
2483204000,0.001,0.000,-0.000,0.0,0.0,-0.867,0
2483304000,-0.000,0.000,-0.000,0.0,0.0,-0.867,0
2483404000,-0.001,0.001,0.000,0.0,0.0,-0.867,0
2483504000,-0.003,0.002,0.000,0.0,0.0,-0.866,0
2483604000,-0.004,0.002,0.000,0.0,0.0,-0.866,0
2483704000,-0.004,0.002,0.000,0.0,0.0,-0.866,0
2483804000,-0.005,0.001,0.000,0.0,0.0,-0.866,0
2483904000,-0.004,0.001,0.000,0.0,0.0,-0.866,0
2484004000,-0.004,0.001,0.000,0.0,0.0,-0.867,0
2484104000,-0.003,0.001,0.000,0.0,0.0,-0.867,0
2484204000,-0.003,0.001,0.000,0.0,0.0,-0.867,0
2484304000,-0.002,0.001,0.001,0.0,0.0,-0.867,0
2484404000,-0.001,0.001,0.001,0.0,0.0,-0.867,0
2484504000,-0.001,0.000,0.002,0.0,0.0,-0.866,0
2484604000,-0.001,0.000,0.002,0.0,0.0,-0.866,0
2484704000,-0.001,-0.000,0.002,0.0,0.0,-0.866,0
2484804000,-0.000,-0.000,0.002,0.0,0.0,-0.865,0
2484904000,0.000,-0.000,0.002,0.0,0.0,-0.865,0
2485004000,0.001,-0.000,0.001,0.0,0.0,-0.865,0
2485104000,0.001,-0.001,0.001,0.0,0.0,-0.865,0
2485204000,0.002,-0.002,0.000,0.0,0.0,-0.865,0
2485304000,0.002,-0.000,0.000,0.0,0.0,-0.865,0
2485404000,0.001,-0.000,0.001,0.0,0.0,-0.865,0
2485504000,0.000,-0.000,0.002,0.0,0.0,-0.865,0
2485604000,0.000,-0.000,0.002,0.0,0.0,-0.864,0
2485704000,0.000,-0.000,0.002,0.0,0.0,-0.864,0
2485804000,0.000,-0.000,0.002,0.0,0.0,-0.864,0
2485904000,-7.171e-05,-7.653e-05,0.002,0.0,0.0,-0.864,0
2486004000,-0.000,-0.000,0.001,0.0,0.0,-0.864,0
2486104000,-0.000,-0.001,0.001,0.0,0.0,-0.864,0
2486204000,-0.001,-0.001,0.001,0.0,0.0,-0.864,0
2486304000,-0.001,-0.001,0.000,0.0,0.0,-0.864,0
2486404000,-0.001,-0.001,0.000,0.0,0.0,-0.864,0
2486504000,-0.001,-0.002,0.000,0.0,0.0,-0.864,0
2486604000,-0.001,-0.002,0.000,0.0,0.0,-0.864,0
2486704000,-0.002,-0.001,5.900e-05,0.0,0.0,-0.864,0
2486804000,-0.001,-0.000,-9.715e-05,0.0,0.0,-0.865,0
2486904000,-0.001,4.962e-05,-0.000,0.0,0.0,-0.865,0
2487004000,-0.000,0.000,-0.000,0.0,0.0,-0.865,0
2487104000,-0.000,-0.000,-0.000,0.0,0.0,-0.865,0
2487204000,0.000,-7.102e-05,-0.000,0.0,0.0,-0.865,0
2487304000,0.001,-8.309e-05,-0.000,0.0,0.0,-0.865,0
2487408000,0.002,-2.714e-05,-0.000,0.0,0.0,-0.856,0
2487524000,0.003,-7.860e-05,-0.000,0.0,0.0,-0.790,0
2487624000,0.004,-0.001,-0.000,0.0,0.0,-0.748,0
2487724000,0.005,-0.000,-0.000,0.0,0.0,-0.705,0
2487824000,0.006,-0.000,-0.000,0.0,0.0,-0.667,0
2487924000,0.007,-0.001,-7.539e-05,0.0,0.0,-0.649,0
2488024000,0.007,-0.001,5.811e-05,0.0,0.0,-0.664,0
2488124000,0.007,-0.001,0.000,0.0,0.0,-0.674,0
2488224000,0.006,-0.001,0.000,0.0,0.0,-0.733,0
2488324000,0.005,-6.753e-05,0.000,0.0,0.0,-0.779,0
2488424000,0.002,0.000,-8.553e-05,0.0,0.0,-0.819,0
2488524000,-2.667e-05,0.001,-0.000,0.0,0.0,-0.861,0
2488624000,-0.002,0.002,-0.001,0.0,0.0,-0.901,0
2488724000,-0.005,0.002,-0.002,0.0,0.0,-0.887,0
2488824000,-0.006,0.002,-0.002,0.0,0.0,-0.876,0
2488924000,-0.007,0.002,-0.003,0.0,0.0,-0.868,0
2489024000,-0.008,0.001,-0.003,0.0,0.0,-0.863,0
2489124000,-0.008,0.000,-0.003,0.0,0.0,-0.860,0
2489224000,-0.007,0.001,-0.002,0.0,0.0,-0.859,0
2489324000,-0.007,0.000,-0.002,0.0,0.0,-0.858,0
2489424000,-0.007,0.001,-0.001,0.0,0.0,-0.858,0
2489524000,-0.007,0.001,-0.001,0.0,0.0,-0.858,0
2489624000,-0.005,0.000,-0.000,0.0,0.0,-0.859,0
2489724000,-0.004,-9.916e-05,-0.000,0.0,0.0,-0.860,0
2489824000,-0.003,-0.001,-9.924e-05,0.0,0.0,-0.860,0
2489924000,-0.002,-0.001,-2.413e-05,0.0,0.0,-0.860,0
2490024000,-0.000,-0.001,3.218e-05,0.0,0.0,-0.861,0
2490124000,0.001,-0.001,0.000,0.0,0.0,-0.861,0
2490224000,0.003,7.479e-05,0.000,0.0,0.0,-0.861,0
2490324000,0.004,0.001,0.000,0.0,0.0,-0.861,0
2490424000,0.003,0.002,0.000,0.0,0.0,-0.862,0
2490524000,0.003,0.001,0.000,0.0,0.0,-0.862,0
2490624000,0.002,0.001,1.579e-05,0.0,0.0,-0.863,0
2490724000,0.001,0.002,-0.000,0.0,0.0,-0.863,0
2490824000,0.000,0.001,-0.001,0.0,0.0,-0.863,0
2490924000,0.000,0.000,-0.000,0.0,0.0,-0.863,0
2491024000,0.001,0.000,-0.000,0.0,0.0,-0.864,0
2491124000,0.001,-4.673e-06,0.000,0.0,0.0,-0.864,0
2491224000,0.001,-7.659e-06,0.000,0.0,0.0,-0.864,0
2491324000,0.001,-0.001,0.000,0.0,0.0,-0.864,0
2491424000,0.000,-0.000,0.000,0.0,0.0,-0.864,0
2491524000,0.000,-0.001,0.000,0.0,0.0,-0.865,0
2491624000,-0.000,-0.002,0.000,0.0,0.0,-0.865,0
2491724000,-0.000,-0.002,0.000,0.0,0.0,-0.865,0
2491824000,-0.000,-0.002,0.000,0.0,0.0,-0.866,0
2491924000,-0.000,-0.001,0.000,0.0,0.0,-0.865,0
2492024000,-0.000,-0.001,0.000,0.0,0.0,-0.865,0
2492124000,-0.000,-0.001,0.000,0.0,0.0,-0.865,0
2492224000,-0.000,-0.000,0.000,0.0,0.0,-0.864,0
2492324000,-0.001,-0.001,0.000,0.0,0.0,-0.864,0
2492424000,-0.002,-0.000,0.000,0.0,0.0,-0.864,0
2492524000,-0.002,-0.001,0.000,0.0,0.0,-0.864,0
2492624000,-0.003,-0.001,0.000,0.0,0.0,-0.864,0
2492724000,-0.003,-0.000,0.000,0.0,0.0,-0.864,0
2492824000,-0.003,-0.000,0.000,0.0,0.0,-0.864,0
2492924000,-0.003,-0.000,-2.980e-07,0.0,0.0,-0.864,0
2493024000,-0.003,-0.000,-3.427e-05,0.0,0.0,-0.864,0
2493124000,-0.002,-0.001,1.728e-05,0.0,0.0,-0.864,0
2493224000,-0.002,-0.000,0.000,0.0,0.0,-0.864,0
2493324000,-0.001,0.000,0.000,0.0,0.0,-0.864,0
2493424000,-0.000,0.001,-0.000,0.0,0.0,-0.864,0
2493524000,0.000,0.001,-0.000,0.0,0.0,-0.864,0
2493624000,0.000,0.001,-0.000,0.0,0.0,-0.864,0
2493724000,0.000,0.000,-0.001,0.0,0.0,-0.864,0
2493824000,0.001,0.000,-0.001,0.0,0.0,-0.864,0
2493924000,0.002,0.000,-0.001,0.0,0.0,-0.864,0
2494024000,0.003,0.001,-0.001,0.0,0.0,-0.865,0
2494124000,0.004,0.000,-0.000,0.0,0.0,-0.865,0
2494224000,-0.018,-0.003,0.000,0.0,0.0,-0.865,0
2494324000,-0.017,-0.001,0.000,0.0,0.0,-0.865,0
2494424000,-0.016,-0.000,0.001,0.0,0.0,-0.865,0
2494524000,-0.013,-0.000,0.000,0.0,0.0,-0.865,0
2494624000,-0.011,5.748e-06,0.000,0.0,0.0,-0.865,0
2494724000,-0.009,7.917e-05,6.854e-06,0.0,0.0,-0.865,0
2494824000,-0.007,9.424e-05,-0.000,0.0,0.0,-0.865,0
2494944000,-0.005,0.000,-0.000,0.0,0.0,-0.865,0
2495044000,-0.003,0.000,-0.000,0.0,0.0,-0.864,0
2495144000,-0.001,0.000,-0.000,0.0,0.0,-0.864,0
2495264000,-4.977e-05,0.000,-0.001,0.0,0.0,-0.864,0
2495364000,0.000,0.000,-0.001,0.0,0.0,-0.863,0
2495464000,0.001,6.439e-05,-0.000,0.0,0.0,-0.863,0
2495584000,0.001,-2.284e-05,-0.000,0.0,0.0,-0.863,0
2495684000,0.002,-0.000,-4.321e-05,0.0,0.0,-0.863,0
2495784000,0.002,-0.000,7.539e-05,0.0,0.0,-0.863,0
2495884000,0.002,-0.000,0.000,0.0,0.0,-0.863,0
2495984000,0.002,-0.000,0.001,0.0,0.0,-0.864,0
2496084000,0.001,-0.000,0.001,0.0,0.0,-0.864,0
2496184000,0.001,-0.000,0.001,0.0,0.0,-0.864,0
2496284000,0.001,-0.000,0.000,0.0,0.0,-0.865,0
2496384000,0.001,-2.598e-05,-0.000,0.0,0.0,-0.864,0
2496484000,0.000,-4.150e-05,-0.000,0.0,0.0,-0.864,0
2496584000,0.000,-6.639e-05,-0.000,0.0,0.0,-0.864,0
2496684000,1.983e-05,-0.000,0.000,0.0,0.0,-0.865,0
2496784000,-0.000,-0.000,0.002,0.0,0.0,-0.865,0
2496884000,-0.000,-0.000,0.003,0.0,0.0,-0.865,0
2496984000,-0.000,-0.000,0.004,0.0,0.0,-0.865,0
2497084000,0.034,-0.000,0.003,0.0,0.0,-0.865,0
2497184000,0.134,0.000,0.001,0.0,0.0,-0.866,0
2497284000,0.325,6.038e-05,0.000,0.0,0.0,-0.873,0
2497384000,0.795,-0.000,-0.000,0.0,0.0,-0.927,0
2497484000,0.765,0.001,-0.001,0.0,0.0,-0.890,0
2497608000,0.658,0.000,-0.001,0.0,0.0,-0.866,0
2497724000,0.533,7.751e-05,-0.001,0.0,0.0,-0.857,0
2497824000,0.427,-7.480e-06,-0.001,0.0,0.0,-0.858,0
2497924000,0.325,0.000,-0.000,0.0,0.0,-0.862,0
2498024000,0.232,0.002,0.003,0.0,0.0,-0.869,0
2498124000,0.152,0.008,0.012,0.0,0.0,-0.877,0
2498224000,0.084,0.018,0.030,0.0,0.0,-0.886,0
2498324000,0.030,0.009,0.028,0.0,0.0,-0.894,0
2498424000,-0.009,0.005,0.026,0.0,0.0,-0.901,0
2498524000,-0.038,-0.001,0.016,0.0,0.0,-0.908,0
2498624000,-0.057,-0.001,0.010,0.0,0.0,-0.912,0
2498724000,-0.067,-0.001,0.001,0.0,0.0,-0.915,0
2498824000,-0.070,-0.000,-0.002,0.0,0.0,-0.916,0
2498924000,-0.069,0.001,-0.003,0.0,0.0,-0.916,0
2499024000,-0.063,0.001,-0.002,0.0,0.0,-0.916,0
2499124000,-0.056,0.001,-0.000,0.0,0.0,-0.915,0
2499224000,-0.518,-0.002,0.001,0.0,0.0,-0.845,0
2499324000,-0.884,-0.002,0.002,0.0,0.0,-0.867,0
2499424000,-0.832,-0.002,0.002,0.0,0.0,-0.895,0
2499524000,-0.743,-0.001,0.002,0.0,0.0,-0.907,0
2499624000,-0.635,-0.001,0.002,0.0,0.0,-0.907,0
2499724000,-0.521,-0.001,0.002,0.0,0.0,-0.899,0
2499824000,-0.409,-0.001,-0.002,0.0,0.0,-0.890,0
2499924000,-0.305,-0.001,-0.005,0.0,0.0,-0.881,0
2500024000,-0.212,-0.001,-0.008,0.0,0.0,-0.873,0
2500124000,-0.132,-0.000,-0.010,0.0,0.0,-0.867,0
2500224000,-0.066,-0.000,-0.011,0.0,0.0,-0.864,0
2500324000,-0.013,3.600e-05,-0.011,0.0,0.0,-0.861,0
2500424000,0.025,0.000,-0.010,0.0,0.0,-0.860,0
2500524000,0.054,0.000,-0.009,0.0,0.0,-0.860,0
2500624000,0.052,0.000,-0.009,0.0,0.0,-0.860,0
2500724000,0.063,0.000,-0.009,0.0,0.0,-0.860,0
2500824000,-0.477,0.003,-0.008,0.0,0.0,-0.896,0
2500924000,-0.757,0.002,-0.006,0.0,0.0,-0.918,0
2501024000,-0.707,0.002,-0.004,0.0,0.0,-0.883,0
2501144000,-0.609,0.001,-0.002,0.0,0.0,-0.861,0
2501244000,-0.514,0.000,-0.002,0.0,0.0,-0.856,0
2501344000,-0.415,0.000,-0.002,0.0,0.0,-0.857,0
2501444000,-0.320,0.000,-0.002,0.0,0.0,-0.863,0
2501544000,-0.232,0.000,-0.002,0.0,0.0,-0.871,0
2501644000,-0.155,0.000,-0.001,0.0,0.0,-0.881,0
2501744000,-0.090,0.000,-0.001,0.0,0.0,-0.890,0
2501844000,-0.037,8.785e-05,-0.001,0.0,0.0,-0.899,0
2501944000,0.002,0.000,-0.001,0.0,0.0,-0.907,0
2502044000,0.031,0.000,-0.002,0.0,0.0,-0.913,0
2502144000,0.050,0.001,-0.002,0.0,0.0,-0.918,0
2502244000,0.060,0.001,-0.003,0.0,0.0,-0.922,0
2502344000,0.064,0.002,-0.003,0.0,0.0,-0.923,0
2502444000,0.064,0.002,-0.003,0.0,0.0,-0.924,0
2502544000,0.060,0.002,-0.004,0.0,0.0,-0.924,0
2502644000,0.888,-0.003,-0.007,0.0,0.0,-0.842,0
2502744000,0.883,0.011,-0.007,0.0,0.0,-0.885,0
2502844000,0.811,0.007,-0.006,0.0,0.0,-0.911,0
2502944000,0.713,0.004,-0.006,0.0,0.0,-0.918,0
2503044000,0.600,0.003,-0.006,0.0,0.0,-0.914,0
2503144000,0.484,0.007,-0.005,0.0,0.0,-0.905,0
2503244000,0.373,0.004,-0.004,0.0,0.0,-0.894,0
2503344000,0.272,0.002,-0.004,0.0,0.0,-0.884,0
2503444000,0.183,0.001,-0.003,0.0,0.0,-0.876,0
2503544000,0.107,0.000,-0.002,0.0,0.0,-0.870,0
2503644000,0.046,0.000,-0.002,0.0,0.0,-0.865,0
2503744000,-0.001,0.000,-0.001,0.0,0.0,-0.863,0
2503844000,-0.036,6.265e-05,-0.000,0.0,0.0,-0.861,0
2503944000,-0.060,-1.601e-05,-9.566e-05,0.0,0.0,-0.860,0
2504044000,-0.074,-0.000,0.000,0.0,0.0,-0.860,0
2504144000,0.110,6.754e-05,0.000,0.0,0.0,-0.864,0
2504244000,0.692,-0.002,0.000,0.0,0.0,-0.910,0
2504344000,0.724,0.000,-0.000,0.0,0.0,-0.887,0
2504444000,0.646,0.000,-0.001,0.0,0.0,-0.864,0
2504544000,0.553,5.209e-05,-0.001,0.0,0.0,-0.855,0
2504644000,0.454,8.890e-05,-0.001,0.0,0.0,-0.852,0
2504744000,0.356,0.000,-0.001,0.0,0.0,-0.856,0
2504864000,0.247,0.000,-0.001,0.0,0.0,-0.864,0
2504964000,0.167,0.000,-0.000,0.0,0.0,-0.873,0
2505064000,0.099,0.000,-0.000,0.0,0.0,-0.881,0
2505164000,0.044,0.000,5.215e-05,0.0,0.0,-0.891,0
2505264000,0.001,0.000,0.000,0.0,0.0,-0.899,0
2505364000,-0.029,0.000,0.000,0.0,0.0,-0.906,0
2505464000,-0.049,0.000,0.000,0.0,0.0,-0.911,0
2505564000,-0.062,0.000,0.000,0.0,0.0,-0.915,0
2505664000,-0.067,0.000,0.000,0.0,0.0,-0.917,0
2505764000,-0.067,0.000,0.000,0.0,0.0,-0.918,0
2505864000,-0.063,0.000,0.000,0.0,0.0,-0.918,0
2505964000,-0.057,0.000,0.000,0.0,0.0,-0.918,0
2506064000,-0.912,-0.004,0.001,0.0,0.0,-0.844,0
2506164000,-0.874,-0.002,0.002,0.0,0.0,-0.886,0
2506264000,-0.796,-0.000,0.003,0.0,0.0,-0.906,0
2506364000,-0.694,-0.000,0.003,0.0,0.0,-0.911,0
2506464000,-0.580,0.000,0.002,0.0,0.0,-0.907,0
2506564000,-0.465,0.000,0.002,0.0,0.0,-0.897,0
2506664000,-0.355,0.000,0.001,0.0,0.0,-0.888,0
2506764000,-0.255,0.000,0.001,0.0,0.0,-0.879,0
2506864000,-0.168,0.000,0.000,0.0,0.0,-0.873,0
2506964000,-0.096,0.000,0.000,0.0,0.0,-0.868,0
2507064000,-0.037,0.000,2.592e-05,0.0,0.0,-0.865,0
2507164000,0.007,0.000,-0.000,0.0,0.0,-0.863,0
2507264000,0.040,0.000,-0.000,0.0,0.0,-0.862,0
2507364000,0.063,5.147e-05,-0.000,0.0,0.0,-0.862,0
2507464000,-0.015,3.891e-05,-0.000,0.0,0.0,-0.862,0
2507564000,-0.005,-3.304e-05,-0.000,0.0,0.0,-0.862,0
2507664000,0.003,-6.754e-05,-0.000,0.0,0.0,-0.862,0
2507764000,-0.754,0.008,0.000,0.0,0.0,-0.915,0
2507864000,-0.700,0.003,0.000,0.0,0.0,-0.881,0
2507964000,-0.620,0.001,0.001,0.0,0.0,-0.863,0
2508064000,-0.527,0.000,0.001,0.0,0.0,-0.857,0
2508164000,-0.430,0.000,0.001,0.0,0.0,-0.858,0
2508264000,-0.334,0.000,0.000,0.0,0.0,-0.862,0
2508364000,-0.246,0.000,0.000,0.0,0.0,-0.870,0
2508464000,-0.167,0.000,0.000,0.0,0.0,-0.879,0
2508564000,-0.100,0.000,-0.000,0.0,0.0,-0.888,0
2508664000,-0.046,2.259e-05,-0.000,0.0,0.0,-0.897,0
2508764000,-0.004,1.686e-05,-0.000,0.0,0.0,-0.905,0
2508864000,0.026,6.723e-05,-0.000,0.0,0.0,-0.911,0
2508964000,0.046,0.000,-0.000,0.0,0.0,-0.917,0
2509064000,0.058,0.000,-0.000,0.0,0.0,-0.920,0
2509164000,0.064,0.000,-0.000,0.0,0.0,-0.923,0
2509264000,0.064,0.000,-0.000,0.0,0.0,-0.924,0
2509364000,0.061,-0.000,-0.000,0.0,0.0,-0.923,0
2509464000,0.055,-0.030,-0.010,0.0,0.0,-0.923,0
2509564000,0.048,-0.014,-0.008,0.0,0.0,-0.921,0
2509664000,0.894,0.022,-0.000,0.0,0.0,-0.852,0
2509764000,0.846,0.011,0.000,0.0,0.0,-0.893,0
2509864000,0.763,0.005,0.000,0.0,0.0,-0.910,0
2509964000,0.659,0.002,-7.808e-05,0.0,0.0,-0.914,0
2510064000,0.546,0.001,-0.000,0.0,0.0,-0.908,0
2510164000,0.434,0.000,-0.000,0.0,0.0,-0.898,0
2510264000,0.327,0.000,-0.000,0.0,0.0,-0.889,0
2510364000,0.235,0.000,-0.000,0.0,0.0,-0.880,0
2510464000,0.149,0.000,6.616e-05,0.0,0.0,-0.872,0
2510564000,0.080,-9.161e-05,0.000,0.0,0.0,-0.867,0
2510664000,0.028,-0.000,0.000,0.0,0.0,-0.863,0
2510764000,-0.012,-0.000,0.001,0.0,0.0,-0.861,0
2510864000,-0.040,-0.000,0.001,0.0,0.0,-0.860,0
2510964000,0.068,-0.000,0.001,0.0,0.0,-0.861,0
2511064000,0.533,0.000,0.000,0.0,0.0,-0.893,0
2511164000,0.736,0.003,-0.000,0.0,0.0,-0.901,0
2511264000,0.660,0.001,-0.000,0.0,0.0,-0.872,0
2511364000,0.568,0.000,-0.001,0.0,0.0,-0.858,0
2511464000,0.468,8.171e-05,-0.001,0.0,0.0,-0.854,0
2511564000,0.369,-0.000,-0.000,0.0,0.0,-0.856,0
2511664000,0.275,-0.000,-0.000,0.0,0.0,-0.861,0
2511764000,0.191,-0.000,-0.000,0.0,0.0,-0.870,0
2511864000,0.119,-0.000,0.000,0.0,0.0,-0.879,0
2511964000,0.059,-0.000,0.000,0.0,0.0,-0.889,0
2512064000,0.013,-0.000,0.000,0.0,0.0,-0.897,0
2512164000,-0.021,-0.000,0.000,0.0,0.0,-0.903,0
2512264000,-0.044,-0.000,0.001,0.0,0.0,-0.909,0
2512364000,-0.059,-0.000,0.000,0.0,0.0,-0.913,0
2512464000,-0.066,-0.000,0.000,0.0,0.0,-0.915,0
2512564000,-0.068,-0.000,0.000,0.0,0.0,-0.917,0
2512664000,-0.065,-0.000,0.000,0.0,0.0,-0.917,0
2512764000,-0.305,-0.003,0.001,0.0,0.0,-0.884,0
2512864000,-0.899,-0.002,0.001,0.0,0.0,-0.873,0
2512964000,-0.835,-0.001,0.001,0.0,0.0,-0.903,0
2513064000,-0.741,-0.000,0.002,0.0,0.0,-0.912,0
2513164000,-0.631,6.073e-05,0.002,0.0,0.0,-0.911,0
2513264000,-0.515,0.000,0.002,0.0,0.0,-0.903,0
2513364000,-0.402,0.000,0.002,0.0,0.0,-0.893,0
2513464000,-0.298,0.000,0.001,0.0,0.0,-0.885,0
2513564000,-0.205,0.000,0.001,0.0,0.0,-0.877,0
2513664000,-0.126,0.000,0.001,0.0,0.0,-0.871,0
2513764000,-0.062,0.000,0.000,0.0,0.0,-0.867,0
2513864000,-0.011,0.000,0.000,0.0,0.0,-0.864,0
2513964000,0.027,0.000,0.000,0.0,0.0,-0.863,0
2514064000,0.053,0.000,0.000,0.0,0.0,-0.862,0
2514164000,0.017,0.000,-1.341e-05,0.0,0.0,-0.862,0
2514264000,-0.313,0.000,-0.000,0.0,0.0,-0.878,0
2514364000,-0.295,0.000,-4.470e-05,0.0,0.0,-0.870,0
2514464000,-0.264,0.000,0.000,0.0,0.0,-0.865,0
2514564000,-0.695,0.003,0.000,0.0,0.0,-0.909,0
2514664000,-0.626,0.001,0.001,0.0,0.0,-0.877,0
2514764000,-0.539,0.000,0.001,0.0,0.0,-0.863,0
2514884000,-0.427,0.000,0.001,0.0,0.0,-0.859,0
2514984000,-0.334,9.852e-05,0.000,0.0,0.0,-0.862,0
2515084000,-0.248,0.000,0.000,0.0,0.0,-0.868,0
2515184000,-0.170,8.517e-05,0.000,0.0,0.0,-0.876,0
2515284000,-0.104,6.115e-05,-0.000,0.0,0.0,-0.885,0
2515384000,-0.050,0.000,-0.000,0.0,0.0,-0.894,0
2515484000,0.635,-0.031,-0.005,0.0,0.0,-0.823,0
2515584000,0.863,0.000,-0.003,0.0,0.0,-0.870,0
2515684000,0.826,0.001,-0.003,0.0,0.0,-0.902,0
2515784000,0.752,0.000,-0.003,0.0,0.0,-0.917,0
2515884000,0.655,0.000,-0.003,0.0,0.0,-0.918,0
2515984000,0.547,0.000,-0.002,0.0,0.0,-0.912,0
2516084000,0.439,0.007,-0.001,0.0,0.0,-0.902,0
2516184000,0.252,0.003,-0.000,0.0,0.0,-0.893,0
2516284000,-0.036,0.001,0.000,0.0,0.0,-0.890,0
2516384000,-0.335,0.000,0.000,0.0,0.0,-0.891,0
2516484000,-0.684,0.002,0.001,0.0,0.0,-0.914,0
2516584000,-0.667,0.001,0.002,0.0,0.0,-0.880,0
2516684000,-0.610,0.001,0.002,0.0,0.0,-0.863,0
2516784000,-0.535,0.001,0.002,0.0,0.0,-0.856,0
2516884000,-0.452,0.000,0.001,0.0,0.0,-0.856,0
2516984000,-0.365,0.000,0.000,0.0,0.0,-0.860,0
2517084000,-0.282,0.000,0.000,0.0,0.0,-0.867,0
2517184000,-0.206,0.000,4.470e-06,0.0,0.0,-0.876,0
2517284000,-0.139,0.000,-0.000,0.0,0.0,-0.885,0
2517384000,-0.082,0.000,-0.000,0.0,0.0,-0.894,0
2517484000,-0.037,0.000,-0.000,0.0,0.0,-0.902,0
2517584000,-0.003,-0.000,-0.000,0.0,0.0,-0.909,0
2517684000,0.021,-0.000,-0.000,0.0,0.0,-0.914,0
2517784000,0.037,-0.000,-0.000,0.0,0.0,-0.918,0
2517884000,0.286,-0.001,-0.000,0.0,0.0,-0.889,0
2517984000,0.890,-0.001,-0.000,0.0,0.0,-0.878,0
2518084000,0.836,-0.001,-0.001,0.0,0.0,-0.909,0
2518184000,0.748,-0.000,-0.001,0.0,0.0,-0.920,0
2518284000,0.640,-0.000,-0.001,0.0,0.0,-0.917,0
2518384000,0.526,-0.000,-0.001,0.0,0.0,-0.908,0
2518484000,0.413,-3.334e-05,-0.001,0.0,0.0,-0.897,0
2518584000,0.308,0.000,-0.000,0.0,0.0,-0.885,0
2518684000,0.215,0.000,-0.000,0.0,0.0,-0.876,0
2518784000,0.134,9.821e-05,4.768e-05,0.0,0.0,-0.868,0
2518884000,0.067,1.317e-05,0.000,0.0,0.0,-0.863,0
2518984000,-0.028,-4.574e-05,0.000,0.0,0.0,-0.860,0
2519084000,-0.071,-1.503e-05,0.000,0.0,0.0,-0.858,0
2519184000,-0.148,-1.868e-05,0.000,0.0,0.0,-0.858,0
2519284000,-0.652,-0.000,0.001,0.0,0.0,-0.892,0
2519384000,-0.887,0.001,0.001,0.0,0.0,-0.900,0
2519484000,-0.816,0.000,0.002,0.0,0.0,-0.871,0
2519584000,-0.719,0.000,0.002,0.0,0.0,-0.856,0
2519684000,-0.609,0.000,0.002,0.0,0.0,-0.851,0
2519784000,-0.496,0.000,0.001,0.0,0.0,-0.853,0
2519884000,-0.385,0.000,0.001,0.0,0.0,-0.858,0
2519984000,-0.283,0.000,0.000,0.0,0.0,-0.867,0
2520084000,-0.193,0.000,0.000,0.0,0.0,-0.877,0
2520184000,-0.116,0.000,-0.000,0.0,0.0,-0.888,0
2520284000,-0.054,0.000,-0.000,0.0,0.0,-0.897,0
2520384000,-0.007,0.000,-0.000,0.0,0.0,-0.907,0
2520484000,0.026,0.000,-0.000,0.0,0.0,-0.914,0
2520584000,0.049,0.000,-0.000,0.0,0.0,-0.919,0
2520684000,0.062,0.000,-0.000,0.0,0.0,-0.923,0
2520784000,0.067,0.000,-0.000,0.0,0.0,-0.925,0
2520884000,0.067,0.000,-0.000,0.0,0.0,-0.926,0
2520984000,0.063,-0.000,-0.001,0.0,0.0,-0.926,0
2521088000,0.564,-0.001,-0.001,0.0,0.0,-0.866,0
2521204000,0.852,-0.001,-0.001,0.0,0.0,-0.898,0
2521304000,0.770,-0.001,-0.001,0.0,0.0,-0.916,0
2521404000,0.675,-0.000,-0.001,0.0,0.0,-0.917,0
2521504000,0.561,-0.000,-0.001,0.0,0.0,-0.910,0
2521604000,0.446,-0.000,-0.001,0.0,0.0,-0.900,0
2521704000,0.338,3.093e-05,-0.000,0.0,0.0,-0.889,0
2521804000,0.242,6.295e-05,-0.000,0.0,0.0,-0.879,0
2521904000,0.157,4.874e-05,0.000,0.0,0.0,-0.872,0
2522004000,0.086,-7.233e-05,0.000,0.0,0.0,-0.866,0
2522104000,0.029,-0.000,0.000,0.0,0.0,-0.862,0
2522204000,-0.013,-0.000,0.001,0.0,0.0,-0.860,0
2522304000,-0.043,-4.265e-05,0.001,0.0,0.0,-0.859,0
2522404000,-0.063,8.239e-05,0.001,0.0,0.0,-0.859,0
2522504000,-0.049,0.000,0.001,0.0,0.0,-0.859,0
2522604000,0.084,0.000,0.001,0.0,0.0,-0.862,0
2522704000,0.495,0.000,0.000,0.0,0.0,-0.887,0
2522804000,0.733,0.001,-0.000,0.0,0.0,-0.896,0
2522904000,0.661,0.000,-0.000,0.0,0.0,-0.868,0
2523004000,0.571,0.000,-0.000,0.0,0.0,-0.857,0
2523104000,0.473,0.000,-0.000,0.0,0.0,-0.855,0
2523204000,0.376,0.001,-0.000,0.0,0.0,-0.857,0
2523304000,0.283,0.001,-5.960e-07,0.0,0.0,-0.863,0
2523404000,0.199,0.001,0.000,0.0,0.0,-0.871,0
2523504000,0.127,0.001,0.000,0.0,0.0,-0.880,0
2523604000,0.067,0.001,0.001,0.0,0.0,-0.888,0
2523704000,0.019,0.001,0.001,0.0,0.0,-0.896,0
2523804000,-0.015,0.000,0.001,0.0,0.0,-0.903,0
2523904000,-0.040,0.000,0.001,0.0,0.0,-0.909,0
2524004000,-0.055,0.001,0.001,0.0,0.0,-0.913,0
2524104000,-0.063,0.001,0.001,0.0,0.0,-0.916,0
2524204000,-0.066,0.001,0.001,0.0,0.0,-0.917,0
2524304000,-0.063,0.001,0.001,0.0,0.0,-0.918,0
2524404000,-0.058,0.001,0.001,0.0,0.0,-0.918,0
2524504000,-0.093,-0.001,0.002,0.0,0.0,-0.908,0
2524604000,-0.905,-0.001,0.002,0.0,0.0,-0.852,0
2524704000,-0.857,0.000,0.003,0.0,0.0,-0.891,0
2524804000,-0.774,0.000,0.004,0.0,0.0,-0.908,0
2524904000,-0.669,0.001,0.005,0.0,0.0,-0.911,0
2525004000,-0.555,0.001,0.004,0.0,0.0,-0.905,0
2525104000,-0.441,0.001,0.004,0.0,0.0,-0.896,0
2525204000,-0.333,0.000,0.003,0.0,0.0,-0.886,0
2525304000,-0.236,0.000,0.002,0.0,0.0,-0.877,0
2525404000,-0.152,0.000,0.001,0.0,0.0,-0.871,0
2525504000,-0.082,0.000,0.000,0.0,0.0,-0.866,0
2525604000,-0.026,0.000,0.000,0.0,0.0,-0.863,0
2525704000,0.016,0.000,0.000,0.0,0.0,-0.861,0
2525804000,0.048,9.971e-05,-0.000,0.0,0.0,-0.861,0
2525904000,0.068,-1.601e-05,-0.000,0.0,0.0,-0.860,0
2526004000,0.080,-2.437e-05,-0.000,0.0,0.0,-0.860,0
2526104000,0.084,-0.000,-0.000,0.0,0.0,-0.861,0
2526204000,0.083,-0.000,-0.000,0.0,0.0,-0.861,0
2526304000,0.078,-0.000,-0.000,0.0,0.0,-0.862,0
2526404000,0.071,-0.000,-0.000,0.0,0.0,-0.862,0
2526524000,0.060,-7.523e-05,-0.000,0.0,0.0,-0.863,0
2526624000,0.050,9.104e-05,-0.000,0.0,0.0,-0.863,0
2526724000,0.040,0.000,-0.000,0.0,0.0,-0.863,0
2526824000,0.031,0.000,-0.000,0.0,0.0,-0.864,0
2526924000,0.023,8.375e-05,-8.106e-05,0.0,0.0,-0.864,0
2527024000,0.017,9.521e-05,5.215e-05,0.0,0.0,-0.864,0
2527124000,0.011,9.887e-05,0.000,0.0,0.0,-0.864,0
2527224000,0.006,4.467e-05,0.000,0.0,0.0,-0.864,0
2527324000,0.003,5.534e-05,0.000,0.0,0.0,-0.864,0
2527424000,0.000,3.239e-05,0.000,0.0,0.0,-0.865,0
2527524000,-0.001,5.827e-05,0.000,0.0,0.0,-0.865,0
2527624000,-0.002,9.403e-06,0.000,0.0,0.0,-0.865,0
2527724000,-0.003,3.802e-05,9.655e-05,0.0,0.0,-0.865,0
2527824000,-0.003,3.918e-05,8.612e-05,0.0,0.0,-0.865,0
2527924000,-0.003,-2.014e-05,8.910e-05,0.0,0.0,-0.865,0
2528024000,-0.002,-8.169e-05,0.000,0.0,0.0,-0.865,0
2528124000,-0.002,-6.250e-05,0.000,0.0,0.0,-0.865,0
2528224000,-0.002,-0.000,0.000,0.0,0.0,-0.865,0
2528324000,-0.001,-0.000,0.000,0.0,0.0,-0.865,0
2528424000,-0.001,-0.000,0.000,0.0,0.0,-0.865,0
2528524000,-0.001,-0.000,0.000,0.0,0.0,-0.865,0
2528624000,-0.001,-0.000,0.000,0.0,0.0,-0.865,0
2528724000,-0.001,-0.000,0.000,0.0,0.0,-0.865,0
2528844000,-0.000,-0.000,0.000,0.0,0.0,-0.865,0
2528944000,-0.000,-0.000,0.000,0.0,0.0,-0.865,0
2529044000,-0.000,-0.000,0.000,0.0,0.0,-0.864,0
2529144000,-0.000,-0.000,0.000,0.0,0.0,-0.864,0
2529244000,-0.000,-8.100e-05,0.000,0.0,0.0,-0.864,0
2529344000,-0.000,-0.000,0.000,0.0,0.0,-0.863,0
2529444000,-0.000,-0.000,0.000,0.0,0.0,-0.863,0
2529544000,-0.000,-0.000,0.000,0.0,0.0,-0.863,0
2529644000,-0.000,-0.000,0.000,0.0,0.0,-0.864,0
2529744000,-0.000,-0.000,0.000,0.0,0.0,-0.864,0
2529844000,-0.000,-0.000,0.000,0.0,0.0,-0.865,0
2529944000,-0.000,-0.000,0.000,0.0,0.0,-0.865,0
2530044000,-0.001,-0.000,9.864e-05,0.0,0.0,-0.865,0
2530144000,-0.001,-0.000,0.000,0.0,0.0,-0.865,0
2530244000,-0.001,-0.000,0.000,0.0,0.0,-0.865,0
2530364000,-0.001,-0.000,0.000,0.0,0.0,-0.864,0
2530464000,-0.001,-0.000,0.000,0.0,0.0,-0.864,0
2530564000,-0.001,-0.000,0.000,0.0,0.0,-0.864,0
2530664000,-0.002,-0.000,0.000,0.0,0.0,-0.864,0
2530764000,-0.002,-0.000,0.000,0.0,0.0,-0.864,0
2530864000,-0.002,-0.000,0.000,0.0,0.0,-0.864,0
2530964000,-0.002,-9.308e-05,7.271e-05,0.0,0.0,-0.864,0
2531064000,-0.002,0.000,-7.897e-05,0.0,0.0,-0.864,0
2531164000,-0.002,0.000,-0.000,0.0,0.0,-0.864,0
2531264000,-0.002,0.000,-0.000,0.0,0.0,-0.864,0
2531364000,-0.002,0.000,-0.000,0.0,0.0,-0.864,0
2531464000,-0.002,0.000,-0.000,0.0,0.0,-0.864,0
2531564000,-0.002,0.000,-0.000,0.0,0.0,-0.864,0
2531664000,-0.002,-0.000,-0.000,0.0,0.0,-0.864,0
2531764000,-0.002,-0.000,-0.000,0.0,0.0,-0.864,0
2531864000,-0.002,-0.000,-0.000,0.0,0.0,-0.864,0
2531964000,-0.002,-0.478,-0.000,0.0,0.0,-0.874,0
2532084000,-0.001,-0.936,0.000,0.0,0.0,-0.913,0
2532184000,-0.001,-0.433,0.000,0.0,0.0,-0.898,0
2532284000,-0.001,-0.199,0.000,0.0,0.0,-0.895,0
2532384000,-0.001,1.513,-0.000,0.0,0.0,-0.853,0
2532484000,-0.001,0.891,-0.000,0.0,0.0,-0.884,0
2532588000,-0.001,0.381,-0.001,0.0,0.0,-0.881,0
2532704000,-0.001,0.150,-0.002,0.0,0.0,-0.877,0
2532804000,-0.001,0.069,-0.002,0.0,0.0,-0.874,0
2532904000,-0.001,0.031,-0.001,0.0,0.0,-0.871,0
2533004000,-0.001,0.013,-0.001,0.0,0.0,-0.869,0
2533104000,-0.000,0.100,-0.000,0.0,0.0,-0.867,0
2533204000,-0.000,0.784,-7.897e-05,0.0,0.0,-0.889,0
2533304000,0.000,1.166,0.000,0.0,0.0,-0.935,0
2533424000,0.001,0.481,0.000,0.0,0.0,-0.902,0
2533524000,0.001,0.220,0.000,0.0,0.0,-0.897,0
2533624000,0.000,0.068,0.000,0.0,0.0,-0.893,0
2533724000,0.000,-1.439,0.000,0.0,0.0,-0.865,0
2533824000,0.000,-0.724,0.000,0.0,0.0,-0.884,0
2533924000,0.000,-0.335,0.001,0.0,0.0,-0.881,0
2534024000,9.635e-05,-0.155,0.002,0.0,0.0,-0.877,0
2534124000,-3.882e-05,-0.072,0.002,0.0,0.0,-0.873,0
2534224000,-8.643e-05,-0.033,0.003,0.0,0.0,-0.870,0
2534324000,-0.000,-0.015,0.002,0.0,0.0,-0.868,0
2534424000,-6.346e-05,-0.006,0.002,0.0,0.0,-0.867,0
2534524000,-0.000,-0.002,0.002,0.0,0.0,-0.866,0
2534624000,-0.000,-0.000,0.001,0.0,0.0,-0.865,0
2534724000,-0.000,0.000,0.001,0.0,0.0,-0.865,0
2534824000,-0.000,0.000,0.000,0.0,0.0,-0.865,0
2534924000,-0.001,0.000,0.000,0.0,0.0,-0.865,0
2535024000,-0.001,0.000,0.000,0.0,0.0,-0.865,0
2535124000,-0.001,0.000,0.000,0.0,0.0,-0.865,0
2535224000,-0.001,0.000,0.000,0.0,0.0,-0.865,0
2535324000,-0.002,0.000,0.000,0.0,0.0,-0.865,0
2535424000,-0.002,0.000,0.000,0.0,0.0,-0.865,0
2535524000,-0.002,0.000,0.000,0.0,0.0,-0.865,0
2535624000,-0.002,0.000,0.000,0.0,0.0,-0.865,0
2535724000,-0.002,0.000,9.894e-05,0.0,0.0,-0.865,0
2535824000,-0.002,0.000,1.728e-05,0.0,0.0,-0.865,0
2535924000,-0.002,0.000,-7.361e-05,0.0,0.0,-0.865,0
2536024000,-0.002,0.000,-0.000,0.0,0.0,-0.865,0
2536124000,-0.001,0.000,-0.000,0.0,0.0,-0.865,0
2536224000,-0.001,0.000,-0.000,0.0,0.0,-0.865,0
2536324000,-0.001,0.000,-0.000,0.0,0.0,-0.865,0
2536424000,-0.001,0.000,-0.000,0.0,0.0,-0.865,0
2536524000,-0.001,0.000,-0.000,0.0,0.0,-0.864,0
2536624000,-0.001,0.000,-0.000,0.0,0.0,-0.864,0
2536724000,-0.001,0.000,-0.000,0.0,0.0,-0.864,0
2536824000,-0.001,0.000,-0.000,0.0,0.0,-0.864,0
2536944000,-0.001,0.000,-0.000,0.0,0.0,-0.864,0
2537044000,-0.001,0.000,-0.000,0.0,0.0,-0.864,0
2537144000,-0.001,0.000,-0.000,0.0,0.0,-0.864,0
2537244000,-0.001,0.000,-0.000,0.0,0.0,-0.865,0
2537344000,-0.001,0.000,-0.000,0.0,0.0,-0.865,0
2537444000,-0.001,-1.993e-05,-0.000,0.0,0.0,-0.865,0
2537544000,-0.001,-0.000,-0.000,0.0,0.0,-0.865,0
2537644000,-0.001,-0.000,-0.000,0.0,0.0,-0.865,0
2537744000,-0.001,-0.000,-0.000,0.0,0.0,-0.865,0
2537844000,0.033,-0.003,1.698e-05,0.0,0.0,-0.865,0
2537944000,0.222,-0.008,0.000,0.0,0.0,-0.870,0
2538044000,0.400,-0.007,3.695e-05,0.0,0.0,-0.879,0
2538144000,0.581,-0.008,-1.996e-05,0.0,0.0,-0.890,0
2538244000,0.717,-0.007,-0.000,0.0,0.0,-0.900,0
2538344000,0.686,-0.001,-0.001,0.0,0.0,-0.878,0
2538444000,0.590,-0.000,-0.001,0.0,0.0,-0.863,0
2538544000,0.487,0.000,-0.001,0.0,0.0,-0.857,0
2538644000,0.385,0.000,-0.001,0.0,0.0,-0.858,0
2538744000,0.289,0.000,-0.001,0.0,0.0,-0.863,0
2538844000,0.202,0.000,-0.000,0.0,0.0,-0.871,0
2538944000,0.127,-0.000,-0.000,0.0,0.0,-0.880,0
2539044000,0.065,0.000,-0.000,0.0,0.0,-0.889,0
2539144000,0.017,-8.159e-05,0.000,0.0,0.0,-0.897,0
2539244000,-0.018,0.000,0.000,0.0,0.0,-0.904,0
2539344000,-0.042,0.000,0.000,0.0,0.0,-0.910,0
2539444000,-0.057,0.000,0.001,0.0,0.0,-0.913,0
2539544000,-0.065,0.001,0.001,0.0,0.0,-0.916,0
2539644000,-0.067,0.001,0.001,0.0,0.0,-0.917,0
2539744000,-0.064,0.002,0.001,0.0,0.0,-0.907,0
2539844000,-0.058,0.003,0.002,0.0,0.0,-0.843,0
2539944000,-0.055,0.003,0.002,0.0,0.0,-0.796,0
2540044000,-0.124,0.005,0.001,0.0,0.0,-0.753,0
2540144000,-0.155,0.004,0.001,0.0,0.0,-0.751,0
2540244000,-0.196,0.003,0.002,0.0,0.0,-0.758,0
2540344000,-0.238,0.002,0.002,0.0,0.0,-0.807,0
2540444000,-0.313,0.002,0.002,0.0,0.0,-0.858,0
2540544000,-0.387,0.003,0.002,0.0,0.0,-0.901,0
2540644000,-0.456,0.003,0.002,0.0,0.0,-0.928,0
2540744000,-0.498,0.002,0.002,0.0,0.0,-0.907,0
2540844000,-0.517,0.001,0.002,0.0,0.0,-0.896,0
2540944000,-0.524,0.000,0.002,0.0,0.0,-0.887,0
2541044000,-0.500,0.000,0.002,0.0,0.0,-0.881,0
2541144000,-0.433,-0.001,0.002,0.0,0.0,-0.874,0
2541244000,-0.353,-0.001,0.001,0.0,0.0,-0.869,0
2541344000,-0.270,-0.001,0.000,0.0,0.0,-0.864,0
2541444000,-0.186,-0.001,0.000,0.0,0.0,-0.861,0
2541544000,-0.104,-0.000,-5.453e-05,0.0,0.0,-0.860,0
2541644000,-0.031,-0.000,-0.000,0.0,0.0,-0.859,0
2541744000,0.035,0.000,-0.000,0.0,0.0,-0.859,0
2541844000,0.091,0.000,-0.000,0.0,0.0,-0.859,0
2541944000,0.136,0.000,-0.001,0.0,0.0,-0.860,0
2542044000,0.167,0.000,-0.001,0.0,0.0,-0.861,0
2542144000,0.188,0.000,-0.001,0.0,0.0,-0.862,0
2542244000,0.196,0.000,-0.001,0.0,0.0,-0.863,0
2542344000,0.196,-0.000,-0.000,0.0,0.0,-0.863,0
2542444000,0.185,-0.000,-0.000,0.0,0.0,-0.864,0
2542544000,0.168,-0.001,-0.000,0.0,0.0,-0.864,0
2542644000,0.145,-0.002,-0.000,0.0,0.0,-0.864,0
2542744000,0.119,-0.002,0.000,0.0,0.0,-0.864,0
2542844000,0.090,-0.002,0.000,0.0,0.0,-0.863,0
2542944000,0.061,-0.002,0.000,0.0,0.0,-0.863,0
2543044000,0.032,-0.002,0.000,0.0,0.0,-0.864,0
2543144000,0.005,0.000,0.000,0.0,0.0,-0.864,0
2543244000,-0.020,0.000,0.000,0.0,0.0,-0.864,0
2543344000,-0.041,0.000,0.000,0.0,0.0,-0.864,0
2543444000,-0.058,-0.000,0.000,0.0,0.0,-0.865,0
2543544000,-0.072,0.000,0.000,0.0,0.0,-0.865,0
2543644000,-0.081,0.000,0.000,0.0,0.0,-0.865,0
2543744000,-0.087,0.000,0.000,0.0,0.0,-0.865,0
2543844000,-0.088,0.000,0.000,0.0,0.0,-0.866,0
2543944000,-0.085,0.000,0.000,0.0,0.0,-0.866,0
2544044000,-0.080,0.000,0.000,0.0,0.0,-0.866,0
2544144000,-0.072,0.000,0.000,0.0,0.0,-0.865,0
2544244000,-0.062,2.569e-05,0.000,0.0,0.0,-0.865,0
2544344000,-0.052,0.000,0.000,0.0,0.0,-0.865,0
2544444000,-0.041,0.000,0.000,0.0,0.0,-0.865,0
2544544000,-0.030,0.001,0.000,0.0,0.0,-0.865,0
2544644000,-0.018,0.002,-5.394e-05,0.0,0.0,-0.865,0
2544744000,-0.009,0.001,-0.000,0.0,0.0,-0.865,0
2544844000,-0.000,0.000,-0.000,0.0,0.0,-0.865,0
2544944000,0.006,-1.748e-05,-0.000,0.0,0.0,-0.865,0
2545044000,0.013,-0.000,-0.000,0.0,0.0,-0.865,0
2545144000,0.018,-0.000,-0.000,0.0,0.0,-0.865,0
2545244000,0.021,0.000,-0.000,0.0,0.0,-0.865,0
2545344000,0.023,-0.000,-8.255e-05,0.0,0.0,-0.865,0
2545444000,0.023,-0.002,4.172e-05,0.0,0.0,-0.864,0
2545544000,0.022,-0.004,0.000,0.0,0.0,-0.864,0
2545644000,0.021,-0.002,0.000,0.0,0.0,-0.864,0
2545744000,0.018,-0.002,0.000,0.0,0.0,-0.864,0
2545844000,0.015,-0.001,0.000,0.0,0.0,-0.864,0
2545944000,0.012,-0.001,0.000,0.0,0.0,-0.864,0
2546044000,0.007,-0.000,0.000,0.0,0.0,-0.864,0
2546144000,0.003,-0.000,0.000,0.0,0.0,-0.864,0
2546244000,-0.000,-0.000,0.000,0.0,0.0,-0.864,0
2546344000,-0.004,-0.000,0.000,0.0,0.0,-0.864,0
2546444000,-0.007,-0.000,0.000,0.0,0.0,-0.864,0
2546544000,-0.009,-0.000,0.000,0.0,0.0,-0.864,0
2546644000,-0.010,-0.000,0.000,0.0,0.0,-0.864,0
2546744000,-0.011,-0.000,0.000,0.0,0.0,-0.865,0
2546844000,-0.012,-0.000,0.000,0.0,0.0,-0.865,0
2546944000,-0.011,-0.001,0.000,0.0,0.0,-0.865,0
2547044000,-0.009,-0.001,0.000,0.0,0.0,-0.865,0
2547144000,-0.007,-0.000,0.000,0.0,0.0,-0.865,0
2547244000,-0.005,0.000,0.000,0.0,0.0,-0.865,0
2547344000,-0.002,0.002,0.000,0.0,0.0,-0.866,0
2547444000,-0.000,0.002,0.000,0.0,0.0,-0.866,0
2547544000,0.001,0.002,9.030e-05,0.0,0.0,-0.866,0
2547644000,0.002,0.001,-5.066e-06,0.0,0.0,-0.866,0
2547744000,0.004,0.000,-3.635e-05,0.0,0.0,-0.866,0
2547844000,0.005,0.000,-2.086e-06,0.0,0.0,-0.866,0
2547944000,0.006,0.000,5.125e-05,0.0,0.0,-0.866,0
2548044000,0.007,0.001,6.496e-05,0.0,0.0,-0.866,0
2548144000,0.007,0.001,9.179e-05,0.0,0.0,-0.866,0
2548244000,0.007,0.000,0.000,0.0,0.0,-0.865,0
2548344000,0.007,6.347e-05,0.000,0.0,0.0,-0.865,0
2548444000,0.007,0.000,0.000,0.0,0.0,-0.865,0
2548544000,0.007,0.000,0.000,0.0,0.0,-0.865,0
2548644000,0.007,0.001,0.000,0.0,0.0,-0.864,0
2548744000,0.006,0.002,0.000,0.0,0.0,-0.864,0
2548844000,0.004,0.002,6.854e-05,0.0,0.0,-0.864,0
2548944000,0.003,0.002,-3.427e-05,0.0,0.0,-0.864,0
2549044000,0.001,0.001,-0.000,0.0,0.0,-0.864,0
2549144000,0.000,0.001,-0.000,0.0,0.0,-0.864,0
2549244000,-0.000,0.001,-0.000,0.0,0.0,-0.864,0
2549344000,-0.001,0.000,-0.000,0.0,0.0,-0.864,0
2549444000,-0.002,-0.000,-0.000,0.0,0.0,-0.864,0
2549544000,-0.002,-0.000,-8.344e-05,0.0,0.0,-0.864,0
2549644000,-0.002,-0.000,-7.271e-05,0.0,0.0,-0.864,0
2549744000,-0.003,-0.000,-4.619e-05,0.0,0.0,-0.864,0
2549844000,-0.003,-0.000,-3.933e-05,0.0,0.0,-0.864,0
2549944000,-0.004,-0.000,-4.589e-05,0.0,0.0,-0.864,0
2550044000,-0.004,0.000,-7.748e-05,0.0,0.0,-0.864,0
2550144000,-0.003,-0.000,-9.804e-05,0.0,0.0,-0.864,0
2550244000,-0.003,-0.000,-0.000,0.0,0.0,-0.864,0
2550344000,-0.003,0.000,-0.000,0.0,0.0,-0.864,0
2550444000,-0.002,0.000,-0.000,0.0,0.0,-0.864,0
2550544000,-0.001,4.330e-05,-0.000,0.0,0.0,-0.864,0
2550644000,-0.000,-0.001,-0.000,0.0,0.0,-0.864,0
2550744000,0.000,-0.002,-8.970e-05,0.0,0.0,-0.864,0
2550844000,0.002,-0.002,-3.635e-05,0.0,0.0,-0.864,0
2550944000,0.003,-0.001,3.546e-05,0.0,0.0,-0.864,0
2551044000,0.004,-0.000,6.586e-05,0.0,0.0,-0.864,0
2551144000,0.004,-0.001,5.066e-05,0.0,0.0,-0.864,0
2551244000,0.005,-0.001,6.675e-05,0.0,0.0,-0.864,0
2551344000,0.005,-0.001,4.500e-05,0.0,0.0,-0.864,0
2551444000,0.005,0.000,2.413e-05,0.0,0.0,-0.873,0
2551544000,0.004,0.000,5.573e-05,0.0,0.0,-0.875,0
2551644000,0.003,0.000,5.334e-05,0.0,0.0,-0.878,0
2551744000,0.003,0.001,4.947e-05,0.0,0.0,-0.870,0
2551844000,0.002,0.001,4.380e-05,0.0,0.0,-0.875,0
2551944000,0.002,0.001,5.781e-05,0.0,0.0,-0.869,0
2552044000,0.002,0.001,6.020e-05,0.0,0.0,-0.875,0
2552144000,0.001,0.002,6.169e-05,0.0,0.0,-0.869,0
2552244000,0.001,0.002,6.467e-05,0.0,0.0,-0.875,0
2552344000,0.001,0.001,3.546e-05,0.0,0.0,-0.869,0
2552444000,0.000,0.001,-3.874e-06,0.0,0.0,-0.875,0
2552544000,-0.000,0.001,-4.202e-05,0.0,0.0,-0.869,0
2552644000,-0.001,0.000,-8.016e-05,0.0,0.0,-0.875,0
2552744000,-0.002,-0.000,-0.000,0.0,0.0,-0.868,0
2552844000,-0.002,0.000,-0.000,0.0,0.0,-0.874,0
2552944000,-0.003,-0.000,-9.089e-05,0.0,0.0,-0.868,0
2553044000,-0.003,-0.000,-0.000,0.0,0.0,-0.874,0
2553144000,-0.002,0.000,-0.000,0.0,0.0,-0.868,0
2553244000,-0.002,0.000,-0.000,0.0,0.0,-0.872,0
2553364000,-0.000,-0.000,-0.000,0.0,0.0,-0.874,0
2553464000,0.000,-0.000,-0.000,0.0,0.0,-0.867,0
2553564000,0.001,-0.000,-6.228e-05,0.0,0.0,-0.873,0
2553664000,0.003,-0.000,-8.940e-07,0.0,0.0,-0.867,0
2553764000,0.003,-0.000,2.294e-05,0.0,0.0,-0.873,0
2553864000,0.003,0.001,3.993e-05,0.0,0.0,-0.867,0
2553964000,0.004,0.001,7.957e-05,0.0,0.0,-0.873,0
2554064000,0.003,0.001,0.000,0.0,0.0,-0.866,0
2554164000,0.003,0.000,0.000,0.0,0.0,-0.872,0
2554264000,0.003,0.001,0.000,0.0,0.0,-0.866,0
2554364000,0.003,0.001,0.000,0.0,0.0,-0.872,0
2554464000,0.003,0.001,0.000,0.0,0.0,-0.866,0
2554564000,0.003,0.001,0.000,0.0,0.0,-0.873,0
2554664000,0.003,0.001,0.000,0.0,0.0,-0.867,0
2554764000,0.003,0.001,0.000,0.0,0.0,-0.874,0
2554864000,0.003,0.000,0.000,0.0,0.0,-0.867,0
2554964000,0.004,0.000,0.000,0.0,0.0,-0.874,0
2555064000,0.004,0.001,0.000,0.0,0.0,-0.868,0
2555164000,0.004,0.002,0.000,0.0,0.0,-0.875,0
2555264000,0.004,0.001,0.000,0.0,0.0,-0.868,0
2555364000,0.004,0.002,0.000,0.0,0.0,-0.875,0
2555464000,0.003,0.001,0.000,0.0,0.0,-0.867,0
2555564000,0.003,0.000,0.000,0.0,0.0,-0.873,0
2555664000,0.002,0.000,0.000,0.0,0.0,-0.866,0
2555764000,0.002,-0.000,0.000,0.0,0.0,-0.873,0
2555864000,0.001,-0.001,0.000,0.0,0.0,-0.866,0
2555964000,0.000,-0.002,0.000,0.0,0.0,-0.872,0
2556064000,-0.000,-0.001,2.205e-05,0.0,0.0,-0.865,0
2556164000,-0.001,-0.001,-3.576e-05,0.0,0.0,-0.862,0
2556264000,-0.002,-0.001,-5.990e-05,0.0,0.0,-0.864,0
2556364000,-0.003,-0.000,-6.258e-05,0.0,0.0,-0.864,0
2556464000,-0.004,-0.000,-5.453e-05,0.0,0.0,-0.865,0
2556564000,-0.005,5.739e-05,-1.728e-05,0.0,0.0,-0.865,0
2556664000,-0.006,-0.001,-3.576e-06,0.0,0.0,-0.865,0
2556764000,-0.006,-0.001,4.172e-06,0.0,0.0,-0.865,0
2556864000,-0.005,-0.000,-7.152e-05,0.0,0.0,-0.865,0
2556964000,-0.004,-0.000,-7.778e-05,0.0,0.0,-0.865,0
2557064000,-0.005,-0.001,-8.493e-05,0.0,0.0,-0.865,0
2557164000,-0.004,-0.001,-0.000,0.0,0.0,-0.865,0
2557264000,-0.004,-0.001,-0.000,0.0,0.0,-0.865,0
2557364000,-0.003,-0.002,-0.000,0.0,0.0,-0.864,0
2557464000,-0.002,-0.003,-0.000,0.0,0.0,-0.864,0
2557564000,-0.001,-0.002,-5.811e-05,0.0,0.0,-0.864,0
2557664000,-0.000,-0.001,-3.546e-05,0.0,0.0,-0.864,0
2557764000,0.000,-0.001,-6.854e-06,0.0,0.0,-0.864,0
2557864000,0.001,-0.001,3.427e-05,0.0,0.0,-0.864,0
2557964000,0.002,-0.000,1.311e-05,0.0,0.0,-0.864,0
2558064000,0.002,-0.000,4.768e-06,0.0,0.0,-0.864,0
2558164000,0.002,-0.000,-9.834e-06,0.0,0.0,-0.864,0
2558264000,0.002,-0.000,-4.172e-06,0.0,0.0,-0.864,0
2558364000,0.002,0.000,8.642e-06,0.0,0.0,-0.864,0
2558464000,0.002,0.000,5.602e-05,0.0,0.0,-0.864,0
2558564000,0.002,0.000,6.586e-05,0.0,0.0,-0.864,0
2558664000,0.001,0.001,8.851e-05,0.0,0.0,-0.864,0
2558764000,0.001,0.001,9.208e-05,0.0,0.0,-0.864,0
2558864000,0.001,0.001,7.152e-05,0.0,0.0,-0.864,0
2558964000,0.001,0.002,9.655e-05,0.0,0.0,-0.864,0
2559064000,0.000,0.001,9.179e-05,0.0,0.0,-0.865,0
2559164000,0.000,0.000,8.344e-05,0.0,0.0,-0.865,0
2559264000,-0.000,0.000,6.943e-05,0.0,0.0,-0.865,0
2559364000,-0.002,0.000,1.221e-05,0.0,0.0,-0.865,0
2559464000,-0.004,0.001,-5.334e-05,0.0,0.0,-0.865,0
2559564000,-0.005,0.000,-9.894e-05,0.0,0.0,-0.865,0
2559664000,-0.006,0.001,-0.000,0.0,0.0,-0.865,0
2559764000,-0.006,0.001,-0.000,0.0,0.0,-0.865,0
2559864000,-0.006,0.001,-0.000,0.0,0.0,-0.865,0
2559964000,-0.005,0.001,-0.000,0.0,0.0,-0.865,0
2560064000,-0.004,0.000,-0.000,0.0,0.0,-0.865,0
2560164000,-0.003,0.000,-0.000,0.0,0.0,-0.865,0
2560264000,-0.001,0.001,-0.000,0.0,0.0,-0.865,0
2560364000,-0.000,0.001,-7.808e-05,0.0,0.0,-0.865,0
2560464000,0.001,0.000,-2.712e-05,0.0,0.0,-0.865,0
2560564000,0.003,0.000,-1.847e-05,0.0,0.0,-0.865,0
2560664000,0.004,-0.001,-8.940e-06,0.0,0.0,-0.865,0
2560764000,0.005,-0.002,-2.831e-05,0.0,0.0,-0.865,0
2560864000,0.005,-0.003,-9.536e-06,0.0,0.0,-0.864,0
2560964000,0.005,-0.002,4.768e-06,0.0,0.0,-0.864,0
2561064000,0.005,-0.003,2.861e-05,0.0,0.0,-0.864,0
2561164000,0.005,-0.002,6.496e-05,0.0,0.0,-0.864,0
2561264000,0.005,-0.002,0.000,0.0,0.0,-0.864,0
2561364000,0.005,-0.001,0.000,0.0,0.0,-0.864,0
2561464000,0.005,-0.001,9.745e-05,0.0,0.0,-0.864,0
2561564000,0.004,-0.002,0.000,0.0,0.0,-0.864,0
2561664000,0.004,-0.002,8.434e-05,0.0,0.0,-0.864,0
2561764000,0.003,-0.001,6.347e-05,0.0,0.0,-0.864,0
2561864000,0.002,-0.000,2.324e-05,0.0,0.0,-0.863,0
2561964000,0.002,0.001,-5.662e-06,0.0,0.0,-0.863,0
2562064000,0.002,0.002,-3.337e-05,0.0,0.0,-0.863,0
2562164000,0.002,0.002,-4.887e-05,0.0,0.0,-0.863,0
2562264000,0.002,0.001,-6.824e-05,0.0,0.0,-0.863,0
2562364000,0.001,0.000,-9.626e-05,0.0,0.0,-0.863,0
2562464000,-0.000,-0.000,-0.000,0.0,0.0,-0.863,0
2562564000,-0.001,0.000,-0.000,0.0,0.0,-0.863,0
2562664000,-0.002,0.000,-0.000,0.0,0.0,-0.863,0
2562764000,-0.039,-0.018,-3.665e-05,0.0,0.0,-0.759,0
2562864000,-0.016,-0.010,7.867e-05,0.0,0.0,-0.642,0
2562964000,-0.014,-0.008,0.000,0.0,0.0,-0.628,0
2563064000,-0.014,-0.008,0.000,0.0,0.0,-0.614,0
2563164000,-0.015,-0.008,0.000,0.0,0.0,-0.602,0
2563264000,-0.015,-0.008,0.000,0.0,0.0,-0.590,0
2563364000,-0.003,-0.026,0.000,0.0,0.0,-0.580,0
2563464000,-0.003,-0.021,0.000,0.0,0.0,-0.569,0
2563564000,-0.011,-0.014,0.001,0.0,0.0,-0.558,0
2563664000,-0.012,-0.013,0.001,0.0,0.0,-0.548,0
2563764000,-0.010,-0.015,0.001,0.0,0.0,-0.538,0
2563864000,-0.010,-0.014,0.001,0.0,0.0,-0.527,0
2563964000,-0.010,-0.013,0.001,0.0,0.0,-0.518,0
2564064000,-0.011,-0.012,0.001,0.0,0.0,-0.507,0
2564164000,-0.012,-0.012,0.001,0.0,0.0,-0.497,0
2564264000,-0.013,-0.012,0.002,0.0,0.0,-0.486,0
2564364000,-0.015,-0.011,0.002,0.0,0.0,-0.477,0
2564464000,-0.016,-0.010,0.002,0.0,0.0,-0.466,0
2564564000,-0.017,-0.010,0.002,0.0,0.0,-0.456,0
2564664000,-0.018,-0.010,0.002,0.0,0.0,-0.445,0
2564764000,-0.018,-0.010,0.002,0.0,0.0,-0.435,0
2564864000,-0.031,-0.006,3.129e-05,0.0,0.0,-0.12,0
2564964000,-0.031,-0.006,4.112e-05,0.0,0.0,-0.12,0
2565064000,-0.031,-0.007,3.308e-05,0.0,0.0,-0.12,0
2565164000,-0.031,-0.007,3.606e-05,0.0,0.0,-0.12,0
2565264000,-0.031,-0.007,3.188e-05,0.0,0.0,-0.12,0
2565364000,-0.031,-0.007,4.500e-05,0.0,0.0,-0.12,0
2565464000,-0.031,-0.007,3.755e-05,0.0,0.0,-0.12,0
2565564000,-0.031,-0.007,4.500e-05,0.0,0.0,-0.001,0
2565664000,-0.031,-0.007,3.397e-05,0.0,0.0,-0.001,0
2565764000,-0.030,-0.007,4.112e-05,0.0,0.0,-0.001,0
2565864000,-0.030,-0.007,3.486e-05,0.0,0.0,-0.001,0
2565964000,-0.030,-0.007,4.082e-05,0.0,0.0,-0.001,0
2566064000,-0.030,-0.007,3.308e-05,0.0,0.0,-0.001,0
2566164000,-0.030,-0.007,4.053e-05,0.0,0.0,-0.001,0
2566264000,-0.030,-0.008,3.606e-05,0.0,0.0,-0.001,0
2566364000,-0.030,-0.008,3.844e-05,0.0,0.0,-0.001,0
2566464000,-0.030,-0.007,3.546e-05,0.0,0.0,-0.001,0
2566564000,-0.030,-0.007,3.606e-05,0.0,0.0,-0.001,0
2566664000,-0.030,-0.007,3.606e-05,0.0,0.0,-0.001,0
2566764000,-0.030,-0.007,3.606e-05,0.0,0.0,-0.001,0
2566864000,-0.030,-0.007,3.218e-05,0.0,0.0,-0.001,0
2566964000,-0.030,-0.007,3.516e-05,0.0,0.0,-0.001,0
2567064000,-0.030,-0.007,3.278e-05,0.0,0.0,-0.001,0
2567164000,-0.030,-0.007,3.486e-05,0.0,0.0,-0.001,0
2567264000,-0.030,-0.007,3.218e-05,0.0,0.0,-0.001,0
2567364000,-0.030,-0.007,3.695e-05,0.0,0.0,-0.001,0
2567464000,-0.030,-0.007,3.337e-05,0.0,0.0,-0.001,0
2567564000,-0.030,-0.007,3.337e-05,0.0,0.0,-0.001,0
2567664000,-0.030,-0.007,2.920e-05,0.0,0.0,-0.001,0
2567764000,-0.030,-0.007,3.099e-05,0.0,0.0,-0.001,0
2567864000,-0.030,-0.007,2.652e-05,0.0,0.0,-0.001,0
2567964000,-0.029,-0.007,3.516e-05,0.0,0.0,-0.001,0
2568064000,-0.029,-0.006,3.069e-05,0.0,0.0,-0.001,0
2568164000,-0.029,-0.006,3.546e-05,0.0,0.0,-0.001,0
2568264000,-0.029,-0.006,2.920e-05,0.0,0.0,-0.001,0
2568364000,-0.029,-0.006,3.486e-05,0.0,0.0,-0.001,0
2568464000,-0.029,-0.006,3.308e-05,0.0,0.0,-0.001,0
