timestamp,yaw_sp_move_rate,q_d[0],q_d[1],q_d[2],q_d[3],thrust_body[0],thrust_body[1],thrust_body[2],reset_integral,fw_control_yaw_wheel
2468700000,0.0,0.721,0.0,0.0,0.692,0.0,0.0,-0.001,0,0
2468852000,0.0,0.721,0.0,0.0,0.692,0.0,0.0,-0.001,0,0
2468996000,0.0,0.720,0.0,0.0,0.693,0.0,0.0,-0.001,0,0
2469100000,0.0,0.720,0.0,0.0,0.693,0.0,0.0,-0.001,0,0
2469252000,0.0,0.720,0.0,0.0,0.693,0.0,0.0,-0.001,0,0
2469396000,0.0,0.720,0.0,0.0,0.693,0.0,0.0,-0.001,0,0
2469500000,0.0,0.720,0.0,0.0,0.693,0.0,0.0,-0.001,0,0
2469652000,0.0,0.720,0.0,0.0,0.693,0.0,0.0,-0.001,0,0
2469796000,0.0,0.720,0.0,0.0,0.693,0.0,0.0,-0.001,0,0
2469900000,0.0,0.720,0.0,0.0,0.693,0.0,0.0,-0.001,0,0
2470052000,0.0,0.720,0.0,0.0,0.693,0.0,0.0,-0.001,0,0
2470196000,0.0,0.720,0.0,0.0,0.693,0.0,0.0,-0.001,0,0
2470300000,0.0,0.720,0.0,0.0,0.693,0.0,0.0,-0.001,0,0
2470452000,0.0,0.720,0.0,0.0,0.693,0.0,0.0,-0.001,0,0
2470596000,0.0,0.720,0.0,0.0,0.693,0.0,0.0,-0.001,0,0
2470700000,0.0,0.720,0.0,0.0,0.693,0.0,0.0,-0.001,0,0
2470852000,0.0,0.720,0.0,0.0,0.693,0.0,0.0,-0.001,0,0
2470996000,0.0,0.720,0.0,0.0,0.693,0.0,0.0,-0.001,0,0
2471100000,0.0,0.720,0.0,0.0,0.693,0.0,0.0,-0.001,0,0
2471252000,-0.008,0.720,-0.005,0.006,0.693,0.0,0.0,-0.010,0,0
2471396000,-0.001,0.720,0.000,0.000,0.693,0.0,0.0,-0.028,0,0
2471500000,-0.000,0.720,0.000,0.000,0.693,0.0,0.0,-0.042,0,0
2471652000,-9.761e-05,0.720,0.000,0.000,0.693,0.0,0.0,-0.068,0,0
2471796000,-2.142e-05,0.720,0.001,0.000,0.693,0.0,0.0,-0.104,0,0
2471900000,-6.772e-06,0.720,0.001,0.000,0.693,0.0,0.0,-0.131,0,0
2472052000,-1.143e-06,0.720,0.001,0.000,0.693,0.0,0.0,-0.172,0,0
2472196000,-2.510e-07,0.720,0.001,0.000,0.693,0.0,0.0,-0.214,0,0
2472300000,-7.921e-08,0.720,0.001,0.000,0.693,0.0,0.0,-0.247,0,0
2472452000,-1.337e-08,0.720,0.001,7.933e-05,0.693,0.0,0.0,-0.300,0,0
2472596000,-2.936e-09,0.720,0.001,0.000,0.693,0.0,0.0,-0.353,0,0
2472700000,-9.280e-10,0.720,0.001,0.000,0.693,0.0,0.0,-0.394,0,0
2472852000,-1.564e-10,0.720,0.001,0.000,0.693,0.0,0.0,-0.457,0,0
2472996000,-3.428e-11,0.720,0.001,0.000,0.693,0.0,0.0,-0.522,0,0
2473100000,-1.083e-11,0.720,0.001,7.211e-05,0.693,0.0,0.0,-0.570,0,0
2473252000,-1.829e-12,0.720,0.002,2.779e-05,0.693,0.0,0.0,-0.645,0,0
2473396000,-4.016e-13,0.720,0.002,-0.000,0.693,0.0,0.0,-0.704,0,0
2473500000,-1.269e-13,0.720,0.002,-0.000,0.693,0.0,0.0,-0.720,0,0
2473652000,-2.143e-14,0.720,0.002,-0.000,0.693,0.0,0.0,-0.743,0,0
2473800000,-4.705e-15,0.720,0.002,-0.000,0.693,0.0,0.0,-0.764,0,0
2473900000,-1.487e-15,0.720,0.002,-0.000,0.693,0.0,0.0,-0.780,0,0
2474052000,-2.511e-16,0.720,0.002,-0.000,0.693,0.0,0.0,-0.804,0,0
2474196000,-5.513e-17,0.720,0.002,-0.001,0.693,0.0,0.0,-0.826,0,0
2474300000,-1.742e-17,0.720,0.002,-0.001,0.693,0.0,0.0,-0.843,0,0
2474452000,-2.942e-18,0.720,0.002,-0.001,0.693,0.0,0.0,-0.867,0,0
2474596000,-6.458e-19,0.720,0.001,-0.000,0.693,0.0,0.0,-0.883,0,0
2474700000,-2.041e-19,0.720,0.001,-0.000,0.693,0.0,0.0,-0.888,0,0
2474852000,-3.447e-20,0.720,0.001,-0.000,0.693,0.0,0.0,-0.890,0,0
2474996000,-7.566e-21,0.720,0.001,0.000,0.693,0.0,0.0,-0.890,0,0
2475100000,-2.391e-21,0.720,0.002,0.001,0.693,0.0,0.0,-0.889,0,0
2475252000,-4.038e-22,0.720,0.003,0.001,0.693,0.0,0.0,-0.888,0,0
2475396000,-8.864e-23,0.720,0.004,0.003,0.693,0.0,0.0,-0.887,0,0
2475500000,-2.801e-23,0.720,0.004,0.003,0.693,0.0,0.0,-0.886,0,0
2475652000,-4.731e-24,0.720,0.005,0.004,0.693,0.0,0.0,-0.885,0,0
2475796000,-1.036e-24,0.720,0.006,0.005,0.693,0.0,0.0,-0.883,0,0
2475900000,-3.277e-25,0.720,0.006,0.006,0.693,0.0,0.0,-0.883,0,0
2476052000,-5.533e-26,0.720,0.006,0.006,0.693,0.0,0.0,-0.881,0,0
2476196000,-1.214e-26,0.720,0.007,0.007,0.693,0.0,0.0,-0.880,0,0
2476300000,-3.839e-27,0.720,0.007,0.007,0.693,0.0,0.0,-0.879,0,0
2476444000,-8.414e-28,0.720,0.007,0.007,0.693,0.0,0.0,-0.878,0,0
2476548000,-2.216e-28,0.720,0.007,0.007,0.693,0.0,0.0,-0.877,0,0
2476652000,-7.005e-29,0.720,0.007,0.006,0.693,0.0,0.0,-0.876,0,0
2476796000,-1.537e-29,0.720,0.006,0.006,0.693,0.0,0.0,-0.876,0,0
2476900000,-4.853e-30,0.720,0.006,0.006,0.693,0.0,0.0,-0.875,0,0
2477052000,-8.194e-31,0.720,0.006,0.005,0.693,0.0,0.0,-0.875,0,0
2477196000,-1.798e-31,0.720,0.006,0.005,0.693,0.0,0.0,-0.874,0,0
2477300000,-5.685e-32,0.720,0.006,0.005,0.693,0.0,0.0,-0.873,0,0
2477452000,-9.600e-33,0.720,0.006,0.004,0.693,0.0,0.0,-0.873,0,0
2477596000,-2.107e-33,0.720,0.006,0.004,0.693,0.0,0.0,-0.872,0,0
2477700000,-6.660e-34,0.720,0.005,0.004,0.693,0.0,0.0,-0.872,0,0
2477852000,-1.124e-34,0.720,0.005,0.003,0.693,0.0,0.0,-0.871,0,0
2477996000,-2.468e-35,0.720,0.005,0.003,0.693,0.0,0.0,-0.870,0,0
2478100000,-7.803e-36,0.720,0.005,0.003,0.693,0.0,0.0,-0.870,0,0
2478252000,-1.317e-36,0.720,0.004,0.003,0.693,0.0,0.0,-0.869,0,0
2478396000,-2.892e-37,0.720,0.004,0.003,0.693,0.0,0.0,-0.869,0,0
2478500000,-9.141e-38,0.720,0.004,0.003,0.693,0.0,0.0,-0.869,0,0
2478652000,-1.543e-38,0.720,0.004,0.003,0.693,0.0,0.0,-0.869,0,0
2478796000,-3.388e-39,0.720,0.004,0.003,0.693,0.0,0.0,-0.868,0,0
2478900000,-1.071e-39,0.720,0.004,0.003,0.693,0.0,0.0,-0.868,0,0
2479052000,-1.808e-40,0.720,0.004,0.004,0.693,0.0,0.0,-0.868,0,0
2479196000,-3.969e-41,0.720,0.005,0.004,0.693,0.0,0.0,-0.868,0,0
2479300000,-1.254e-41,0.720,0.005,0.004,0.693,0.0,0.0,-0.867,0,0
2479452000,-2.119e-42,0.720,0.005,0.004,0.693,0.0,0.0,-0.867,0,0
2479596000,-4.65e-43,0.720,0.005,0.004,0.693,0.0,0.0,-0.867,0,0
2479700000,-1.47e-43,0.720,0.005,0.004,0.693,0.0,0.0,-0.867,0,0
2479852000,-2.5e-44,0.720,0.005,0.004,0.693,0.0,0.0,-0.888,0,0
2479996000,-6e-45,0.720,0.005,0.004,0.693,0.0,0.0,-0.890,0,0
2480100000,-3e-45,0.720,0.005,0.003,0.693,0.0,0.0,-0.884,0,0
2480252000,-3e-45,0.720,0.005,0.003,0.693,0.0,0.0,-0.886,0,0
2480396000,-3e-45,0.720,0.005,0.003,0.693,0.0,0.0,-0.890,0,0
2480500000,-3e-45,0.720,0.004,0.003,0.693,0.0,0.0,-0.885,0,0
2480652000,-3e-45,0.720,0.004,0.003,0.693,0.0,0.0,-0.888,0,0
2480796000,-3e-45,0.720,0.004,0.002,0.693,0.0,0.0,-0.893,0,0
2480900000,-3e-45,0.720,0.004,0.002,0.693,0.0,0.0,-0.888,0,0
2481052000,-3e-45,0.720,0.004,0.002,0.693,0.0,0.0,-0.891,0,0
2481196000,-3e-45,0.720,0.004,0.002,0.693,0.0,0.0,-0.895,0,0
2481300000,-3e-45,0.720,0.004,0.002,0.693,0.0,0.0,-0.891,0,0
2481452000,-3e-45,0.720,0.004,0.003,0.693,0.0,0.0,-0.894,0,0
2481596000,-3e-45,0.720,0.004,0.003,0.693,0.0,0.0,-0.899,0,0
2481700000,-3e-45,0.720,0.004,0.003,0.693,0.0,0.0,-0.895,0,0
2481852000,-3e-45,0.720,0.005,0.003,0.693,0.0,0.0,-0.898,0,0
2481996000,-3e-45,0.720,0.005,0.003,0.693,0.0,0.0,-0.902,0,0
2482100000,-3e-45,0.720,0.005,0.004,0.693,0.0,0.0,-0.862,0,0
2482252000,-3e-45,0.720,0.005,0.004,0.693,0.0,0.0,-0.855,0,0
2482396000,-3e-45,0.720,0.005,0.004,0.693,0.0,0.0,-0.862,0,0
2482500000,-3e-45,0.720,0.005,0.005,0.693,0.0,0.0,-0.865,0,0
2482652000,-3e-45,0.720,0.005,0.005,0.693,0.0,0.0,-0.866,0,0
2482796000,-3e-45,0.720,0.006,0.005,0.693,0.0,0.0,-0.867,0,0
2482900000,-3e-45,0.720,0.006,0.005,0.693,0.0,0.0,-0.867,0,0
2483052000,-1e-45,0.720,0.006,0.005,0.693,0.0,0.0,-0.867,0,0
2483196000,-1e-45,0.720,0.005,0.005,0.693,0.0,0.0,-0.867,0,0
2483300000,-1e-45,0.720,0.005,0.005,0.693,0.0,0.0,-0.867,0,0
2483452000,-1e-45,0.720,0.005,0.004,0.693,0.0,0.0,-0.866,0,0
2483596000,-1e-45,0.720,0.004,0.004,0.693,0.0,0.0,-0.866,0,0
2483700000,-1e-45,0.720,0.004,0.004,0.693,0.0,0.0,-0.866,0,0
2483852000,-1e-45,0.720,0.004,0.004,0.693,0.0,0.0,-0.866,0,0
2483996000,-1e-45,0.720,0.004,0.005,0.693,0.0,0.0,-0.867,0,0
2484100000,-1e-45,0.720,0.004,0.005,0.693,0.0,0.0,-0.867,0,0
2484252000,-1e-45,0.720,0.004,0.005,0.693,0.0,0.0,-0.867,0,0
2484396000,-1e-45,0.720,0.004,0.005,0.693,0.0,0.0,-0.867,0,0
2484500000,-1e-45,0.720,0.003,0.005,0.693,0.0,0.0,-0.866,0,0
2484652000,-1e-45,0.720,0.003,0.004,0.693,0.0,0.0,-0.866,0,0
2484796000,-1e-45,0.720,0.004,0.004,0.693,0.0,0.0,-0.865,0,0
2484900000,-1e-45,0.720,0.004,0.004,0.693,0.0,0.0,-0.865,0,0
2485052000,-1e-45,0.720,0.004,0.004,0.693,0.0,0.0,-0.865,0,0
2485196000,-1e-45,0.720,0.004,0.004,0.693,0.0,0.0,-0.865,0,0
2485300000,-1e-45,0.720,0.004,0.004,0.693,0.0,0.0,-0.865,0,0
2485452000,-1e-45,0.720,0.004,0.004,0.693,0.0,0.0,-0.865,0,0
2485596000,-1e-45,0.720,0.004,0.004,0.693,0.0,0.0,-0.864,0,0
2485700000,-1e-45,0.720,0.004,0.004,0.693,0.0,0.0,-0.864,0,0
2485852000,-1e-45,0.720,0.004,0.004,0.693,0.0,0.0,-0.864,0,0
2485996000,-1e-45,0.720,0.004,0.004,0.693,0.0,0.0,-0.864,0,0
2486100000,-1e-45,0.720,0.004,0.003,0.693,0.0,0.0,-0.864,0,0
2486252000,-1e-45,0.720,0.004,0.003,0.693,0.0,0.0,-0.864,0,0
2486396000,-1e-45,0.720,0.004,0.003,0.693,0.0,0.0,-0.864,0,0
2486500000,-1e-45,0.720,0.004,0.003,0.693,0.0,0.0,-0.864,0,0
2486652000,-1e-45,0.720,0.004,0.003,0.693,0.0,0.0,-0.864,0,0
2486796000,-1e-45,0.720,0.004,0.003,0.693,0.0,0.0,-0.865,0,0
2486900000,-1e-45,0.720,0.004,0.003,0.693,0.0,0.0,-0.865,0,0
2487052000,-1e-45,0.720,0.005,0.003,0.693,0.0,0.0,-0.865,0,0
2487196000,-1e-45,0.720,0.005,0.003,0.693,0.0,0.0,-0.865,0,0
2487300000,-1e-45,0.720,0.005,0.003,0.693,0.0,0.0,-0.865,0,0
2487448000,-1e-45,0.720,0.005,0.003,0.693,0.0,0.0,-0.820,0,0
2487552000,-1e-45,0.720,0.005,0.004,0.693,0.0,0.0,-0.768,0,0
2487696000,-1e-45,0.720,0.006,0.004,0.693,0.0,0.0,-0.715,0,0
2487800000,-1e-45,0.720,0.006,0.004,0.693,0.0,0.0,-0.674,0,0
2487952000,-1e-45,0.720,0.007,0.004,0.693,0.0,0.0,-0.646,0,0
2488096000,-1e-45,0.720,0.007,0.004,0.693,0.0,0.0,-0.672,0,0
2488200000,-1e-45,0.720,0.007,0.004,0.693,0.0,0.0,-0.725,0,0
2488352000,-1e-45,0.720,0.007,0.004,0.693,0.0,0.0,-0.792,0,0
2488496000,-1e-45,0.720,0.006,0.004,0.693,0.0,0.0,-0.851,0,0
2488600000,-1e-45,0.720,0.006,0.004,0.693,0.0,0.0,-0.894,0,0
2488752000,-1e-45,0.720,0.005,0.003,0.693,0.0,0.0,-0.883,0,0
2488896000,-1e-45,0.720,0.004,0.003,0.693,0.0,0.0,-0.869,0,0
2489000000,-1e-45,0.720,0.004,0.003,0.693,0.0,0.0,-0.864,0,0
2489152000,-1e-45,0.720,0.004,0.003,0.693,0.0,0.0,-0.860,0,0
2489296000,-1e-45,0.720,0.003,0.003,0.693,0.0,0.0,-0.858,0,0
2489400000,-1e-45,0.720,0.003,0.002,0.693,0.0,0.0,-0.858,0,0
2489552000,-1e-45,0.720,0.003,0.002,0.693,0.0,0.0,-0.858,0,0
2489696000,-1e-45,0.720,0.003,0.002,0.693,0.0,0.0,-0.860,0,0
2489800000,-1e-45,0.720,0.003,0.002,0.693,0.0,0.0,-0.860,0,0
2489952000,-1e-45,0.720,0.003,0.002,0.693,0.0,0.0,-0.861,0,0
2490096000,-1e-45,0.720,0.004,0.002,0.693,0.0,0.0,-0.861,0,0
2490200000,-1e-45,0.720,0.004,0.002,0.693,0.0,0.0,-0.861,0,0
2490352000,-1e-45,0.720,0.004,0.003,0.693,0.0,0.0,-0.861,0,0
2490496000,-1e-45,0.720,0.003,0.003,0.693,0.0,0.0,-0.862,0,0
2490600000,-1e-45,0.720,0.003,0.003,0.693,0.0,0.0,-0.863,0,0
2490752000,-1e-45,0.720,0.003,0.003,0.693,0.0,0.0,-0.863,0,0
2490896000,-1e-45,0.720,0.003,0.003,0.693,0.0,0.0,-0.863,0,0
2491000000,-1e-45,0.720,0.003,0.003,0.693,0.0,0.0,-0.863,0,0
2491152000,-1e-45,0.720,0.003,0.003,0.693,0.0,0.0,-0.864,0,0
2491296000,-1e-45,0.720,0.003,0.003,0.693,0.0,0.0,-0.864,0,0
2491400000,-1e-45,0.720,0.003,0.003,0.693,0.0,0.0,-0.864,0,0
2491552000,-1e-45,0.720,0.004,0.003,0.693,0.0,0.0,-0.865,0,0
2491696000,-1e-45,0.720,0.004,0.002,0.693,0.0,0.0,-0.865,0,0
2491800000,-1e-45,0.720,0.004,0.002,0.693,0.0,0.0,-0.866,0,0
2491952000,-1e-45,0.720,0.004,0.002,0.693,0.0,0.0,-0.865,0,0
2492096000,-1e-45,0.720,0.004,0.002,0.693,0.0,0.0,-0.865,0,0
2492200000,-1e-45,0.720,0.004,0.002,0.693,0.0,0.0,-0.864,0,0
2492352000,-1e-45,0.720,0.004,0.002,0.693,0.0,0.0,-0.864,0,0
2492496000,-1e-45,0.720,0.004,0.002,0.693,0.0,0.0,-0.864,0,0
2492600000,-1e-45,0.720,0.004,0.001,0.693,0.0,0.0,-0.864,0,0
2492744000,-1e-45,0.720,0.004,0.001,0.693,0.0,0.0,-0.864,0,0
2492848000,-1e-45,0.720,0.004,0.001,0.693,0.0,0.0,-0.864,0,0
2492952000,-1e-45,0.720,0.004,0.001,0.693,0.0,0.0,-0.864,0,0
2493096000,-1e-45,0.720,0.004,0.001,0.693,0.0,0.0,-0.864,0,0
2493200000,-1e-45,0.720,0.004,0.001,0.693,0.0,0.0,-0.864,0,0
2493352000,-1e-45,0.720,0.004,0.001,0.693,0.0,0.0,-0.864,0,0
2493496000,-1e-45,0.720,0.004,0.002,0.693,0.0,0.0,-0.864,0,0
2493600000,-1e-45,0.720,0.004,0.002,0.693,0.0,0.0,-0.864,0,0
2493752000,-1e-45,0.720,0.004,0.002,0.693,0.0,0.0,-0.864,0,0
2493896000,-1e-45,0.720,0.004,0.002,0.693,0.0,0.0,-0.864,0,0
2494000000,-1e-45,0.720,0.004,0.003,0.693,0.0,0.0,-0.865,0,0
2494152000,0.0,0.720,0.000,-0.001,0.693,0.0,0.0,-0.865,0,0
2494296000,0.0,0.720,0.000,-0.001,0.693,0.0,0.0,-0.865,0,0
2494400000,0.0,0.720,0.000,-0.001,0.693,0.0,0.0,-0.865,0,0
2494552000,0.0,0.720,0.000,-0.001,0.693,0.0,0.0,-0.865,0,0
2494696000,0.0,0.720,0.000,-0.001,0.693,0.0,0.0,-0.865,0,0
2494800000,0.0,0.720,0.000,-0.001,0.693,0.0,0.0,-0.865,0,0
2494952000,0.0,0.720,0.000,-0.001,0.693,0.0,0.0,-0.865,0,0
2495096000,0.0,0.720,0.000,-0.001,0.693,0.0,0.0,-0.864,0,0
2495200000,0.0,0.720,0.000,-0.001,0.693,0.0,0.0,-0.864,0,0
2495352000,0.0,0.720,0.000,-0.001,0.693,0.0,0.0,-0.863,0,0
2495496000,0.0,0.720,0.000,-0.001,0.693,0.0,0.0,-0.863,0,0
2495600000,0.0,0.720,0.000,-0.001,0.693,0.0,0.0,-0.863,0,0
2495752000,0.0,0.720,0.000,-0.001,0.693,0.0,0.0,-0.863,0,0
2495896000,0.0,0.720,0.000,-0.001,0.693,0.0,0.0,-0.863,0,0
2496000000,0.0,0.720,0.000,-0.001,0.693,0.0,0.0,-0.864,0,0
2496152000,0.0,0.720,0.000,-0.001,0.693,0.0,0.0,-0.864,0,0
2496296000,0.0,0.720,0.000,-0.001,0.693,0.0,0.0,-0.865,0,0
2496400000,0.0,0.720,0.000,-0.001,0.693,0.0,0.0,-0.864,0,0
2496552000,0.0,0.720,0.000,-0.001,0.693,0.0,0.0,-0.864,0,0
2496696000,0.0,0.720,0.000,-0.001,0.693,0.0,0.0,-0.865,0,0
2496800000,0.0,0.720,0.000,-0.001,0.693,0.0,0.0,-0.865,0,0
2496952000,0.0,0.720,0.000,-0.001,0.693,0.0,0.0,-0.865,0,0
2497096000,0.0,0.720,0.007,0.005,0.693,0.0,0.0,-0.865,0,0
2497200000,0.0,0.719,0.038,0.035,0.692,0.0,0.0,-0.869,0,0
2497352000,0.0,0.710,0.119,0.112,0.684,0.0,0.0,-0.900,0,0
2497496000,0.0,0.703,0.156,0.149,0.677,0.0,0.0,-0.886,0,0
2497600000,0.0,0.703,0.156,0.149,0.677,0.0,0.0,-0.866,0,0
2497752000,0.0,0.703,0.156,0.149,0.677,0.0,0.0,-0.857,0,0
2497896000,0.0,0.703,0.156,0.149,0.677,0.0,0.0,-0.861,0,0
2498000000,0.0,0.703,0.156,0.149,0.677,0.0,0.0,-0.868,0,0
2498152000,0.0,0.703,0.156,0.149,0.677,0.0,0.0,-0.880,0,0
2498296000,0.0,0.707,0.157,0.148,0.672,0.0,0.0,-0.893,0,0
2498400000,0.0,0.718,0.159,0.145,0.661,0.0,0.0,-0.900,0,0
2498552000,0.0,0.735,0.163,0.141,0.641,0.0,0.0,-0.909,0,0
2498696000,0.0,0.743,0.165,0.139,0.632,0.0,0.0,-0.914,0,0
2498800000,0.0,0.742,0.165,0.139,0.633,0.0,0.0,-0.916,0,0
2498952000,0.0,0.736,0.163,0.141,0.640,0.0,0.0,-0.916,0,0
2499096000,0.0,0.733,0.163,0.142,0.644,0.0,0.0,-0.915,0,0
2499200000,0.0,0.732,0.163,0.142,0.645,0.0,0.0,-0.913,0,0
2499352000,0.0,0.749,0.001,-0.000,0.661,0.0,0.0,-0.878,0,0
2499496000,0.0,0.749,0.000,-0.001,0.661,0.0,0.0,-0.905,0,0
2499600000,0.0,0.749,0.000,-0.001,0.661,0.0,0.0,-0.907,0,0
2499752000,0.0,0.748,0.000,-0.001,0.662,0.0,0.0,-0.896,0,0
2499896000,0.0,0.749,0.000,-0.001,0.662,0.0,0.0,-0.883,0,0
2500000000,0.0,0.749,0.000,-0.001,0.662,0.0,0.0,-0.874,0,0
2500152000,0.0,0.749,0.000,-0.001,0.662,0.0,0.0,-0.866,0,0
2500296000,0.0,0.749,0.000,-0.001,0.662,0.0,0.0,-0.862,0,0
2500400000,0.0,0.749,0.000,-0.001,0.662,0.0,0.0,-0.860,0,0
2500552000,0.0,0.749,0.000,-0.001,0.662,0.0,0.0,-0.860,0,0
2500696000,0.0,0.749,-0.002,-0.004,0.662,0.0,0.0,-0.860,0,0
2500800000,0.0,0.749,-0.002,-0.004,0.662,0.0,0.0,-0.860,0,0
2500952000,0.0,0.731,-0.161,-0.144,0.646,0.0,0.0,-0.904,0,0
2501096000,0.0,0.731,-0.161,-0.144,0.646,0.0,0.0,-0.866,0,0
2501248000,0.0,0.731,-0.161,-0.144,0.646,0.0,0.0,-0.856,0,0
2501352000,0.0,0.731,-0.161,-0.144,0.646,0.0,0.0,-0.858,0,0
2501496000,0.0,0.731,-0.161,-0.144,0.646,0.0,0.0,-0.867,0,0
2501600000,0.0,0.731,-0.161,-0.144,0.646,0.0,0.0,-0.877,0,0
2501752000,0.0,0.731,-0.161,-0.144,0.646,0.0,0.0,-0.891,0,0
2501896000,0.0,0.731,-0.161,-0.144,0.646,0.0,0.0,-0.904,0,0
2502000000,0.0,0.731,-0.161,-0.144,0.646,0.0,0.0,-0.911,0,0
2502152000,0.0,0.731,-0.161,-0.144,0.646,0.0,0.0,-0.919,0,0
2502296000,0.0,0.731,-0.161,-0.144,0.646,0.0,0.0,-0.923,0,0
2502400000,0.0,0.731,-0.161,-0.144,0.646,0.0,0.0,-0.924,0,0
2502552000,0.0,0.731,-0.161,-0.144,0.646,0.0,0.0,-0.924,0,0
2502696000,0.0,0.749,0.000,-0.002,0.662,0.0,0.0,-0.869,0,0
2502800000,0.0,0.749,0.000,-0.002,0.662,0.0,0.0,-0.904,0,0
2502952000,0.0,0.749,0.000,-0.002,0.662,0.0,0.0,-0.918,0,0
2503052000,0.0,0.749,0.000,-0.002,0.662,0.0,0.0,-0.914,0,0
2503152000,0.0,0.749,0.000,-0.001,0.662,0.0,0.0,-0.904,0,0
2503296000,0.0,0.749,0.000,-0.001,0.662,0.0,0.0,-0.888,0,0
2503400000,0.0,0.749,0.000,-0.001,0.662,0.0,0.0,-0.879,0,0
2503552000,0.0,0.749,0.000,-0.001,0.662,0.0,0.0,-0.869,0,0
2503696000,0.0,0.749,0.000,-0.001,0.662,0.0,0.0,-0.864,0,0
2503800000,0.0,0.749,0.000,-0.001,0.662,0.0,0.0,-0.861,0,0
2503952000,0.0,0.749,0.000,-0.001,0.662,0.0,0.0,-0.860,0,0
2504096000,0.0,0.748,0.014,0.010,0.662,0.0,0.0,-0.861,0,0
2504200000,0.0,0.734,0.148,0.128,0.649,0.0,0.0,-0.927,0,0
2504352000,0.0,0.731,0.163,0.142,0.647,0.0,0.0,-0.883,0,0
2504496000,0.0,0.731,0.163,0.142,0.647,0.0,0.0,-0.857,0,0
2504600000,0.0,0.731,0.163,0.142,0.647,0.0,0.0,-0.852,0,0
2504752000,0.0,0.731,0.163,0.142,0.647,0.0,0.0,-0.856,0,0
2504896000,0.0,0.731,0.163,0.142,0.647,0.0,0.0,-0.867,0,0
2505000000,0.0,0.731,0.163,0.142,0.647,0.0,0.0,-0.876,0,0
2505152000,0.0,0.731,0.163,0.142,0.647,0.0,0.0,-0.890,0,0
2505296000,0.0,0.731,0.163,0.142,0.647,0.0,0.0,-0.902,0,0
2505400000,0.0,0.731,0.163,0.142,0.647,0.0,0.0,-0.908,0,0
2505552000,0.0,0.731,0.163,0.142,0.647,0.0,0.0,-0.915,0,0
2505696000,0.0,0.731,0.163,0.142,0.647,0.0,0.0,-0.918,0,0
2505800000,0.0,0.731,0.163,0.142,0.647,0.0,0.0,-0.919,0,0
2505952000,0.0,0.731,0.163,0.142,0.647,0.0,0.0,-0.918,0,0
2506096000,0.0,0.749,0.001,-0.001,0.662,0.0,0.0,-0.862,0,0
2506200000,0.0,0.749,0.001,-0.001,0.662,0.0,0.0,-0.897,0,0
2506352000,0.0,0.749,0.001,-0.001,0.662,0.0,0.0,-0.911,0,0
2506496000,0.0,0.749,0.001,-0.001,0.662,0.0,0.0,-0.903,0,0
2506600000,0.0,0.749,0.001,-0.001,0.662,0.0,0.0,-0.894,0,0
2506752000,0.0,0.749,0.001,-0.001,0.662,0.0,0.0,-0.880,0,0
2506896000,0.0,0.749,0.001,-0.001,0.662,0.0,0.0,-0.871,0,0
2507000000,0.0,0.749,0.001,-0.001,0.662,0.0,0.0,-0.867,0,0
2507152000,0.0,0.749,0.001,-0.001,0.662,0.0,0.0,-0.863,0,0
2507296000,0.0,0.749,0.001,-0.001,0.662,0.0,0.0,-0.862,0,0
2507400000,0.0,0.749,0.001,-0.001,0.662,0.0,0.0,-0.861,0,0
2507552000,0.0,0.748,-0.016,-0.017,0.662,0.0,0.0,-0.862,0,0
2507696000,0.0,0.731,-0.161,-0.144,0.646,0.0,0.0,-0.950,0,0
2507800000,0.0,0.731,-0.161,-0.143,0.646,0.0,0.0,-0.898,0,0
2507952000,0.0,0.731,-0.161,-0.143,0.646,0.0,0.0,-0.864,0,0
2508096000,0.0,0.731,-0.161,-0.143,0.646,0.0,0.0,-0.857,0,0
2508200000,0.0,0.731,-0.161,-0.143,0.646,0.0,0.0,-0.859,0,0
2508352000,0.0,0.731,-0.161,-0.143,0.646,0.0,0.0,-0.869,0,0
2508496000,0.0,0.731,-0.161,-0.143,0.646,0.0,0.0,-0.882,0,0
2508600000,0.0,0.731,-0.161,-0.143,0.646,0.0,0.0,-0.892,0,0
2508752000,0.0,0.731,-0.161,-0.143,0.646,0.0,0.0,-0.904,0,0
2508896000,0.0,0.731,-0.161,-0.143,0.646,0.0,0.0,-0.914,0,0
2509000000,0.0,0.731,-0.161,-0.143,0.646,0.0,0.0,-0.918,0,0
2509152000,0.0,0.731,-0.161,-0.143,0.646,0.0,0.0,-0.923,0,0
2509296000,0.0,0.731,-0.161,-0.143,0.646,0.0,0.0,-0.924,0,0
2509400000,0.0,0.732,-0.157,-0.148,0.645,0.0,0.0,-0.923,0,0
2509552000,0.0,0.732,-0.157,-0.148,0.645,0.0,0.0,-0.921,0,0
2509696000,0.0,0.749,-0.000,-0.002,0.662,0.0,0.0,-0.871,0,0
2509800000,0.0,0.749,-0.000,-0.002,0.662,0.0,0.0,-0.902,0,0
2509952000,0.0,0.749,-0.000,-0.002,0.662,0.0,0.0,-0.914,0,0
2510096000,0.0,0.749,-0.000,-0.002,0.662,0.0,0.0,-0.905,0,0
2510200000,0.0,0.749,-0.000,-0.002,0.662,0.0,0.0,-0.894,0,0
2510352000,0.0,0.749,-0.000,-0.002,0.662,0.0,0.0,-0.880,0,0
2510496000,0.0,0.749,-0.000,-0.002,0.662,0.0,0.0,-0.870,0,0
2510600000,0.0,0.749,0.000,-0.002,0.662,0.0,0.0,-0.865,0,0
2510752000,0.0,0.749,0.000,-0.001,0.662,0.0,0.0,-0.861,0,0
2510900000,0.0,0.749,0.005,0.002,0.662,0.0,0.0,-0.860,0,0
2511000000,0.0,0.744,0.084,0.072,0.658,0.0,0.0,-0.880,0,0
2511152000,0.0,0.731,0.162,0.142,0.646,0.0,0.0,-0.904,0,0
2511296000,0.0,0.731,0.162,0.142,0.646,0.0,0.0,-0.865,0,0
2511400000,0.0,0.731,0.162,0.142,0.646,0.0,0.0,-0.855,0,0
2511552000,0.0,0.731,0.162,0.142,0.646,0.0,0.0,-0.855,0,0
2511696000,0.0,0.731,0.162,0.142,0.646,0.0,0.0,-0.864,0,0
2511800000,0.0,0.731,0.162,0.142,0.646,0.0,0.0,-0.874,0,0
2511952000,0.0,0.731,0.162,0.142,0.646,0.0,0.0,-0.888,0,0
2512096000,0.0,0.731,0.162,0.142,0.646,0.0,0.0,-0.899,0,0
2512200000,0.0,0.731,0.162,0.142,0.646,0.0,0.0,-0.906,0,0
2512352000,0.0,0.731,0.162,0.142,0.646,0.0,0.0,-0.912,0,0
2512496000,0.0,0.731,0.162,0.142,0.646,0.0,0.0,-0.916,0,0
2512600000,0.0,0.731,0.162,0.142,0.646,0.0,0.0,-0.917,0,0
2512752000,0.0,0.739,0.117,0.101,0.654,0.0,0.0,-0.881,0,0
2512896000,0.0,0.749,0.001,-0.001,0.662,0.0,0.0,-0.887,0,0
2513000000,0.0,0.749,0.001,-0.001,0.662,0.0,0.0,-0.908,0,0
2513152000,0.0,0.749,0.001,-0.001,0.662,0.0,0.0,-0.911,0,0
2513296000,0.0,0.749,0.001,-0.001,0.662,0.0,0.0,-0.900,0,0
2513400000,0.0,0.749,0.001,-0.001,0.662,0.0,0.0,-0.890,0,0
2513552000,0.0,0.749,0.001,-0.001,0.662,0.0,0.0,-0.877,0,0
2513696000,0.0,0.749,0.001,-0.001,0.662,0.0,0.0,-0.869,0,0
2513800000,0.0,0.749,0.001,-0.001,0.662,0.0,0.0,-0.865,0,0
2513952000,0.0,0.749,0.001,-0.001,0.662,0.0,0.0,-0.863,0,0
2514096000,0.0,0.749,0.001,-0.001,0.662,0.0,0.0,-0.862,0,0
2514252000,0.0,0.745,-0.072,-0.066,0.659,0.0,0.0,-0.879,0,0
2514396000,0.0,0.745,-0.072,-0.066,0.659,0.0,0.0,-0.868,0,0
2514500000,0.0,0.731,-0.161,-0.144,0.646,0.0,0.0,-0.935,0,0
2514652000,0.0,0.731,-0.161,-0.144,0.646,0.0,0.0,-0.878,0,0
2514796000,0.0,0.731,-0.161,-0.144,0.646,0.0,0.0,-0.860,0,0
2514900000,0.0,0.731,-0.161,-0.144,0.646,0.0,0.0,-0.859,0,0
2515052000,0.0,0.731,-0.161,-0.144,0.646,0.0,0.0,-0.866,0,0
2515196000,0.0,0.731,-0.161,-0.144,0.646,0.0,0.0,-0.878,0,0
2515300000,0.0,0.731,-0.161,-0.144,0.646,0.0,0.0,-0.887,0,0
2515452000,0.0,0.731,-0.161,-0.144,0.646,0.0,0.0,-0.900,0,0
2515596000,0.0,0.749,0.000,-0.002,0.662,0.0,0.0,-0.876,0,0
2515700000,0.0,0.749,0.000,-0.002,0.662,0.0,0.0,-0.907,0,0
2515852000,0.0,0.749,0.000,-0.002,0.662,0.0,0.0,-0.919,0,0
2515996000,0.0,0.749,0.000,-0.002,0.662,0.0,0.0,-0.910,0,0
2516100000,0.0,0.749,-0.000,-0.001,0.662,0.0,0.0,-0.900,0,0
2516252000,0.0,0.747,-0.053,-0.048,0.660,0.0,0.0,-0.893,0,0
2516396000,0.0,0.739,-0.119,-0.107,0.653,0.0,0.0,-0.904,0,0
2516500000,0.0,0.731,-0.159,-0.142,0.646,0.0,0.0,-0.904,0,0
2516652000,0.0,0.731,-0.161,-0.144,0.646,0.0,0.0,-0.866,0,0
2516796000,0.0,0.731,-0.161,-0.143,0.646,0.0,0.0,-0.855,0,0
2516900000,0.0,0.731,-0.161,-0.144,0.646,0.0,0.0,-0.856,0,0
2517052000,0.0,0.731,-0.161,-0.144,0.646,0.0,0.0,-0.865,0,0
2517196000,0.0,0.731,-0.161,-0.144,0.646,0.0,0.0,-0.878,0,0
2517300000,0.0,0.731,-0.161,-0.144,0.646,0.0,0.0,-0.887,0,0
2517452000,0.0,0.731,-0.161,-0.143,0.646,0.0,0.0,-0.900,0,0
2517596000,0.0,0.731,-0.161,-0.143,0.646,0.0,0.0,-0.910,0,0
2517700000,0.0,0.731,-0.161,-0.143,0.646,0.0,0.0,-0.915,0,0
2517852000,0.0,0.739,-0.116,-0.104,0.654,0.0,0.0,-0.882,0,0
2517996000,0.0,0.749,-0.000,-0.001,0.662,0.0,0.0,-0.887,0,0
2518100000,0.0,0.749,-0.000,-0.001,0.662,0.0,0.0,-0.913,0,0
2518252000,0.0,0.749,-0.000,-0.001,0.662,0.0,0.0,-0.919,0,0
2518396000,0.0,0.749,-0.000,-0.001,0.662,0.0,0.0,-0.906,0,0
2518500000,0.0,0.749,-0.000,-0.001,0.662,0.0,0.0,-0.894,0,0
2518652000,0.0,0.749,-0.000,-0.001,0.662,0.0,0.0,-0.878,0,0
2518796000,0.0,0.749,-0.000,-0.001,0.662,0.0,0.0,-0.867,0,0
2518900000,0.0,0.749,-0.000,-0.001,0.662,0.0,0.0,-0.862,0,0
2519052000,0.0,0.749,-0.009,-0.009,0.662,0.0,0.0,-0.858,0,0
2519196000,0.0,0.748,-0.018,-0.018,0.662,0.0,0.0,-0.858,0,0
2519300000,0.0,0.740,-0.112,-0.100,0.654,0.0,0.0,-0.887,0,0
2519452000,0.0,0.731,-0.161,-0.143,0.646,0.0,0.0,-0.877,0,0
2519596000,0.0,0.731,-0.161,-0.143,0.646,0.0,0.0,-0.854,0,0
2519700000,0.0,0.731,-0.161,-0.143,0.646,0.0,0.0,-0.851,0,0
2519852000,0.0,0.731,-0.161,-0.143,0.646,0.0,0.0,-0.857,0,0
2519996000,0.0,0.731,-0.161,-0.143,0.646,0.0,0.0,-0.869,0,0
2520100000,0.0,0.731,-0.161,-0.143,0.646,0.0,0.0,-0.880,0,0
2520252000,0.0,0.731,-0.161,-0.143,0.646,0.0,0.0,-0.895,0,0
2520396000,0.0,0.731,-0.161,-0.143,0.646,0.0,0.0,-0.908,0,0
2520500000,0.0,0.731,-0.161,-0.143,0.646,0.0,0.0,-0.915,0,0
2520652000,0.0,0.731,-0.161,-0.143,0.646,0.0,0.0,-0.922,0,0
2520796000,0.0,0.731,-0.161,-0.143,0.646,0.0,0.0,-0.925,0,0
2520900000,0.0,0.731,-0.161,-0.143,0.646,0.0,0.0,-0.926,0,0
2521052000,0.0,0.746,-0.066,-0.060,0.659,0.0,0.0,-0.860,0,0
2521196000,0.0,0.749,-0.002,-0.003,0.662,0.0,0.0,-0.898,0,0
2521300000,0.0,0.749,-0.002,-0.003,0.662,0.0,0.0,-0.916,0,0
2521452000,0.0,0.749,-0.000,-0.001,0.662,0.0,0.0,-0.914,0,0
2521596000,0.0,0.749,-0.000,-0.001,0.662,0.0,0.0,-0.900,0,0
2521700000,0.0,0.749,-0.000,-0.001,0.662,0.0,0.0,-0.889,0,0
2521852000,0.0,0.749,-9.091e-05,-0.001,0.662,0.0,0.0,-0.875,0,0
2521996000,0.0,0.749,-9.091e-05,-0.001,0.662,0.0,0.0,-0.866,0,0
2522100000,0.0,0.749,-9.091e-05,-0.001,0.662,0.0,0.0,-0.862,0,0
2522252000,0.0,0.749,-9.091e-05,-0.001,0.662,0.0,0.0,-0.859,0,0
2522396000,0.0,0.749,0.000,-0.001,0.662,0.0,0.0,-0.859,0,0
2522500000,0.0,0.749,0.005,0.003,0.662,0.0,0.0,-0.859,0,0
2522652000,0.0,0.740,0.110,0.096,0.655,0.0,0.0,-0.896,0,0
2522796000,0.0,0.731,0.162,0.142,0.646,0.0,0.0,-0.896,0,0
2522900000,0.0,0.731,0.162,0.142,0.646,0.0,0.0,-0.868,0,0
2523052000,0.0,0.731,0.162,0.142,0.646,0.0,0.0,-0.855,0,0
2523196000,0.0,0.731,0.162,0.142,0.646,0.0,0.0,-0.857,0,0
2523300000,0.0,0.731,0.162,0.142,0.646,0.0,0.0,-0.863,0,0
2523452000,0.0,0.731,0.162,0.142,0.646,0.0,0.0,-0.876,0,0
2523596000,0.0,0.731,0.162,0.142,0.646,0.0,0.0,-0.888,0,0
2523700000,0.0,0.731,0.162,0.142,0.646,0.0,0.0,-0.896,0,0
2523852000,0.0,0.731,0.162,0.142,0.646,0.0,0.0,-0.906,0,0
2523996000,0.0,0.731,0.162,0.142,0.646,0.0,0.0,-0.913,0,0
2524100000,0.0,0.731,0.162,0.142,0.646,0.0,0.0,-0.916,0,0
2524252000,0.0,0.731,0.162,0.142,0.646,0.0,0.0,-0.918,0,0
2524396000,0.0,0.731,0.162,0.142,0.646,0.0,0.0,-0.918,0,0
2524500000,0.0,0.732,0.155,0.135,0.648,0.0,0.0,-0.908,0,0
2524652000,0.0,0.749,0.000,-0.001,0.662,0.0,0.0,-0.876,0,0
2524796000,0.0,0.749,0.000,-0.001,0.662,0.0,0.0,-0.908,0,0
2524900000,0.0,0.749,0.000,-0.001,0.662,0.0,0.0,-0.911,0,0
2525052000,0.0,0.749,0.000,-0.001,0.662,0.0,0.0,-0.900,0,0
2525196000,0.0,0.749,0.000,-0.001,0.662,0.0,0.0,-0.886,0,0
2525300000,0.0,0.749,0.000,-0.001,0.662,0.0,0.0,-0.877,0,0
2525400000,0.0,0.749,0.000,-0.001,0.662,0.0,0.0,-0.871,0,0
2525548000,0.0,0.749,0.000,-0.001,0.662,0.0,0.0,-0.864,0,0
2525652000,0.0,0.749,0.000,-0.001,0.662,0.0,0.0,-0.862,0,0
2525796000,0.0,0.749,0.000,-0.001,0.662,0.0,0.0,-0.861,0,0
2525900000,0.0,0.749,0.000,-0.001,0.662,0.0,0.0,-0.860,0,0
2526052000,0.0,0.749,0.000,-0.001,0.662,0.0,0.0,-0.860,0,0
2526196000,0.0,0.749,0.000,-0.001,0.662,0.0,0.0,-0.861,0,0
2526300000,0.0,0.749,0.000,-0.001,0.662,0.0,0.0,-0.862,0,0
2526452000,0.0,0.749,0.000,-0.001,0.662,0.0,0.0,-0.862,0,0
2526596000,0.0,0.749,0.000,-0.001,0.662,0.0,0.0,-0.863,0,0
2526700000,0.0,0.749,0.000,-0.001,0.662,0.0,0.0,-0.863,0,0
2526852000,0.0,0.749,0.000,-0.001,0.662,0.0,0.0,-0.864,0,0
2526996000,0.0,0.749,0.000,-0.001,0.662,0.0,0.0,-0.864,0,0
2527100000,0.0,0.749,0.000,-0.001,0.662,0.0,0.0,-0.864,0,0
2527252000,0.0,0.749,0.000,-0.001,0.662,0.0,0.0,-0.864,0,0
2527396000,0.0,0.749,0.000,-0.001,0.662,0.0,0.0,-0.865,0,0
2527500000,0.0,0.749,0.000,-0.001,0.662,0.0,0.0,-0.865,0,0
2527652000,0.0,0.749,0.000,-0.001,0.662,0.0,0.0,-0.865,0,0
2527796000,0.0,0.749,0.000,-0.001,0.662,0.0,0.0,-0.865,0,0
2527900000,0.0,0.749,0.000,-0.001,0.662,0.0,0.0,-0.865,0,0
2528052000,0.0,0.749,0.000,-0.001,0.662,0.0,0.0,-0.865,0,0
2528196000,0.0,0.749,0.000,-0.001,0.662,0.0,0.0,-0.865,0,0
2528300000,0.0,0.749,0.000,-0.001,0.662,0.0,0.0,-0.865,0,0
2528452000,0.0,0.749,0.000,-0.001,0.662,0.0,0.0,-0.865,0,0
2528596000,0.0,0.749,0.000,-0.001,0.662,0.0,0.0,-0.865,0,0
2528700000,0.0,0.749,0.000,-0.001,0.662,0.0,0.0,-0.865,0,0
2528852000,0.0,0.749,0.000,-0.001,0.662,0.0,0.0,-0.865,0,0
2528996000,0.0,0.749,0.000,-0.001,0.662,0.0,0.0,-0.864,0,0
2529100000,0.0,0.749,0.000,-0.001,0.662,0.0,0.0,-0.864,0,0
2529252000,0.0,0.749,0.000,-0.001,0.662,0.0,0.0,-0.863,0,0
2529396000,0.0,0.749,0.000,-0.001,0.662,0.0,0.0,-0.863,0,0
2529500000,0.0,0.749,0.000,-0.001,0.662,0.0,0.0,-0.863,0,0
2529652000,0.0,0.749,0.000,-0.001,0.662,0.0,0.0,-0.864,0,0
2529796000,0.0,0.749,0.000,-0.001,0.662,0.0,0.0,-0.865,0,0
2529900000,0.0,0.749,0.000,-0.001,0.662,0.0,0.0,-0.865,0,0
2530052000,0.0,0.749,0.000,-0.001,0.662,0.0,0.0,-0.865,0,0
2530196000,0.0,0.749,0.000,-0.001,0.662,0.0,0.0,-0.865,0,0
2530300000,0.0,0.749,0.000,-0.001,0.662,0.0,0.0,-0.865,0,0
2530452000,0.0,0.749,0.000,-0.001,0.662,0.0,0.0,-0.864,0,0
2530596000,0.0,0.749,0.000,-0.001,0.662,0.0,0.0,-0.864,0,0
2530700000,0.0,0.749,0.000,-0.001,0.662,0.0,0.0,-0.864,0,0
2530852000,0.0,0.749,0.000,-0.001,0.662,0.0,0.0,-0.864,0,0
2530996000,0.0,0.749,0.000,-0.001,0.662,0.0,0.0,-0.864,0,0
2531100000,0.0,0.749,0.000,-0.001,0.662,0.0,0.0,-0.864,0,0
2531252000,0.0,0.749,0.000,-0.001,0.662,0.0,0.0,-0.864,0,0
2531396000,0.0,0.749,0.000,-0.001,0.662,0.0,0.0,-0.864,0,0
2531500000,0.0,0.749,0.000,-0.001,0.662,0.0,0.0,-0.864,0,0
2531652000,0.0,0.749,0.000,-0.001,0.662,0.0,0.0,-0.864,0,0
2531796000,0.0,0.749,0.000,-0.001,0.662,0.0,0.0,-0.864,0,0
2531900000,0.0,0.749,0.000,-0.001,0.662,0.0,0.0,-0.864,0,0
2532052000,0.0,0.731,0.143,-0.162,0.646,0.0,0.0,-0.922,0,0
2532196000,0.0,0.731,0.143,-0.162,0.646,0.0,0.0,-0.897,0,0
2532300000,0.0,0.731,0.143,-0.162,0.646,0.0,0.0,-0.894,0,0
2532452000,0.0,0.749,-0.004,0.004,0.662,0.0,0.0,-0.884,0,0
2532596000,0.0,0.749,-3.170e-05,-0.000,0.662,0.0,0.0,-0.881,0,0
2532700000,0.0,0.749,-3.170e-05,-0.000,0.662,0.0,0.0,-0.877,0,0
2532852000,0.0,0.749,-3.170e-05,-0.000,0.662,0.0,0.0,-0.872,0,0
2532996000,0.0,0.749,-3.170e-05,-0.000,0.662,0.0,0.0,-0.869,0,0
2533100000,0.0,0.749,-0.007,0.008,0.662,0.0,0.0,-0.867,0,0
2533252000,0.0,0.735,-0.125,0.141,0.650,0.0,0.0,-0.928,0,0
2533396000,0.0,0.731,-0.143,0.161,0.646,0.0,0.0,-0.905,0,0
2533500000,0.0,0.731,-0.143,0.161,0.646,0.0,0.0,-0.897,0,0
2533652000,0.0,0.747,-0.048,0.054,0.660,0.0,0.0,-0.828,0,0
2533796000,0.0,0.749,0.000,-0.000,0.662,0.0,0.0,-0.884,0,0
2533900000,0.0,0.749,0.000,-0.000,0.662,0.0,0.0,-0.881,0,0
2534052000,0.0,0.749,0.000,-0.000,0.662,0.0,0.0,-0.876,0,0
2534196000,0.0,0.749,0.000,-0.000,0.662,0.0,0.0,-0.871,0,0
2534300000,0.0,0.749,0.000,-0.000,0.662,0.0,0.0,-0.868,0,0
2534452000,0.0,0.749,0.000,-0.000,0.662,0.0,0.0,-0.866,0,0
2534596000,0.0,0.749,0.000,-0.000,0.662,0.0,0.0,-0.865,0,0
2534700000,0.0,0.749,0.000,-0.000,0.662,0.0,0.0,-0.865,0,0
2534852000,0.0,0.749,0.000,-0.000,0.662,0.0,0.0,-0.865,0,0
2534996000,0.0,0.749,0.000,-0.000,0.662,0.0,0.0,-0.865,0,0
2535100000,0.0,0.749,0.000,-0.000,0.662,0.0,0.0,-0.865,0,0
2535252000,0.0,0.749,0.000,-0.000,0.662,0.0,0.0,-0.865,0,0
2535396000,0.0,0.749,0.000,-0.000,0.662,0.0,0.0,-0.865,0,0
2535500000,0.0,0.749,0.000,-0.000,0.662,0.0,0.0,-0.865,0,0
2535652000,0.0,0.749,0.000,-0.000,0.662,0.0,0.0,-0.865,0,0
2535796000,0.0,0.749,0.000,-0.000,0.662,0.0,0.0,-0.865,0,0
2535900000,0.0,0.749,0.000,-0.000,0.662,0.0,0.0,-0.865,0,0
2536052000,0.0,0.749,0.000,-0.000,0.662,0.0,0.0,-0.865,0,0
2536196000,0.0,0.749,0.000,-0.000,0.662,0.0,0.0,-0.865,0,0
2536300000,0.0,0.749,0.000,-0.000,0.662,0.0,0.0,-0.865,0,0
2536452000,0.0,0.749,0.000,-0.000,0.662,0.0,0.0,-0.864,0,0
2536596000,0.0,0.749,0.000,-0.000,0.662,0.0,0.0,-0.864,0,0
2536700000,0.0,0.749,0.000,-0.000,0.662,0.0,0.0,-0.864,0,0
2536852000,0.0,0.749,0.000,-0.000,0.662,0.0,0.0,-0.864,0,0
2536996000,0.0,0.749,0.000,-0.000,0.662,0.0,0.0,-0.864,0,0
2537100000,0.0,0.749,0.000,-0.000,0.662,0.0,0.0,-0.864,0,0
2537252000,0.0,0.749,0.000,-0.000,0.662,0.0,0.0,-0.865,0,0
2537396000,0.0,0.749,0.000,-0.000,0.662,0.0,0.0,-0.865,0,0
2537548000,0.0,0.749,0.000,-0.000,0.662,0.0,0.0,-0.865,0,0
2537652000,0.0,0.749,0.000,-0.000,0.662,0.0,0.0,-0.865,0,0
2537796000,0.0,0.749,0.000,-0.000,0.662,0.0,0.0,-0.865,0,0
2537900000,0.0,0.748,0.028,0.023,0.662,0.0,0.0,-0.867,0,0
2538052000,0.0,0.743,0.088,0.074,0.658,0.0,0.0,-0.882,0,0
2538156000,0.0,0.738,0.125,0.106,0.653,0.0,0.0,-0.892,0,0
2538300000,0.0,0.730,0.164,0.140,0.647,0.0,0.0,-0.889,0,0
2538452000,0.0,0.730,0.164,0.140,0.647,0.0,0.0,-0.861,0,0
2538596000,0.0,0.730,0.164,0.140,0.647,0.0,0.0,-0.857,0,0
2538700000,0.0,0.730,0.164,0.141,0.647,0.0,0.0,-0.861,0,0
2538852000,0.0,0.730,0.164,0.140,0.647,0.0,0.0,-0.872,0,0
2538996000,0.0,0.730,0.164,0.140,0.647,0.0,0.0,-0.885,0,0
2539100000,0.0,0.730,0.164,0.140,0.647,0.0,0.0,-0.894,0,0
2539252000,0.0,0.730,0.164,0.140,0.647,0.0,0.0,-0.905,0,0
2539396000,0.0,0.730,0.164,0.140,0.647,0.0,0.0,-0.912,0,0
2539500000,0.0,0.730,0.164,0.141,0.647,0.0,0.0,-0.915,0,0
2539652000,0.0,0.730,0.164,0.141,0.647,0.0,0.0,-0.917,0,0
2539796000,0.0,0.730,0.163,0.141,0.647,0.0,0.0,-0.868,0,0
2539900000,0.0,0.730,0.163,0.141,0.647,0.0,0.0,-0.811,0,0
2540052000,0.0,0.734,0.147,0.127,0.650,0.0,0.0,-0.738,0,0
2540196000,0.0,0.736,0.134,0.116,0.652,0.0,0.0,-0.758,0,0
2540300000,0.0,0.738,0.123,0.106,0.653,0.0,0.0,-0.790,0,0
2540452000,0.0,0.742,0.096,0.083,0.657,0.0,0.0,-0.866,0,0
2540596000,0.0,0.746,0.065,0.056,0.660,0.0,0.0,-0.921,0,0
2540700000,0.0,0.747,0.043,0.037,0.661,0.0,0.0,-0.914,0,0
2540852000,0.0,0.748,0.016,0.013,0.662,0.0,0.0,-0.894,0,0
2540996000,0.0,0.749,-0.006,-0.007,0.662,0.0,0.0,-0.883,0,0
2541100000,0.0,0.748,-0.012,-0.012,0.662,0.0,0.0,-0.877,0,0
2541252000,0.0,0.748,-0.016,-0.015,0.662,0.0,0.0,-0.868,0,0
2541396000,0.0,0.748,-0.016,-0.015,0.662,0.0,0.0,-0.863,0,0
2541500000,0.0,0.748,-0.014,-0.014,0.662,0.0,0.0,-0.860,0,0
2541652000,0.0,0.748,-0.008,-0.009,0.662,0.0,0.0,-0.859,0,0
2541796000,0.0,0.749,-0.002,-0.003,0.662,0.0,0.0,-0.859,0,0
2541900000,0.0,0.749,0.002,0.000,0.662,0.0,0.0,-0.859,0,0
2542052000,0.0,0.748,0.009,0.007,0.662,0.0,0.0,-0.861,0,0
2542196000,0.0,0.748,0.015,0.012,0.662,0.0,0.0,-0.862,0,0
2542300000,0.0,0.748,0.019,0.016,0.662,0.0,0.0,-0.863,0,0
2542452000,0.0,0.748,0.024,0.019,0.662,0.0,0.0,-0.864,0,0
2542596000,0.0,0.748,0.026,0.021,0.662,0.0,0.0,-0.864,0,0
2542700000,0.0,0.748,0.027,0.022,0.662,0.0,0.0,-0.864,0,0
2542852000,0.0,0.748,0.027,0.022,0.662,0.0,0.0,-0.863,0,0
2542996000,0.0,0.748,0.026,0.020,0.662,0.0,0.0,-0.863,0,0
2543100000,0.0,0.748,0.024,0.019,0.662,0.0,0.0,-0.864,0,0
2543252000,0.0,0.748,0.021,0.016,0.662,0.0,0.0,-0.864,0,0
2543396000,0.0,0.748,0.017,0.013,0.662,0.0,0.0,-0.865,0,0
2543500000,0.0,0.748,0.014,0.010,0.662,0.0,0.0,-0.865,0,0
2543652000,0.0,0.748,0.010,0.007,0.662,0.0,0.0,-0.865,0,0
2543796000,0.0,0.749,0.007,0.004,0.662,0.0,0.0,-0.866,0,0
2543900000,0.0,0.749,0.005,0.002,0.662,0.0,0.0,-0.866,0,0
2544052000,0.0,0.749,0.002,0.000,0.662,0.0,0.0,-0.866,0,0
2544196000,0.0,0.749,0.001,-0.000,0.662,0.0,0.0,-0.865,0,0
2544300000,0.0,0.749,0.000,-0.001,0.662,0.0,0.0,-0.865,0,0
2544452000,0.0,0.749,-0.000,-0.001,0.662,0.0,0.0,-0.865,0,0
2544596000,0.0,0.749,-0.000,-0.001,0.662,0.0,0.0,-0.865,0,0
2544700000,0.0,0.749,-0.000,-0.001,0.662,0.0,0.0,-0.865,0,0
2544852000,0.0,0.749,-1.169e-05,-0.000,0.662,0.0,0.0,-0.865,0,0
2544996000,0.0,0.749,0.000,-0.000,0.662,0.0,0.0,-0.865,0,0
2545100000,0.0,0.749,0.001,0.000,0.662,0.0,0.0,-0.865,0,0
2545252000,0.0,0.749,0.002,0.001,0.662,0.0,0.0,-0.865,0,0
2545396000,0.0,0.749,0.002,0.001,0.662,0.0,0.0,-0.864,0,0
2545500000,0.0,0.749,0.003,0.001,0.662,0.0,0.0,-0.864,0,0
2545652000,0.0,0.749,0.004,0.001,0.662,0.0,0.0,-0.864,0,0
2545796000,0.0,0.749,0.004,0.001,0.662,0.0,0.0,-0.864,0,0
2545900000,0.0,0.749,0.004,0.001,0.662,0.0,0.0,-0.864,0,0
2546052000,0.0,0.749,0.004,0.001,0.662,0.0,0.0,-0.864,0,0
2546196000,0.0,0.749,0.003,0.001,0.662,0.0,0.0,-0.864,0,0
2546300000,0.0,0.749,0.003,0.000,0.662,0.0,0.0,-0.864,0,0
2546452000,0.0,0.749,0.002,0.000,0.662,0.0,0.0,-0.864,0,0
2546596000,0.0,0.749,0.002,-0.000,0.662,0.0,0.0,-0.864,0,0
2546700000,0.0,0.749,0.002,-0.000,0.662,0.0,0.0,-0.865,0,0
2546852000,0.0,0.749,0.001,-0.000,0.662,0.0,0.0,-0.865,0,0
2546996000,0.0,0.749,0.001,-0.000,0.662,0.0,0.0,-0.865,0,0
2547100000,0.0,0.749,0.001,-0.000,0.662,0.0,0.0,-0.865,0,0
2547244000,0.0,0.749,0.001,-0.000,0.662,0.0,0.0,-0.865,0,0
2547348000,0.0,0.749,0.001,-0.000,0.662,0.0,0.0,-0.866,0,0
2547452000,0.0,0.749,0.001,9.856e-05,0.662,0.0,0.0,-0.866,0,0
2547596000,0.0,0.749,0.001,0.000,0.662,0.0,0.0,-0.866,0,0
2547700000,0.0,0.749,0.002,0.000,0.662,0.0,0.0,-0.866,0,0
2547852000,0.0,0.749,0.002,0.000,0.662,0.0,0.0,-0.866,0,0
2547996000,0.0,0.749,0.002,0.001,0.662,0.0,0.0,-0.866,0,0
2548100000,0.0,0.749,0.002,0.001,0.662,0.0,0.0,-0.866,0,0
2548252000,0.0,0.749,0.003,0.002,0.662,0.0,0.0,-0.865,0,0
2548396000,0.0,0.749,0.003,0.002,0.662,0.0,0.0,-0.865,0,0
2548500000,0.0,0.749,0.003,0.002,0.662,0.0,0.0,-0.865,0,0
2548652000,0.0,0.749,0.003,0.002,0.662,0.0,0.0,-0.864,0,0
2548796000,0.0,0.749,0.003,0.003,0.662,0.0,0.0,-0.864,0,0
2548900000,0.0,0.749,0.003,0.003,0.662,0.0,0.0,-0.864,0,0
2549052000,0.0,0.749,0.003,0.003,0.662,0.0,0.0,-0.864,0,0
2549196000,0.0,0.749,0.002,0.003,0.662,0.0,0.0,-0.864,0,0
2549300000,0.0,0.749,0.002,0.003,0.662,0.0,0.0,-0.864,0,0
2549452000,0.0,0.749,0.002,0.003,0.662,0.0,0.0,-0.864,0,0
2549596000,0.0,0.749,0.002,0.003,0.662,0.0,0.0,-0.864,0,0
2549700000,0.0,0.749,0.002,0.003,0.662,0.0,0.0,-0.864,0,0
2549852000,0.0,0.749,0.002,0.003,0.662,0.0,0.0,-0.864,0,0
2549996000,0.0,0.749,0.002,0.003,0.662,0.0,0.0,-0.864,0,0
2550100000,0.0,0.749,0.002,0.003,0.662,0.0,0.0,-0.864,0,0
2550252000,0.0,0.749,0.002,0.003,0.662,0.0,0.0,-0.864,0,0
2550396000,0.0,0.749,0.002,0.003,0.662,0.0,0.0,-0.864,0,0
2550500000,0.0,0.749,0.002,0.003,0.662,0.0,0.0,-0.864,0,0
2550652000,0.0,0.749,0.003,0.003,0.662,0.0,0.0,-0.864,0,0
2550796000,0.0,0.749,0.003,0.003,0.662,0.0,0.0,-0.864,0,0
2550900000,0.0,0.749,0.004,0.003,0.662,0.0,0.0,-0.864,0,0
2551052000,0.0,0.749,0.004,0.004,0.662,0.0,0.0,-0.864,0,0
2551196000,0.0,0.749,0.004,0.004,0.662,0.0,0.0,-0.864,0,0
2551300000,0.0,0.749,0.005,0.004,0.662,0.0,0.0,-0.864,0,0
2551452000,0.0,0.749,0.005,0.004,0.662,0.0,0.0,-0.873,0,0
2551596000,0.0,0.749,0.004,0.004,0.662,0.0,0.0,-0.879,0,0
2551700000,0.0,0.749,0.005,0.004,0.662,0.0,0.0,-0.871,0,0
2551852000,0.0,0.749,0.004,0.004,0.662,0.0,0.0,-0.870,0,0
2551996000,0.0,0.749,0.004,0.004,0.662,0.0,0.0,-0.875,0,0
2552100000,0.0,0.749,0.004,0.005,0.662,0.0,0.0,-0.869,0,0
2552252000,0.0,0.749,0.004,0.005,0.662,0.0,0.0,-0.869,0,0
2552396000,0.0,0.749,0.004,0.005,0.662,0.0,0.0,-0.875,0,0
2552500000,0.0,0.749,0.004,0.005,0.662,0.0,0.0,-0.869,0,0
2552652000,0.0,0.749,0.004,0.005,0.662,0.0,0.0,-0.869,0,0
2552796000,0.0,0.749,0.004,0.005,0.662,0.0,0.0,-0.874,0,0
2552900000,0.0,0.749,0.004,0.005,0.662,0.0,0.0,-0.868,0,0
2553052000,0.0,0.749,0.004,0.005,0.662,0.0,0.0,-0.868,0,0
2553196000,0.0,0.749,0.004,0.005,0.662,0.0,0.0,-0.874,0,0
2553300000,0.0,0.749,0.004,0.005,0.662,0.0,0.0,-0.868,0,0
2553452000,0.0,0.749,0.004,0.005,0.662,0.0,0.0,-0.868,0,0
2553596000,0.0,0.749,0.005,0.005,0.662,0.0,0.0,-0.873,0,0
2553700000,0.0,0.749,0.005,0.005,0.662,0.0,0.0,-0.867,0,0
2553852000,0.0,0.749,0.005,0.006,0.662,0.0,0.0,-0.867,0,0
2553996000,0.0,0.749,0.005,0.006,0.662,0.0,0.0,-0.873,0,0
2554100000,0.0,0.749,0.005,0.006,0.662,0.0,0.0,-0.866,0,0
2554252000,0.0,0.749,0.005,0.006,0.662,0.0,0.0,-0.866,0,0
2554396000,0.0,0.749,0.005,0.006,0.662,0.0,0.0,-0.872,0,0
2554500000,0.0,0.749,0.005,0.006,0.662,0.0,0.0,-0.866,0,0
2554652000,0.0,0.749,0.005,0.006,0.662,0.0,0.0,-0.867,0,0
2554796000,0.0,0.749,0.005,0.006,0.662,0.0,0.0,-0.874,0,0
2554900000,0.0,0.749,0.005,0.007,0.662,0.0,0.0,-0.867,0,0
2555052000,0.0,0.749,0.005,0.007,0.662,0.0,0.0,-0.868,0,0
2555196000,0.0,0.749,0.005,0.007,0.662,0.0,0.0,-0.875,0,0
2555300000,0.0,0.749,0.005,0.007,0.662,0.0,0.0,-0.868,0,0
2555452000,0.0,0.749,0.005,0.007,0.662,0.0,0.0,-0.867,0,0
2555596000,0.0,0.749,0.005,0.007,0.662,0.0,0.0,-0.873,0,0
2555700000,0.0,0.749,0.005,0.007,0.662,0.0,0.0,-0.866,0,0
2555852000,0.0,0.749,0.005,0.007,0.662,0.0,0.0,-0.866,0,0
2555996000,0.0,0.749,0.005,0.007,0.662,0.0,0.0,-0.873,0,0
2556100000,0.0,0.749,0.005,0.007,0.662,0.0,0.0,-0.865,0,0
2556252000,0.0,0.749,0.005,0.006,0.662,0.0,0.0,-0.863,0,0
2556396000,0.0,0.749,0.005,0.006,0.662,0.0,0.0,-0.865,0,0
2556500000,0.0,0.749,0.005,0.006,0.662,0.0,0.0,-0.865,0,0
2556652000,0.0,0.749,0.005,0.005,0.662,0.0,0.0,-0.865,0,0
2556796000,0.0,0.749,0.005,0.005,0.662,0.0,0.0,-0.865,0,0
2556900000,0.0,0.749,0.005,0.005,0.662,0.0,0.0,-0.865,0,0
2557052000,0.0,0.749,0.005,0.005,0.662,0.0,0.0,-0.865,0,0
2557196000,0.0,0.749,0.005,0.005,0.662,0.0,0.0,-0.865,0,0
2557300000,0.0,0.749,0.005,0.005,0.662,0.0,0.0,-0.864,0,0
2557452000,0.0,0.749,0.005,0.004,0.662,0.0,0.0,-0.864,0,0
2557596000,0.0,0.749,0.005,0.004,0.662,0.0,0.0,-0.864,0,0
2557700000,0.0,0.749,0.005,0.004,0.662,0.0,0.0,-0.864,0,0
2557852000,0.0,0.749,0.006,0.004,0.662,0.0,0.0,-0.864,0,0
2557996000,0.0,0.749,0.006,0.004,0.662,0.0,0.0,-0.864,0,0
2558100000,0.0,0.749,0.006,0.004,0.662,0.0,0.0,-0.864,0,0
2558252000,0.0,0.749,0.006,0.004,0.662,0.0,0.0,-0.864,0,0
2558396000,0.0,0.749,0.006,0.004,0.662,0.0,0.0,-0.864,0,0
2558500000,0.0,0.749,0.006,0.004,0.662,0.0,0.0,-0.864,0,0
2558652000,0.0,0.749,0.006,0.004,0.662,0.0,0.0,-0.864,0,0
2558796000,0.0,0.749,0.006,0.005,0.662,0.0,0.0,-0.864,0,0
2558900000,0.0,0.749,0.005,0.005,0.662,0.0,0.0,-0.864,0,0
2559052000,0.0,0.749,0.005,0.005,0.662,0.0,0.0,-0.865,0,0
2559196000,0.0,0.749,0.005,0.005,0.662,0.0,0.0,-0.865,0,0
2559300000,0.0,0.749,0.005,0.005,0.662,0.0,0.0,-0.865,0,0
2559452000,0.0,0.749,0.004,0.004,0.662,0.0,0.0,-0.865,0,0
2559596000,0.0,0.749,0.004,0.004,0.662,0.0,0.0,-0.865,0,0
2559700000,0.0,0.749,0.004,0.004,0.662,0.0,0.0,-0.865,0,0
2559852000,0.0,0.749,0.003,0.004,0.662,0.0,0.0,-0.865,0,0
2559996000,0.0,0.749,0.003,0.004,0.662,0.0,0.0,-0.865,0,0
2560100000,0.0,0.749,0.003,0.004,0.662,0.0,0.0,-0.865,0,0
2560252000,0.0,0.749,0.003,0.004,0.662,0.0,0.0,-0.865,0,0
2560396000,0.0,0.749,0.004,0.005,0.662,0.0,0.0,-0.865,0,0
2560500000,0.0,0.749,0.004,0.005,0.662,0.0,0.0,-0.865,0,0
2560652000,0.0,0.749,0.004,0.005,0.662,0.0,0.0,-0.865,0,0
2560796000,0.0,0.749,0.005,0.005,0.662,0.0,0.0,-0.864,0,0
2560900000,0.0,0.749,0.005,0.005,0.662,0.0,0.0,-0.864,0,0
2561052000,0.0,0.749,0.005,0.005,0.662,0.0,0.0,-0.864,0,0
2561196000,0.0,0.749,0.006,0.005,0.662,0.0,0.0,-0.864,0,0
2561300000,0.0,0.749,0.006,0.005,0.662,0.0,0.0,-0.864,0,0
2561452000,0.0,0.749,0.006,0.005,0.662,0.0,0.0,-0.864,0,0
2561596000,0.0,0.749,0.006,0.005,0.662,0.0,0.0,-0.864,0,0
2561700000,0.0,0.749,0.006,0.005,0.662,0.0,0.0,-0.864,0,0
2561852000,0.0,0.749,0.006,0.005,0.662,0.0,0.0,-0.863,0,0
2561996000,0.0,0.749,0.006,0.005,0.662,0.0,0.0,-0.863,0,0
2562100000,0.0,0.749,0.006,0.005,0.662,0.0,0.0,-0.863,0,0
2562252000,0.0,0.749,0.006,0.006,0.662,0.0,0.0,-0.863,0,0
2562396000,0.0,0.749,0.006,0.005,0.662,0.0,0.0,-0.863,0,0
2562500000,0.0,0.749,0.006,0.005,0.662,0.0,0.0,-0.863,0,0
2562652000,0.0,0.749,0.006,0.005,0.662,0.0,0.0,-0.863,0,0
2562796000,0.0,0.749,0.001,-0.001,0.662,0.0,0.0,-0.650,0,0
2562900000,0.0,0.749,0.004,0.002,0.662,0.0,0.0,-0.637,0,0
2563052000,0.0,0.749,0.004,0.002,0.662,0.0,0.0,-0.615,0,0
2563196000,0.0,0.749,0.004,0.002,0.662,0.0,0.0,-0.598,0,0
2563300000,0.0,0.749,0.005,0.002,0.662,0.0,0.0,-0.586,0,0
2563452000,0.0,0.749,0.004,0.002,0.662,0.0,0.0,-0.569,0,0
2563596000,0.0,0.749,0.004,0.002,0.662,0.0,0.0,-0.554,0,0
2563700000,0.0,0.749,0.004,0.002,0.662,0.0,0.0,-0.544,0,0
2563852000,0.0,0.749,0.004,0.002,0.662,0.0,0.0,-0.528,0,0
2563996000,0.0,0.749,0.004,0.002,0.662,0.0,0.0,-0.513,0,0
2564100000,0.0,0.749,0.004,0.002,0.662,0.0,0.0,-0.503,0,0
2564252000,0.0,0.749,0.003,0.002,0.662,0.0,0.0,-0.487,0,0
2564396000,0.0,0.749,0.003,0.002,0.662,0.0,0.0,-0.473,0,0
2564500000,0.0,0.749,0.003,0.002,0.662,0.0,0.0,-0.462,0,0
2564652000,0.0,0.749,0.002,0.001,0.662,0.0,0.0,-0.446,0,0
2564796000,0.0,0.749,0.002,0.001,0.662,0.0,0.0,-0.431,0,0
2564900000,0.0,0.749,0.0,0.0,0.661,0.0,0.0,-0.12,0,0
2565052000,0.0,0.749,0.0,0.0,0.661,0.0,0.0,-0.12,0,0
2565196000,0.0,0.749,0.0,0.0,0.661,0.0,0.0,-0.12,0,0
2565300000,0.0,0.749,0.0,0.0,0.661,0.0,0.0,-0.12,0,0
2565452000,0.0,0.749,0.0,0.0,0.661,0.0,0.0,-0.12,0,0
2565596000,0.0,0.749,0.0,0.0,0.661,0.0,0.0,-0.001,0,0
2565700000,0.0,0.749,0.0,0.0,0.661,0.0,0.0,-0.001,0,0
2565852000,0.0,0.749,0.0,0.0,0.661,0.0,0.0,-0.001,0,0
2565996000,0.0,0.749,0.0,0.0,0.661,0.0,0.0,-0.001,0,0
2566100000,0.0,0.749,0.0,0.0,0.661,0.0,0.0,-0.001,0,0
2566252000,0.0,0.749,0.0,0.0,0.661,0.0,0.0,-0.001,0,0
2566396000,0.0,0.749,0.0,0.0,0.661,0.0,0.0,-0.001,0,0
2566500000,0.0,0.749,0.0,0.0,0.661,0.0,0.0,-0.001,0,0
2566652000,0.0,0.749,0.0,0.0,0.661,0.0,0.0,-0.001,0,0
2566796000,0.0,0.749,0.0,0.0,0.661,0.0,0.0,-0.001,0,0
2566900000,0.0,0.749,0.0,0.0,0.661,0.0,0.0,-0.001,0,0
2567052000,0.0,0.749,0.0,0.0,0.661,0.0,0.0,-0.001,0,0
2567196000,0.0,0.749,0.0,0.0,0.661,0.0,0.0,-0.001,0,0
2567300000,0.0,0.749,0.0,0.0,0.661,0.0,0.0,-0.001,0,0
2567452000,0.0,0.749,0.0,0.0,0.661,0.0,0.0,-0.001,0,0
2567596000,0.0,0.749,0.0,0.0,0.661,0.0,0.0,-0.001,0,0
2567700000,0.0,0.750,0.0,0.0,0.661,0.0,0.0,-0.001,0,0
2567852000,0.0,0.746,0.0,0.0,0.665,0.0,0.0,-0.001,0,0
2567996000,0.0,0.746,0.0,0.0,0.665,0.0,0.0,-0.001,0,0
2568100000,0.0,0.746,0.0,0.0,0.665,0.0,0.0,-0.001,0,0
2568252000,0.0,0.746,0.0,0.0,0.664,0.0,0.0,-0.001,0,0
2568396000,0.0,0.746,0.0,0.0,0.664,0.0,0.0,-0.001,0,0
