timestamp,timestamp_sample,xyz[0],xyz[1],xyz[2],xyz_derivative[0],xyz_derivative[1],xyz_derivative[2]
2468704000,2468704000,-0.000,-0.000,-1.267e-06,-0.017,-0.013,-0.035
2468804000,2468804000,-0.000,-0.000,0.000,0.001,-0.010,-0.013
2468904000,2468904000,-0.000,0.000,0.000,-0.006,0.002,0.032
2469004000,2469004000,1.323e-05,-0.000,5.334e-05,0.010,-0.025,-0.012
2469104000,2469104000,-0.000,-0.000,0.000,-0.014,-0.012,-0.000
2469204000,2469204000,-0.000,-0.000,0.000,-0.041,-0.008,0.007
2469304000,2469304000,-0.000,-5.478e-05,-0.000,-0.012,-0.005,-0.029
2469404000,2469404000,-6.571e-05,-0.000,0.000,0.019,-0.007,0.030
2469504000,2469504000,-0.000,-6.634e-06,-3.465e-06,-0.000,-0.025,0.000
2469604000,2469604000,-0.000,6.597e-05,9.621e-05,0.002,0.015,-0.008
2469704000,2469704000,-0.000,0.000,3.339e-05,-0.023,0.001,0.010
2469804000,2469804000,-0.000,0.000,-6.437e-05,-0.005,-0.020,-0.015
2469908000,2469908000,-0.000,0.000,-0.000,-0.003,0.009,-0.010
2470008000,2470008000,1.000e-05,-0.000,0.000,0.005,-0.006,0.019
2470108000,2470108000,-0.000,8.562e-05,0.000,0.001,0.004,0.052
2470208000,2470208000,-0.000,6.034e-06,-0.000,-0.036,0.006,-0.011
2470308000,2470308000,-0.000,-0.000,-0.000,0.009,-0.015,-0.008
2470408000,2470408000,-0.000,5.379e-06,-0.000,0.013,-0.008,-0.031
2470508000,2470508000,-0.000,-0.000,-0.000,0.001,-0.013,-0.011
2470608000,2470608000,8.746e-05,-9.097e-05,-0.000,0.016,0.002,0.003
2470708000,2470708000,-0.000,-0.000,-0.000,0.021,-0.011,0.014
2470808000,2470808000,0.000,5.466e-05,0.000,0.026,-0.015,0.054
2470908000,2470908000,-0.000,0.000,0.000,0.011,-0.004,0.017
2471008000,2471008000,-7.949e-05,8.925e-05,0.000,-0.013,0.016,0.008
2471108000,2471108000,-0.000,-7.537e-05,0.000,0.007,-0.001,0.017
2471208000,2471208000,-1.924e-05,-0.000,-0.000,-0.003,-0.012,-0.021
2471308000,2471308000,-0.000,-0.000,-0.000,0.005,-0.016,0.018
2471408000,2471408000,4.651e-05,-5.286e-05,3.607e-05,0.007,0.006,0.011
2471508000,2471508000,-0.000,0.000,-0.000,0.015,-0.007,-0.026
2471608000,2471608000,-7.556e-05,-0.000,-0.000,0.000,-0.012,-0.015
2471708000,2471708000,-0.000,-0.000,4.509e-05,-0.000,-0.006,-0.002
2471808000,2471808000,-0.000,6.825e-05,-0.000,-0.021,-0.009,0.006
2471908000,2471908000,4.624e-05,0.000,7.769e-05,0.014,0.019,0.001
2472008000,2472008000,-0.000,-8.223e-05,0.000,0.010,0.014,0.018
2472108000,2472108000,-0.000,0.000,5.336e-05,-0.010,0.008,-0.003
2472208000,2472208000,-0.000,-3.268e-06,0.000,-0.023,-0.026,0.011
2472308000,2472308000,-6.337e-05,0.000,-0.000,0.007,0.006,-0.012
2472408000,2472408000,-0.000,-8.608e-06,0.000,-0.009,-0.002,0.020
2472508000,2472508000,4.541e-05,-9.402e-05,1.783e-06,0.008,-0.027,-0.006
2472608000,2472608000,-0.000,-0.000,-8.554e-05,0.030,-0.010,-0.011
2472708000,2472708000,-0.000,4.185e-05,-0.000,0.022,0.004,-0.014
2472808000,2472808000,-0.000,0.000,-8.092e-05,-0.025,0.003,0.001
2472908000,2472908000,-0.000,0.000,0.000,0.006,0.023,0.026
2473008000,2473008000,-0.000,0.000,-0.000,0.028,0.008,-0.027
2473108000,2473108000,-0.000,-0.000,-4.072e-05,-0.045,-0.001,-0.016
2473208000,2473208000,-0.000,2.100e-05,0.000,-0.002,0.007,0.012
2473308000,2473308000,-0.000,0.000,0.000,0.037,0.005,0.004
2473408000,2473408000,-0.000,0.000,0.000,-0.018,0.006,-0.004
2473508000,2473508000,-0.000,-7.545e-06,-9.893e-06,-0.007,-0.023,0.016
2473608000,2473608000,-0.000,8.407e-05,0.000,-0.037,0.013,0.006
2473708000,2473708000,-0.000,0.000,8.102e-05,0.036,-0.016,0.016
2473808000,2473808000,-8.860e-05,0.000,0.000,0.033,-0.018,-0.007
2473908000,2473908000,-0.000,0.000,-2.567e-05,-0.010,0.026,-0.011
2474008000,2474008000,-0.000,1.021e-05,0.000,-0.028,-0.012,0.031
2474108000,2474108000,-1.331e-05,-7.687e-05,0.000,0.022,0.004,0.013
2474208000,2474208000,-0.000,-1.079e-05,-5.005e-05,-0.003,0.013,-0.026
2474308000,2474308000,-0.000,0.000,-0.000,-0.029,0.017,-0.012
2474408000,2474408000,-0.000,0.000,0.000,-0.020,0.017,-0.011
2474508000,2474508000,-0.002,-0.021,0.001,-0.087,-0.378,0.028
2474608000,2474608000,-0.008,-0.006,0.003,-0.057,0.243,0.046
2474708000,2474708000,-0.011,0.002,0.003,0.012,0.005,-0.014
2474808000,2474808000,-0.013,0.004,0.002,-0.040,0.033,-0.043
2474908000,2474908000,-0.014,0.004,0.002,-0.005,-0.008,-0.017
2475008000,2475008000,-0.013,0.004,0.001,0.036,-0.043,-0.042
2475108000,2475108000,-0.011,0.004,0.001,0.014,-0.009,0.014
2475208000,2475208000,-0.007,0.002,0.001,0.043,-0.009,-0.022
2475308000,2475308000,-0.003,0.001,0.000,0.034,-0.032,-0.001
2475408000,2475408000,-0.000,0.001,0.000,0.051,0.021,0.002
2475508000,2475508000,0.003,0.001,-0.000,0.023,-0.030,-0.012
2475608000,2475608000,0.006,0.002,-6.504e-05,0.021,0.036,0.021
2475708000,2475708000,0.009,0.001,5.641e-05,0.017,0.027,0.004
2475808000,2475808000,0.013,0.003,-0.000,0.009,-0.029,0.000
2475908000,2475908000,0.014,0.004,-0.000,0.010,-0.013,-0.012
2476008000,2476008000,0.015,0.002,-0.001,-0.015,-0.002,-0.003
2476108000,2476108000,0.016,0.002,-0.001,0.004,0.028,0.032
2476208000,2476208000,0.016,0.000,-0.001,0.008,-0.011,0.040
2476308000,2476308000,0.016,0.001,-0.001,0.019,-0.007,0.017
2476408000,2476408000,0.014,0.000,-0.001,-0.027,0.008,0.045
2476508000,2476508000,0.011,0.000,-0.001,-0.027,0.004,-0.003
2476608000,2476608000,0.009,0.000,-0.000,-0.039,0.030,0.012
2476708000,2476708000,0.006,-0.001,9.132e-06,-0.007,-0.007,0.005
2476808000,2476808000,0.004,-0.000,0.000,0.004,0.027,0.016
2476908000,2476908000,0.001,-0.000,0.000,-0.028,-0.039,-0.012
2477008000,2477008000,-0.000,-0.001,0.000,-0.005,0.008,-0.012
2477108000,2477108000,-0.001,-0.002,0.000,-0.024,-0.017,0.001
2477208000,2477208000,-0.003,-0.004,0.000,-0.005,-0.011,-0.022
2477308000,2477308000,-0.004,-0.004,-3.595e-05,-0.014,-0.001,-0.037
2477408000,2477408000,-0.004,-0.004,0.000,-0.008,0.012,-0.003
2477508000,2477508000,-0.005,-0.002,-0.000,-0.019,-0.004,0.016
2477608000,2477608000,-0.005,-0.002,-0.001,-0.022,0.028,0.002
2477708000,2477708000,-0.005,-0.001,-0.001,0.022,-0.034,-0.001
2477808000,2477808000,-0.005,-0.002,-0.002,0.011,-0.005,-0.027
2477908000,2477908000,-0.006,-0.001,-0.002,-0.006,-0.002,0.040
2478008000,2478008000,-0.005,-0.000,-0.004,0.019,0.027,-0.027
2478108000,2478108000,-0.006,3.518e-05,-0.004,-0.042,0.030,0.008
2478208000,2478208000,-0.005,0.000,-0.004,0.020,0.014,-0.009
2478308000,2478308000,-0.005,0.002,-0.003,-0.015,0.053,0.026
2478408000,2478408000,-0.006,0.001,-0.003,0.014,0.009,0.012
2478508000,2478508000,-0.006,0.001,-0.002,1.185e-05,-0.012,0.006
2478608000,2478608000,-0.007,0.000,-0.001,-0.043,-0.034,0.001
2478708000,2478708000,-0.006,0.000,-0.001,-0.005,-0.037,-0.007
2478808000,2478808000,-0.006,0.000,-0.001,0.013,0.032,0.004
2478908000,2478908000,-0.004,0.001,-0.001,0.016,-0.000,0.015
2479008000,2479008000,-0.003,0.000,-0.001,0.041,-0.013,0.044
2479108000,2479108000,-0.000,0.002,-0.000,0.007,0.040,0.028
2479208000,2479208000,0.001,0.002,-0.000,0.010,-0.013,-0.003
2479308000,2479308000,0.003,-0.000,-0.000,0.008,-0.036,-0.059
2479408000,2479408000,0.002,-0.000,0.000,-0.033,0.007,0.031
2479508000,2479508000,0.003,-0.000,0.000,-0.002,0.002,0.008
2479608000,2479608000,0.003,-0.002,-0.000,-0.015,-0.020,-0.002
2479708000,2479708000,0.003,-0.002,-0.000,-0.022,-0.019,0.022
2479808000,2479808000,0.004,-0.001,-0.000,0.001,0.018,0.003
2479908000,2479908000,0.003,-0.001,-0.000,0.008,-0.019,0.045
2480008000,2480008000,0.003,-0.002,-0.000,0.010,-0.016,0.014
2480108000,2480108000,0.002,-0.002,-0.000,-0.006,-0.013,0.025
2480208000,2480208000,0.000,-0.002,-0.000,-0.014,-0.027,-0.003
2480308000,2480308000,0.000,-0.002,0.000,-0.015,-0.010,0.018
2480408000,2480408000,-0.001,-0.000,0.000,-0.030,0.007,0.018
2480508000,2480508000,-0.001,-0.000,0.000,-0.018,-0.001,-0.026
2480608000,2480608000,-0.003,0.000,0.000,-0.014,0.009,-0.007
2480708000,2480708000,-0.003,0.001,0.000,0.001,0.016,-0.018
2480808000,2480808000,-0.004,9.626e-05,0.000,-0.029,-0.041,-0.025
2480908000,2480908000,-0.004,-0.000,0.000,0.014,-0.030,0.003
2481008000,2481008000,-0.004,0.000,0.000,-0.031,-0.004,0.019
2481108000,2481108000,-0.004,0.000,-6.543e-06,0.007,-0.043,0.006
2481208000,2481208000,-0.004,1.823e-05,0.000,-0.003,0.011,0.018
2481308000,2481308000,-0.004,0.001,0.000,-0.014,0.032,0.026
2481408000,2481408000,-0.004,0.001,-3.556e-06,0.000,0.009,-0.007
2481508000,2481508000,-0.004,0.001,0.000,0.000,0.008,0.002
2481608000,2481608000,-0.003,-0.000,0.000,-0.017,-0.006,0.016
2481708000,2481708000,-0.002,-0.000,0.000,0.016,0.010,0.017
2481808000,2481808000,-0.000,-0.001,-0.000,0.030,-0.054,-0.051
2481908000,2481908000,-0.000,-0.001,0.000,-0.027,-0.005,-0.000
2482008000,2482008000,0.000,0.000,0.000,0.008,0.000,-0.008
2482108000,2482108000,0.002,0.001,-0.000,-0.009,0.026,0.013
2482208000,2482208000,0.003,0.003,-0.000,0.022,0.015,-0.025
2482308000,2482308000,0.003,0.002,-0.000,0.030,0.000,-0.002
2482408000,2482408000,0.003,0.002,-0.001,0.022,0.023,-0.036
2482508000,2482508000,0.004,0.004,-0.001,-0.028,0.018,0.019
2482608000,2482608000,0.004,0.003,-0.002,0.016,0.029,-0.001
2482708000,2482708000,0.005,0.001,-0.002,0.016,-0.038,0.014
2482808000,2482808000,0.005,0.000,-0.002,-0.000,-0.024,-0.015
2482908000,2482908000,0.005,-0.001,-0.002,0.010,-0.041,-0.002
2483008000,2483008000,0.005,-0.000,-0.002,-0.018,0.020,-0.001
2483108000,2483108000,0.004,0.000,-0.001,0.008,-0.007,-0.003
2483208000,2483208000,0.003,0.001,-0.001,-0.027,0.051,0.028
2483308000,2483308000,0.003,0.000,-0.000,-0.017,0.016,0.002
2483408000,2483408000,0.002,0.001,-0.000,0.008,0.048,-0.038
2483508000,2483508000,0.001,0.003,0.000,0.017,0.005,0.018
2483608000,2483608000,0.000,0.003,0.000,-0.003,-0.014,-0.002
2483708000,2483708000,-0.001,0.004,0.000,-0.023,0.000,0.007
2483808000,2483808000,-0.001,0.002,0.000,-0.036,-0.004,-0.049
2483908000,2483908000,-0.002,0.002,0.000,-0.011,0.018,-0.022
2484008000,2484008000,-0.002,0.002,0.000,0.025,-0.019,0.043
2484108000,2484108000,-0.002,0.002,0.000,0.002,-0.024,0.014
2484208000,2484208000,-0.002,0.002,0.000,0.009,0.005,0.017
2484308000,2484308000,-0.003,0.002,0.001,-0.008,-0.018,0.013
2484408000,2484408000,-0.003,0.002,0.001,-0.011,-0.033,-0.017
2484508000,2484508000,-0.002,0.001,0.001,0.032,0.002,0.004
2484608000,2484608000,-0.002,0.001,0.002,0.042,0.033,-0.013
2484708000,2484708000,-0.002,-0.000,0.002,-0.010,-0.010,-0.010
2484808000,2484808000,-0.002,-0.000,0.003,0.013,-0.009,0.006
2484908000,2484908000,-0.002,-0.000,0.003,-0.046,0.015,0.037
2485008000,2485008000,-0.002,-0.001,0.002,0.002,-0.019,-0.013
2485108000,2485108000,-0.001,-0.001,0.001,0.009,-0.031,0.010
2485208000,2485208000,-0.000,-0.002,0.001,-0.000,0.003,0.025
2485308000,2485308000,2.764e-05,-0.001,0.001,-0.006,0.085,0.017
2485408000,2485408000,7.761e-05,-0.000,0.001,-0.026,0.011,0.009
2485508000,2485508000,0.000,-0.000,0.001,0.035,0.019,-0.005
2485608000,2485608000,0.000,-0.001,0.002,0.013,-0.007,0.029
2485708000,2485708000,-3.203e-05,-0.000,0.002,-0.001,-0.032,-0.003
2485808000,2485808000,4.449e-05,-0.000,0.002,0.006,0.004,0.024
2485908000,2485908000,-8.991e-05,-0.000,0.002,-0.004,-0.009,0.004
2486008000,2486008000,0.000,-0.000,0.003,0.003,-0.008,0.024
2486108000,2486108000,0.000,-0.001,0.002,0.012,-0.000,-0.040
2486208000,2486208000,0.000,-0.002,0.002,0.011,-0.004,5.586e-05
2486308000,2486308000,0.000,-0.001,0.001,-0.004,0.004,-0.007
2486408000,2486408000,0.000,-0.002,0.001,0.018,-0.059,-0.009
2486508000,2486508000,0.000,-0.003,0.001,0.011,0.008,0.012
2486608000,2486608000,4.777e-06,-0.003,0.001,-0.003,-0.021,-0.013
2486708000,2486708000,-0.000,-0.001,0.000,0.004,0.070,-0.013
2486808000,2486808000,-0.000,-0.001,0.000,-0.013,-0.006,0.012
2486908000,2486908000,0.000,-0.000,9.869e-05,0.015,-0.003,0.001
2487008000,2487008000,0.000,-9.645e-05,-2.919e-05,-0.014,-0.018,0.023
2487108000,2487108000,0.000,-0.000,-0.000,-0.014,-0.035,0.011
2487208000,2487208000,0.000,-0.000,-0.000,-0.007,0.018,0.005
2487308000,2487308000,0.000,-9.378e-05,-0.000,0.016,0.017,0.000
2487408000,2487408000,0.001,0.000,-0.000,-0.004,0.038,-0.014
2487508000,2487508000,0.001,0.000,-0.000,0.008,-0.014,0.027
2487608000,2487608000,0.001,-0.000,-0.001,-0.012,-0.000,-0.002
2487708000,2487708000,0.002,-0.000,-0.001,0.028,0.051,-0.019
2487808000,2487808000,0.003,-0.000,-0.000,0.022,-0.018,0.038
2487908000,2487908000,0.003,-0.001,-0.000,0.023,-0.017,-0.001
2488008000,2488008000,0.004,-0.002,8.369e-05,0.017,0.001,0.045
2488108000,2488108000,0.005,-0.002,-0.000,0.030,-0.001,-0.027
2488208000,2488208000,0.005,-0.002,7.397e-05,-0.000,0.025,0.004
2488308000,2488308000,0.004,-0.000,0.000,0.009,0.040,0.001
2488408000,2488408000,0.004,0.000,0.000,-0.020,0.034,-0.000
2488508000,2488508000,0.003,0.001,-0.000,-0.031,-0.009,-0.023
2488608000,2488608000,0.001,0.003,-0.001,-0.016,0.020,-0.022
2488708000,2488708000,-0.000,0.004,-0.001,0.006,0.029,0.016
2488808000,2488808000,-0.002,0.004,-0.002,-0.014,-0.030,-0.002
2488908000,2488908000,-0.004,0.003,-0.003,-0.034,-0.028,0.011
2489008000,2489008000,-0.005,0.003,-0.003,-0.032,-0.001,0.041
2489108000,2489108000,-0.005,0.001,-0.004,0.029,0.043,-0.006
2489208000,2489208000,-0.005,0.002,-0.003,-0.024,0.059,0.052
2489308000,2489308000,-0.005,0.001,-0.004,-0.004,-0.018,-0.010
2489408000,2489408000,-0.006,0.001,-0.003,0.005,0.008,-0.011
2489508000,2489508000,-0.006,0.001,-0.002,0.001,0.048,0.028
2489608000,2489608000,-0.006,0.001,-0.001,0.035,0.030,0.020
2489708000,2489708000,-0.006,0.000,-0.001,0.029,-0.013,-0.004
2489808000,2489808000,-0.005,-0.000,-0.000,0.035,0.013,0.021
2489908000,2489908000,-0.005,-0.001,1.976e-05,0.006,0.020,0.027
2490008000,2490008000,-0.004,-0.002,-5.372e-05,-0.016,0.005,-0.014
2490108000,2490108000,-0.003,-0.002,0.000,-0.008,-0.000,0.029
2490208000,2490208000,-0.001,-0.001,-6.024e-05,-0.001,0.001,-0.023
2490308000,2490308000,0.000,0.001,-9.476e-05,0.029,0.043,-0.059
2490408000,2490408000,0.000,0.003,0.000,-0.005,-0.002,0.001
2490508000,2490508000,0.000,0.004,0.001,-0.024,-0.007,0.026
2490608000,2490608000,0.001,0.002,0.000,-0.016,-0.045,-0.020
2490708000,2490708000,0.002,0.003,0.000,-0.009,0.017,0.034
2490808000,2490808000,0.001,0.002,-0.000,0.011,-0.028,-0.030
2490908000,2490908000,0.001,0.001,-0.001,0.006,-0.013,-0.011
2491008000,2491008000,0.002,0.001,-0.001,0.007,-0.002,0.000
2491108000,2491108000,0.001,0.000,-0.000,-0.008,-0.037,0.014
2491208000,2491208000,0.000,0.000,-0.000,-0.007,-0.012,0.014
2491308000,2491308000,0.000,-0.001,7.216e-05,-0.010,-0.024,-0.015
2491408000,2491408000,0.000,-0.001,0.000,-0.013,-0.032,0.007
2491508000,2491508000,0.000,-0.001,0.000,-0.002,-0.015,-0.007
2491608000,2491608000,0.000,-0.004,0.000,0.005,-0.019,0.025
2491708000,2491708000,0.000,-0.003,0.000,0.026,0.008,0.015
2491808000,2491808000,0.000,-0.004,0.001,-0.005,-0.003,0.004
2491908000,2491908000,-0.000,-0.003,0.000,-0.024,-0.016,0.014
2492008000,2492008000,-0.000,-0.001,0.001,-0.036,0.037,0.009
2492108000,2492108000,-0.000,-0.002,0.001,0.029,-0.008,0.025
2492208000,2492208000,-0.000,-0.002,0.001,0.016,-0.039,0.001
2492308000,2492308000,-0.000,-0.001,0.001,0.020,0.004,0.003
2492408000,2492408000,-8.715e-05,-0.001,0.001,0.037,0.002,0.006
2492508000,2492508000,-0.000,-0.001,0.000,-0.011,0.011,-0.006
2492608000,2492608000,-0.001,-0.003,0.000,-0.034,0.005,0.017
2492708000,2492708000,-0.001,-0.001,0.000,-0.002,-0.000,-0.018
2492808000,2492808000,-0.001,-0.001,0.000,0.038,0.014,0.014
2492908000,2492908000,-0.001,-0.000,0.000,0.015,0.015,0.029
2493008000,2493008000,-0.001,-0.000,-0.000,0.002,-0.007,-0.032
2493108000,2493108000,-0.001,-0.001,0.000,-0.011,-0.033,-0.004
2493208000,2493208000,-0.001,-0.002,0.000,-0.013,-0.017,0.009
2493308000,2493308000,-0.001,-0.000,0.000,-0.002,0.034,-0.004
2493408000,2493408000,-0.001,0.001,0.000,0.011,0.025,-0.015
2493508000,2493508000,-0.000,0.002,-1.005e-05,0.022,-0.001,0.003
2493608000,2493608000,-0.001,0.001,-0.000,-0.034,-0.027,-0.001
2493708000,2493708000,0.000,0.001,-0.001,0.037,-0.023,-0.036
2493808000,2493808000,0.000,0.001,-0.001,0.001,0.033,0.027
2493908000,2493908000,0.001,0.001,-0.001,0.019,0.015,0.024
2494008000,2494008000,0.001,0.001,-0.001,0.028,0.038,0.002
2494108000,2494108000,0.001,0.001,-0.001,-0.000,-0.011,0.008
2494208000,2494208000,-0.001,-0.004,-0.000,-0.066,-0.206,-0.030
2494308000,2494308000,-0.006,-0.002,0.000,-0.031,0.046,-0.012
2494408000,2494408000,-0.009,-0.001,0.000,-0.033,0.019,-0.006
2494508000,2494508000,-0.011,-0.000,0.001,-0.028,0.024,-0.001
2494608000,2494608000,-0.010,-0.000,0.001,0.035,0.013,-0.009
2494708000,2494708000,-0.010,-0.000,0.001,0.030,-0.020,0.017
2494808000,2494808000,-0.009,0.000,-8.745e-05,0.008,-0.011,-0.053
2494908000,2494908000,-0.009,-0.000,-0.000,-0.016,-0.016,0.009
2495008000,2495008000,-0.008,-0.000,-0.000,0.038,-0.023,-0.015
2495108000,2495108000,-0.007,0.000,-0.001,0.035,0.030,-0.034
2495208000,2495208000,-0.006,0.000,-0.000,-0.023,-0.039,-0.007
2495308000,2495308000,-0.004,-0.000,-0.001,0.043,-0.018,0.009
2495408000,2495408000,-0.003,0.000,-0.001,0.030,-0.000,-0.006
2495508000,2495508000,-0.002,-7.285e-05,-0.001,-0.008,-0.015,-0.004
2495608000,2495608000,-0.001,9.241e-05,-0.000,-0.026,-0.011,0.013
2495708000,2495708000,-0.000,-0.000,2.215e-05,-0.014,0.025,0.033
2495808000,2495808000,-0.000,-0.000,-0.000,0.017,0.005,-0.016
2495908000,2495908000,0.000,-0.000,3.133e-05,-0.010,-0.006,-0.005
2496008000,2496008000,0.000,-0.000,0.000,0.019,0.015,-0.013
2496112000,2496112000,0.001,-0.000,0.001,0.004,-0.038,0.006
2496212000,2496212000,0.001,2.235e-05,0.001,0.001,0.004,0.040
2496312000,2496312000,0.000,-0.000,0.001,0.008,-0.016,0.006
2496412000,2496412000,0.001,0.000,0.000,0.002,-0.023,-0.018
2496512000,2496512000,0.001,-0.000,-0.000,-0.003,-0.018,-0.004
2496612000,2496612000,0.001,6.622e-05,-0.001,0.025,-0.009,-0.002
2496712000,2496712000,0.000,-0.000,-0.000,-0.002,-0.009,0.016
2496812000,2496812000,0.000,-0.000,0.002,0.010,-0.017,0.032
2496912000,2496912000,0.000,-0.000,0.003,-0.017,-0.038,0.033
2497012000,2497012000,-0.000,-0.000,0.004,-0.010,0.035,0.000
2497112000,2497112000,0.002,-0.000,0.004,0.109,0.011,-0.022
2497212000,2497212000,0.033,0.000,0.003,0.400,-0.008,-0.028
2497312000,2497312000,0.108,0.000,0.003,0.999,0.000,-0.002
2497412000,2497412000,0.266,-8.431e-05,0.003,2.058,0.038,-0.026
2497512000,2497512000,0.424,0.003,0.002,1.181,-0.034,-0.010
2497612000,2497612000,0.505,0.000,0.000,0.528,-0.050,-0.000
2497712000,2497712000,0.535,0.000,-0.001,0.117,0.013,-0.039
2497812000,2497812000,0.527,4.507e-05,-0.002,-0.200,0.015,-0.019
2497912000,2497912000,0.492,0.000,-0.002,-0.469,-0.027,0.018
2498012000,2498012000,0.439,0.002,-0.001,-0.575,0.019,0.029
2498112000,2498112000,0.373,0.008,0.003,-0.693,0.088,0.067
2498212000,2498212000,0.305,0.020,0.015,-0.665,0.162,0.154
2498312000,2498312000,0.236,0.016,0.029,-0.642,-0.277,0.022
2498412000,2498412000,0.171,0.009,0.032,-0.602,0.081,0.030
2498512000,2498512000,0.114,0.003,0.029,-0.560,-0.246,-0.067
2498612000,2498612000,0.066,-0.003,0.021,-0.419,-0.064,-0.093
2498712000,2498712000,0.027,-0.003,0.011,-0.352,-0.032,-0.081
2498812000,2498812000,-0.002,-0.002,0.002,-0.283,-0.012,-0.087
2498912000,2498912000,-0.023,0.001,-0.002,-0.220,0.088,-0.034
2499012000,2499012000,-0.037,0.002,-0.003,-0.118,-0.000,0.008
2499112000,2499112000,-0.044,0.003,-0.002,-0.033,0.032,0.037
2499212000,2499212000,-0.048,-0.002,9.375e-05,-0.031,-0.173,0.029
2499312000,2499312000,-0.179,-0.003,-0.001,-1.972,0.054,-0.037
2499412000,2499412000,-0.373,-0.003,-0.001,-1.726,0.026,-0.030
2499512000,2499512000,-0.503,-0.002,-0.000,-1.007,-0.004,-0.024
2499612000,2499612000,-0.568,-0.002,0.001,-0.389,0.007,0.027
2499712000,2499712000,-0.580,-0.001,0.002,0.059,0.022,0.000
2499812000,2499812000,-0.553,-0.002,0.002,0.404,-0.008,-0.040
2499912000,2499912000,-0.503,-0.001,-0.001,0.585,0.010,-0.048
2500012000,2500012000,-0.439,-0.002,-0.005,0.676,-0.002,-0.009
2500112000,2500112000,-0.369,-0.001,-0.008,0.710,-0.017,-0.065
2500212000,2500212000,-0.297,-0.000,-0.010,0.675,0.019,-0.004
2500312000,2500312000,-0.229,-0.000,-0.012,0.664,0.007,-0.036
2500412000,2500412000,-0.166,0.000,-0.012,0.589,-0.001,0.003
2500512000,2500512000,-0.111,0.000,-0.012,0.493,0.020,0.021
2500612000,2500612000,-0.065,0.000,-0.011,0.396,-0.022,-0.006
2500712000,2500712000,-0.032,0.000,-0.011,0.329,-0.003,0.012
2500812000,2500812000,-0.005,0.000,-0.010,0.229,-0.001,-0.004
2500912000,2500912000,-0.144,0.004,-0.012,-2.177,-0.003,-0.027
2501012000,2501012000,-0.329,0.002,-0.011,-1.425,-0.054,0.038
2501112000,2501112000,-0.432,0.002,-0.008,-0.751,-0.032,0.037
2501212000,2501212000,-0.480,0.001,-0.005,-0.300,0.012,0.041
2501312000,2501312000,-0.488,0.000,-0.003,0.030,-0.010,0.024
2501412000,2501412000,-0.467,0.000,-0.003,0.296,0.008,-0.008
2501512000,2501512000,-0.424,0.000,-0.001,0.514,-0.033,0.028
2501612000,2501612000,-0.368,0.000,-0.001,0.604,-0.032,0.020
2501712000,2501712000,-0.306,0.000,-0.001,0.661,0.016,0.021
2501812000,2501812000,-0.241,0.000,-0.000,0.657,0.011,-0.000
2501912000,2501912000,-0.180,0.000,-0.001,0.607,0.037,-0.014
2502012000,2502012000,-0.124,0.000,-0.001,0.530,0.034,0.011
2502112000,2502112000,-0.076,0.001,-0.001,0.451,0.014,-0.039
2502212000,2502212000,-0.037,0.002,-0.002,0.340,0.004,-0.046
2502312000,2502312000,-0.006,0.003,-0.003,0.218,0.045,-0.027
2502412000,2502412000,0.015,0.003,-0.003,0.203,0.017,0.005
2502512000,2502512000,0.030,0.003,-0.004,0.113,0.002,-0.020
2502612000,2502612000,0.040,-0.011,-0.005,0.135,-1.500,-0.041
2502712000,2502712000,0.206,0.012,-0.009,2.305,0.734,0.050
2502812000,2502812000,0.403,0.015,-0.005,1.639,-0.052,0.054
2502912000,2502912000,0.526,0.009,-0.005,0.913,-0.033,0.018
2503012000,2503012000,0.582,0.006,-0.006,0.304,-0.030,-0.026
2503112000,2503112000,0.586,0.007,-0.007,-0.118,0.113,0.007
2503212000,2503212000,0.553,0.009,-0.007,-0.436,-0.055,-0.004
2503312000,2503312000,0.498,0.005,-0.006,-0.624,-0.018,0.012
2503412000,2503412000,0.431,0.003,-0.006,-0.718,0.006,-0.005
2503512000,2503512000,0.360,0.001,-0.006,-0.679,-0.019,0.014
2503612000,2503612000,0.287,0.001,-0.005,-0.694,-0.014,0.033
2503712000,2503712000,0.219,0.000,-0.004,-0.644,0.009,0.007
2503812000,2503812000,0.157,0.000,-0.003,-0.602,0.004,0.042
2503912000,2503912000,0.103,5.594e-05,-0.002,-0.499,0.009,-0.012
2504012000,2504012000,0.057,5.853e-05,-0.002,-0.426,0.013,0.000
2504112000,2504112000,0.025,-0.000,-0.000,-0.119,0.024,0.047
2504212000,2504212000,0.072,-4.179e-05,0.001,1.283,-0.057,0.025
2504312000,2504312000,0.277,4.104e-05,0.004,1.776,0.091,0.018
2504412000,2504412000,0.406,0.001,0.002,0.962,-0.012,-0.031
2504512000,2504512000,0.471,0.000,0.000,0.454,-0.003,-0.014
2504612000,2504612000,0.493,-0.000,-0.000,0.075,0.010,-0.018
2504712000,2504712000,0.480,0.000,-0.002,-0.225,-0.000,-0.015
2504812000,2504812000,0.445,0.000,-0.002,-0.406,0.001,-0.013
2504912000,2504912000,0.393,0.000,-0.002,-0.584,-0.006,0.000
2505012000,2505012000,0.333,0.000,-0.002,-0.607,0.006,-0.019
2505112000,2505112000,0.268,0.000,-0.002,-0.601,0.035,-0.023
2505212000,2505212000,0.205,0.000,-0.001,-0.609,0.018,-0.002
2505312000,2505312000,0.146,0.000,-0.001,-0.538,0.047,-0.006
2505412000,2505412000,0.094,0.000,-0.000,-0.474,0.005,-0.013
2505512000,2505512000,0.051,0.000,7.551e-05,-0.378,0.020,0.023
2505612000,2505612000,0.016,0.000,0.000,-0.335,0.011,0.049
2505712000,2505712000,-0.009,0.000,0.000,-0.220,-0.012,0.018
2505812000,2505812000,-0.026,0.000,0.000,-0.107,-0.013,-0.008
2505912000,2505912000,-0.038,0.000,0.000,-0.087,-0.038,-0.019
2506012000,2506012000,-0.044,0.000,0.000,-0.029,-0.035,-0.020
2506112000,2506112000,-0.206,-0.006,-0.000,-2.333,0.070,-0.001
2506212000,2506212000,-0.401,-0.002,-0.001,-1.665,0.028,0.022
2506312000,2506312000,-0.524,-0.001,0.000,-0.948,0.024,0.025
2506412000,2506412000,-0.580,0.000,0.002,-0.327,0.055,0.005
2506512000,2506512000,-0.586,0.000,0.003,0.110,0.001,0.008
2506612000,2506612000,-0.554,0.000,0.003,0.419,-0.023,-0.010
2506712000,2506712000,-0.500,0.000,0.003,0.593,0.031,0.023
2506812000,2506812000,-0.433,0.000,0.003,0.721,0.031,0.030
2506912000,2506912000,-0.362,0.000,0.002,0.739,0.005,0.026
2507012000,2507012000,-0.289,0.000,0.002,0.704,-0.011,-0.042
2507112000,2507112000,-0.221,0.000,0.002,0.644,-0.001,0.009
2507212000,2507212000,-0.158,0.000,0.001,0.590,-0.015,-0.006
2507312000,2507312000,-0.104,0.000,0.001,0.502,-0.002,0.008
2507412000,2507412000,-0.058,0.000,0.000,0.435,0.029,0.018
2507512000,2507512000,-0.044,-5.152e-07,-0.000,0.102,0.023,0.004
2507612000,2507612000,-0.034,-0.000,-0.000,0.117,0.026,0.010
2507712000,2507712000,-0.043,0.003,-0.001,-1.494,0.280,-0.019
2507812000,2507812000,-0.268,0.011,-0.003,-1.719,-0.069,0.008
2507912000,2507912000,-0.396,0.005,-0.002,-0.984,-0.028,0.012
2508012000,2508012000,-0.462,0.001,-0.001,-0.433,-0.058,-0.027
2508112000,2508112000,-0.484,0.000,0.000,-0.068,0.008,0.001
2508212000,2508212000,-0.473,0.000,0.001,0.254,0.004,-0.001
2508312000,2508312000,-0.438,0.000,0.002,0.392,0.015,0.018
2508412000,2508412000,-0.388,0.000,0.001,0.554,0.005,-0.002
2508512000,2508512000,-0.327,0.000,0.001,0.612,-0.002,-0.008
2508612000,2508612000,-0.264,0.000,0.001,0.627,0.000,-0.004
2508712000,2508712000,-0.202,-0.000,0.000,0.600,-0.029,-0.005
2508812000,2508812000,-0.144,8.651e-05,0.000,0.537,0.005,-0.003
2508912000,2508912000,-0.093,-1.089e-05,0.000,0.488,-0.016,0.017
2509012000,2509012000,-0.050,-2.771e-06,5.182e-05,0.401,0.029,0.035
2509112000,2509112000,-0.017,0.000,-0.000,0.285,0.007,-0.011
2509212000,2509212000,0.007,0.000,-0.000,0.230,0.037,0.021
2509312000,2509312000,0.025,0.000,-0.000,0.134,0.010,0.022
2509412000,2509412000,0.037,-0.007,-0.000,0.119,-0.693,-0.017
2509512000,2509512000,0.043,-0.040,-0.009,0.055,0.334,-0.049
2509612000,2509612000,0.045,-0.018,-0.010,0.039,0.178,0.006
2509712000,2509712000,0.248,0.031,-0.000,2.150,-0.181,0.079
2509812000,2509812000,0.426,0.015,0.002,1.481,-0.138,0.006
2509912000,2509912000,0.532,0.006,0.003,0.776,-0.084,-0.047
2510012000,2510012000,0.576,0.003,0.001,0.210,0.004,-0.022
2510112000,2510112000,0.572,0.001,1.159e-05,-0.194,0.013,0.009
2510212000,2510212000,0.535,0.001,-0.001,-0.466,-0.029,0.002
2510312000,2510312000,0.479,0.000,-0.001,-0.615,-0.004,0.003
2510412000,2510412000,0.411,0.000,-0.001,-0.664,-0.017,0.000
2510512000,2510512000,0.340,0.000,-0.001,-0.682,0.015,-0.031
2510612000,2510612000,0.269,-8.273e-05,-0.001,-0.663,-0.008,-0.000
2510712000,2510712000,0.204,-0.000,-0.000,-0.617,-0.019,0.032
2510812000,2510812000,0.146,-0.000,-0.000,-0.558,0.019,0.012
2510912000,2510912000,0.096,-0.000,-0.000,-0.420,-0.017,0.000
2511012000,2511012000,0.096,-0.000,0.001,0.300,-0.015,0.023
2511112000,2511112000,0.224,-9.490e-05,0.003,1.750,-0.013,-0.002
2511212000,2511212000,0.374,0.004,0.003,1.230,0.028,-0.033
2511312000,2511312000,0.460,0.002,0.001,0.599,-0.022,-0.047
2511412000,2511412000,0.494,0.000,0.000,0.181,0.016,-0.027
2511512000,2511512000,0.491,0.000,-0.000,-0.139,-0.039,-0.027
2511612000,2511612000,0.461,-8.841e-05,-0.001,-0.367,0.001,-0.005
2511712000,2511712000,0.413,-0.000,-0.001,-0.540,-0.016,0.027
2511812000,2511812000,0.354,7.280e-05,-0.001,-0.613,-0.011,0.009
2511912000,2511912000,0.289,-0.000,-0.001,-0.637,0.014,0.018
2512012000,2512012000,0.224,1.549e-05,-0.001,-0.638,0.013,-0.024
2512112000,2512112000,0.164,-0.000,-0.000,-0.573,-0.019,-0.007
2512212000,2512212000,0.109,-0.000,-0.000,-0.504,0.005,0.023
2512312000,2512312000,0.063,-0.000,0.000,-0.446,-0.011,0.027
2512412000,2512412000,0.026,-0.000,0.000,-0.315,0.015,-0.015
2512512000,2512512000,-0.002,-0.000,0.000,-0.242,0.018,0.007
2512612000,2512612000,-0.022,-0.000,-6.358e-05,-0.156,0.035,-0.011
2512712000,2512712000,-0.036,-0.002,0.000,-0.121,-0.061,0.004
2512812000,2512812000,-0.108,-0.005,-0.000,-1.125,0.031,-0.025
2512912000,2512912000,-0.331,-0.003,-0.002,-1.937,0.008,-0.014
2513012000,2513012000,-0.484,-0.001,-0.001,-1.211,0.017,0.052
2513112000,2513112000,-0.567,-0.000,0.000,-0.591,0.007,0.014
2513212000,2513212000,-0.591,0.000,0.001,-0.025,0.013,-0.022
2513312000,2513312000,-0.573,0.001,0.003,0.305,0.063,0.045
2513412000,2513412000,-0.527,0.001,0.003,0.542,0.039,-0.002
2513512000,2513512000,-0.464,0.001,0.003,0.656,0.018,-0.026
2513612000,2513612000,-0.394,0.001,0.003,0.707,-0.026,0.008
2513712000,2513712000,-0.321,0.001,0.003,0.717,0.003,-0.008
2513812000,2513812000,-0.250,0.000,0.003,0.694,-0.036,-0.013
2513912000,2513912000,-0.186,0.000,0.002,0.616,0.025,0.014
2514012000,2514012000,-0.128,0.000,0.001,0.560,0.004,-0.016
2514112000,2514112000,-0.078,0.000,0.001,0.483,-0.000,0.020
2514212000,2514212000,-0.044,0.000,0.001,0.211,0.005,-0.001
2514312000,2514312000,-0.085,8.385e-05,-0.000,-0.793,-0.018,-0.040
2514412000,2514412000,-0.145,-0.000,-0.001,-0.502,-0.014,0.006
2514512000,2514512000,-0.185,0.000,-0.000,-0.731,0.077,-0.001
2514612000,2514612000,-0.345,0.004,-0.002,-1.221,-0.051,-0.012
2514712000,2514712000,-0.429,0.002,-0.001,-0.592,0.007,0.006
2514812000,2514812000,-0.464,0.000,0.000,-0.155,-0.018,0.009
2514912000,2514912000,-0.463,0.000,0.001,0.099,-0.024,0.007
2515012000,2515012000,-0.436,0.000,0.001,0.374,-0.004,0.002
2515112000,2515112000,-0.392,0.000,0.002,0.502,0.005,0.034
2515212000,2515212000,-0.336,6.438e-05,0.001,0.599,0.017,0.002
2515312000,2515312000,-0.275,0.000,0.001,0.621,-0.001,0.035
2515412000,2515412000,-0.214,-9.502e-05,0.000,0.618,-0.035,-0.024
2515512000,2515512000,-0.110,-0.036,0.000,2.239,-1.027,-0.010
2515612000,2515612000,0.148,-0.003,0.001,2.447,0.651,0.012
2515712000,2515712000,0.353,0.001,0.000,1.712,-0.024,-0.006
2515812000,2515812000,0.484,0.001,-0.000,0.985,0.003,-0.045
2515912000,2515912000,0.548,0.000,-0.002,0.413,0.019,0.000
2516012000,2516012000,0.558,0.000,-0.003,-0.101,0.008,-0.025
2516112000,2516112000,0.533,0.011,-0.002,-0.387,0.056,0.040
2516212000,2516212000,0.476,0.005,-0.002,-1.012,-0.069,0.004
2516312000,2516312000,0.342,0.002,-0.003,-1.461,-0.022,-0.016
2516412000,2516412000,0.146,0.001,-0.003,-1.994,0.002,-0.027
2516512000,2516512000,-0.089,0.003,-0.003,-2.212,0.005,0.013
2516612000,2516612000,-0.263,0.002,-0.002,-1.381,-0.013,0.025
2516712000,2516712000,-0.367,0.002,-0.000,-0.818,-0.011,0.009
2516812000,2516812000,-0.421,0.001,0.000,-0.377,-0.060,-0.001
2516912000,2516912000,-0.437,0.000,0.001,-0.074,0.006,0.012
2517012000,2517012000,-0.426,0.000,0.001,0.187,0.014,-0.014
2517112000,2517112000,-0.393,0.000,0.001,0.379,0.005,-0.006
2517212000,2517212000,-0.347,0.000,0.001,0.539,-0.012,-0.021
2517312000,2517312000,-0.293,0.000,0.001,0.581,-0.017,-0.006
2517412000,2517412000,-0.236,0.001,0.000,0.561,0.017,-0.016
2517512000,2517512000,-0.181,0.000,0.000,0.516,-0.003,0.027
2517612000,2517612000,-0.130,-0.000,0.000,0.491,-0.008,0.012
2517712000,2517712000,-0.086,-9.421e-05,0.000,0.429,0.013,0.020
2517816000,2517816000,-0.046,-0.002,-0.000,0.449,-0.041,-0.025
2517916000,2517916000,0.038,-0.002,0.000,1.214,0.003,0.011
2518016000,2518016000,0.244,-0.002,0.003,2.243,-0.009,0.023
2518116000,2518116000,0.428,-0.001,0.002,1.480,0.017,-0.021
2518216000,2518216000,0.536,-0.001,0.000,0.766,0.002,-0.043
2518316000,2518316000,0.578,-0.001,-0.000,0.179,-0.035,0.000
2518416000,2518416000,0.573,-0.000,-0.001,-0.205,-0.021,0.003
2518516000,2518516000,0.535,-0.000,-0.002,-0.491,-0.015,0.001
2518616000,2518616000,0.478,0.000,-0.002,-0.655,0.013,-0.020
2518716000,2518716000,0.410,0.000,-0.002,-0.723,-0.018,-0.037
2518816000,2518816000,0.339,0.000,-0.002,-0.743,0.016,-0.037
2518916000,2518916000,0.268,0.000,-0.001,-0.699,0.008,-0.004
2519016000,2519016000,0.199,2.799e-05,-0.001,-0.767,0.009,-0.018
2519116000,2519116000,0.128,0.000,-0.000,-0.654,0.020,0.034
2519216000,2519216000,0.057,-0.000,-0.000,-0.679,-7.159e-05,0.007
2519316000,2519316000,-0.102,-0.000,-0.001,-1.929,0.010,0.030
2519416000,2519416000,-0.343,0.002,-0.003,-1.942,0.015,0.043
2519516000,2519516000,-0.485,0.001,-0.001,-1.068,-0.028,0.025
2519616000,2519616000,-0.558,0.000,0.000,-0.499,-0.002,-0.000
2519716000,2519716000,-0.581,0.000,0.001,-0.063,0.004,0.004
2519816000,2519816000,-0.567,0.000,0.002,0.249,-0.015,0.010
2519916000,2519916000,-0.526,0.000,0.003,0.497,0.001,0.012
2520016000,2520016000,-0.467,0.001,0.002,0.650,0.011,0.011
2520116000,2520116000,-0.396,0.000,0.002,0.722,0.013,-0.013
2520216000,2520216000,-0.321,0.000,0.001,0.766,0.000,-0.000
2520316000,2520316000,-0.247,0.000,0.001,0.716,-0.013,-0.011
2520416000,2520416000,-0.178,0.000,0.001,0.645,0.013,-0.013
2520516000,2520516000,-0.118,0.000,0.000,0.539,0.013,-0.027
2520616000,2520616000,-0.068,0.000,3.597e-05,0.446,0.017,-0.001
2520716000,2520716000,-0.028,0.000,-0.000,0.367,-0.007,-0.019
2520816000,2520816000,0.001,0.000,-0.000,0.248,-0.000,-0.018
2520916000,2520916000,0.022,0.000,-0.000,0.168,-0.023,0.011
2521016000,2521016000,0.040,-0.002,-0.000,0.448,-0.056,0.007
2521116000,2521116000,0.152,-0.003,0.001,2.347,0.010,0.060
2521216000,2521216000,0.363,-0.002,0.002,1.797,-0.014,-0.031
2521316000,2521316000,0.500,-0.001,0.001,1.044,-0.006,-0.026
2521416000,2521416000,0.569,-0.001,-0.000,0.411,0.035,-0.019
2521516000,2521516000,0.585,-0.000,-0.001,-0.041,-0.024,-0.001
2521616000,2521616000,0.561,0.000,-0.002,-0.378,0.007,-0.007
2521716000,2521716000,0.511,-0.000,-0.002,-0.562,-0.017,0.016
2521816000,2521816000,0.446,-0.000,-0.002,-0.665,-0.009,0.001
2521916000,2521916000,0.375,0.000,-0.002,-0.702,-0.012,-0.014
2522016000,2522016000,0.304,-0.000,-0.001,-0.679,-0.003,0.029
2522116000,2522116000,0.235,-0.000,-0.001,-0.662,0.008,-0.011
2522216000,2522216000,0.172,-0.000,-0.000,-0.602,-0.009,-0.002
2522316000,2522316000,0.116,0.000,-0.000,-0.518,0.011,0.002
2522416000,2522416000,0.068,0.000,0.000,-0.421,-0.031,0.022
2522516000,2522516000,0.033,4.240e-05,0.000,-0.293,-0.014,0.011
2522616000,2522616000,0.024,0.000,0.001,0.163,0.015,0.013
2522716000,2522716000,0.121,0.000,0.002,1.362,-0.007,0.001
2522816000,2522816000,0.310,0.003,0.003,1.541,-0.031,-0.027
2522916000,2522916000,0.422,0.001,0.002,0.845,0.028,0.023
2523016000,2523016000,0.477,0.001,0.001,0.310,-0.010,-0.002
2523116000,2523116000,0.489,0.001,-0.000,-0.027,-0.029,0.025
2523216000,2523216000,0.472,0.001,-0.001,-0.272,-0.027,-0.015
2523316000,2523316000,0.432,0.001,-0.001,-0.469,0.007,-0.016
2523416000,2523416000,0.378,0.001,-0.000,-0.592,0.008,0.051
2523516000,2523516000,0.317,0.002,-0.000,-0.607,-0.004,-0.007
2523616000,2523616000,0.252,0.001,-0.000,-0.655,-0.025,0.004
2523716000,2523716000,0.190,0.001,2.554e-05,-0.599,0.026,0.002
2523816000,2523816000,0.133,0.001,0.000,-0.570,0.017,-0.020
2523916000,2523916000,0.084,0.001,0.000,-0.467,0.022,0.010
2524016000,2524016000,0.043,0.002,0.001,-0.416,0.032,0.042
2524116000,2524116000,0.011,0.001,0.001,-0.272,0.023,-0.000
2524216000,2524216000,-0.012,0.002,0.001,-0.207,-0.008,-0.011
2524316000,2524316000,-0.028,0.002,0.001,-0.156,0.004,-0.038
2524416000,2524416000,-0.038,0.002,0.002,-0.047,0.006,0.007
2524516000,2524516000,-0.044,0.000,0.002,-0.104,-0.100,0.015
2524616000,2524616000,-0.163,-0.002,0.000,-2.338,0.037,-0.075
2524716000,2524716000,-0.368,5.419e-05,-0.000,-1.778,0.037,0.026
2524816000,2524816000,-0.503,0.001,0.001,-1.022,0.018,0.012
2524916000,2524916000,-0.569,0.002,0.003,-0.427,0.005,0.001
2525016000,2525016000,-0.583,0.002,0.005,0.036,0.016,0.006
2525116000,2525116000,-0.557,0.002,0.006,0.389,-0.008,0.006
2525216000,2525216000,-0.507,0.001,0.005,0.550,0.009,0.013
2525316000,2525316000,-0.443,0.001,0.005,0.673,0.031,-0.033
2525416000,2525416000,-0.371,0.000,0.004,0.738,0.021,0.008
2525516000,2525516000,-0.300,0.000,0.003,0.722,0.008,-0.013
2525616000,2525616000,-0.231,0.000,0.002,0.652,-0.007,-0.035
2525716000,2525716000,-0.168,0.000,0.002,0.602,0.001,-0.008
2525816000,2525816000,-0.112,0.000,0.002,0.520,-0.004,-0.002
2525916000,2525916000,-0.064,-0.000,0.001,0.430,0.002,-0.003
2526016000,2526016000,-0.026,0.000,0.000,0.318,0.048,0.001
2526116000,2526116000,0.003,4.746e-05,0.000,0.259,0.001,0.025
2526216000,2526216000,0.026,-0.000,-0.000,0.165,-0.007,0.008
2526316000,2526316000,0.041,-0.000,-0.000,0.098,-0.020,0.016
2526416000,2526416000,0.051,-0.000,-0.000,0.097,-0.006,0.023
2526516000,2526516000,0.055,0.000,-0.001,-0.003,0.040,-0.019
2526616000,2526616000,0.055,0.000,-0.000,-0.033,-0.017,0.007
2526716000,2526716000,0.053,0.000,-0.000,-0.053,0.003,-0.021
2526816000,2526816000,0.049,0.000,-0.000,-0.056,-0.004,0.017
2526916000,2526916000,0.043,-0.000,-0.000,-0.039,-0.021,-0.000
2527016000,2527016000,0.036,7.020e-05,-0.000,-0.067,-0.014,-0.012
2527116000,2527116000,0.030,-9.079e-05,-0.000,-0.062,0.005,-0.021
2527216000,2527216000,0.024,-3.230e-05,-0.000,-0.082,-0.018,-0.035
2527316000,2527316000,0.018,-0.000,-0.000,-0.086,0.007,-0.013
2527416000,2527416000,0.014,0.000,0.000,-0.056,0.004,0.047
2527516000,2527516000,0.010,-0.000,0.000,-0.072,-0.032,-0.008
2527616000,2527616000,0.007,0.000,0.000,-0.034,0.037,0.013
2527716000,2527716000,0.004,-0.000,0.000,-0.011,-0.046,0.010
2527816000,2527816000,0.002,-4.801e-05,-3.021e-05,0.002,0.009,0.001
2527916000,2527916000,0.001,-3.203e-05,-7.569e-05,-0.003,-0.005,0.023
2528016000,2528016000,0.000,0.000,-0.000,0.001,0.003,-0.000
2528116000,2528116000,0.000,-0.000,-7.588e-05,-0.028,-0.001,-0.010
2528216000,2528216000,0.000,0.000,0.000,0.000,0.015,0.032
2528316000,2528316000,-0.000,-0.000,0.000,-0.001,0.011,-0.004
2528416000,2528416000,0.000,-0.000,-6.932e-05,0.019,-0.015,-0.017
2528516000,2528516000,-4.019e-05,-0.001,0.000,-0.004,-0.026,0.009
2528616000,2528616000,-0.000,-0.000,0.000,-0.002,-0.020,0.005
2528716000,2528716000,0.000,-0.000,0.000,0.029,0.011,0.013
2528816000,2528816000,0.000,-0.000,0.000,0.014,-0.011,0.042
2528916000,2528916000,-5.678e-05,-0.000,0.000,-0.003,0.016,0.016
2529016000,2529016000,-0.000,-0.000,9.649e-05,-0.023,-0.003,-0.037
2529116000,2529116000,-0.000,-6.201e-05,0.000,-0.007,0.048,-0.004
2529216000,2529216000,-0.000,-0.000,-0.000,0.003,0.015,-0.013
2529316000,2529316000,7.340e-05,-0.000,0.000,0.020,0.023,0.019
2529416000,2529416000,0.000,6.288e-05,0.000,0.005,0.011,-0.013
2529516000,2529516000,-0.000,-0.000,0.000,0.013,0.022,0.028
2529616000,2529616000,-0.000,-0.000,0.000,-0.019,0.024,-0.013
2529716000,2529716000,6.676e-05,-0.000,0.000,0.009,-0.010,0.034
2529816000,2529816000,-2.974e-05,-0.000,0.000,-0.008,-0.037,0.022
2529916000,2529916000,6.519e-06,2.710e-05,0.000,0.013,0.005,0.009
2530016000,2530016000,0.000,9.504e-05,0.000,0.011,0.023,-0.011
2530116000,2530116000,-0.000,-0.000,0.000,-0.053,-0.012,0.008
2530216000,2530216000,-0.000,-0.000,0.000,-0.002,0.028,-0.013
2530316000,2530316000,0.000,-0.000,0.000,0.034,0.003,0.012
2530416000,2530416000,-3.119e-05,-0.000,0.000,0.007,0.013,0.008
2530516000,2530516000,-0.000,-0.000,0.000,-0.015,0.006,-0.012
2530616000,2530616000,0.000,-0.000,0.000,0.014,-0.017,-0.010
2530716000,2530716000,-0.000,-0.000,0.000,-0.015,0.014,0.008
2530816000,2530816000,-0.000,-0.001,0.000,0.009,-0.010,0.005
2530916000,2530916000,-0.000,-0.000,0.000,-0.015,0.031,-0.012
2531016000,2531016000,-0.000,-0.000,0.000,0.001,0.016,-0.004
2531116000,2531116000,-0.000,0.000,0.000,-0.005,-0.014,0.020
2531216000,2531216000,-0.000,0.000,0.000,-0.012,0.011,0.007
2531316000,2531316000,-0.000,0.000,0.000,0.001,0.020,0.026
2531416000,2531416000,-0.000,0.000,-0.000,-0.012,0.008,0.004
2531516000,2531516000,-0.000,0.000,-6.527e-05,0.047,-0.013,0.010
2531616000,2531616000,-0.000,0.000,-7.246e-05,-0.013,0.001,0.010
2531716000,2531716000,-0.000,-0.000,-3.636e-05,0.025,0.005,0.004
2531816000,2531816000,-0.000,-0.000,-0.000,0.001,0.001,0.021
2531916000,2531916000,-0.000,-0.000,-0.000,0.014,-0.013,-0.001
2532016000,2532016000,-0.000,-1.460,-0.000,-0.003,-26.464,0.009
2532116000,2532116000,-0.000,-1.426,0.000,0.008,11.254,-0.001
2532216000,2532216000,-0.001,-0.664,0.000,0.001,5.425,-0.005
2532316000,2532316000,-0.001,-0.305,0.000,-0.034,2.520,0.004
2532416000,2532416000,-0.001,1.616,0.000,0.017,22.215,-0.002
2532516000,2532516000,-0.001,1.357,-0.000,-0.006,-12.296,-0.020
2532616000,2532616000,-0.001,0.583,-0.001,-0.005,-4.774,-0.024
2532716000,2532716000,-0.001,0.270,-0.002,-0.027,-2.249,-0.003
2532816000,2532816000,-0.000,0.126,-0.002,0.023,-1.006,0.009
2532916000,2532916000,-0.000,0.057,-0.002,0.005,-0.481,0.017
2533016000,2533016000,-0.001,0.025,-0.002,0.008,-0.255,0.001
2533116000,2533116000,-0.001,0.066,-0.001,-0.012,3.975,0.007
2533216000,2533216000,-0.003,0.877,0.000,-0.030,17.499,-0.032
2533316000,2533316000,-0.002,1.772,0.000,0.012,5.132,0.035
2533416000,2533416000,-0.001,0.995,0.000,-0.016,-8.006,-0.007
2533516000,2533516000,-0.000,0.459,0.000,0.029,-3.907,0.016
2533616000,2533616000,-0.000,0.209,0.000,0.028,-1.800,-0.029
2533716000,2533716000,-0.000,-1.339,0.000,-0.000,-21.653,0.018
2533816000,2533816000,-0.000,-1.516,0.000,-0.001,11.921,0.009
2533916000,2533916000,-0.000,-0.703,0.000,-0.000,5.640,-0.000
2534016000,2534016000,-0.000,-0.327,0.001,0.024,2.607,0.020
2534116000,2534116000,-0.000,-0.152,0.002,-0.048,1.235,0.007
2534216000,2534216000,-0.000,-0.070,0.003,-0.012,0.627,0.053
2534316000,2534316000,-0.000,-0.032,0.003,0.021,0.233,-0.017
2534416000,2534416000,-0.000,-0.014,0.003,-0.011,0.130,-0.002
2534516000,2534516000,-0.000,-0.005,0.003,0.001,0.042,0.004
2534616000,2534616000,-8.990e-06,-0.001,0.002,-0.002,0.033,-0.019
2534716000,2534716000,0.000,0.000,0.002,0.023,0.060,-0.028
2534816000,2534816000,0.000,0.000,0.001,-0.015,-0.008,0.010
2534916000,2534916000,0.000,0.001,0.001,0.011,-0.009,-0.013
2535016000,2535016000,-4.201e-05,0.001,0.000,-0.016,0.012,0.011
2535116000,2535116000,-0.000,0.001,0.000,-0.011,-0.008,-0.006
2535216000,2535216000,-0.000,0.001,0.000,-0.025,-0.027,-0.029
2535316000,2535316000,0.000,0.000,0.000,0.025,-0.027,0.013
2535416000,2535416000,5.993e-05,0.001,0.000,0.002,-0.016,0.002
2535516000,2535516000,-0.000,0.000,0.000,-0.016,-0.021,-0.014
2535616000,2535616000,-0.000,0.000,0.000,0.029,0.018,0.029
2535716000,2535716000,-0.000,0.000,0.000,-0.010,-0.001,-0.011
2535816000,2535816000,-0.001,0.000,0.000,-0.028,0.013,0.011
2535916000,2535916000,-0.000,0.000,0.000,0.020,0.036,-0.014
2536016000,2536016000,-0.000,0.000,0.000,-0.004,0.001,0.011
2536116000,2536116000,-0.000,0.000,0.000,-0.039,0.031,-0.016
2536216000,2536216000,-0.000,0.000,-7.704e-06,0.014,0.032,0.016
2536316000,2536316000,-0.000,0.000,0.000,0.001,-0.012,0.029
2536416000,2536416000,-0.000,0.000,5.477e-06,-0.008,-0.014,0.011
2536516000,2536516000,-0.000,0.000,8.748e-05,0.021,0.005,-0.001
2536616000,2536616000,-0.000,0.000,-0.000,0.010,-0.003,0.009
2536716000,2536716000,-0.000,0.000,-0.000,-0.001,-0.014,-0.014
2536816000,2536816000,-0.000,0.000,-0.000,-0.011,-0.008,-0.032
2536916000,2536916000,-0.000,0.000,-0.000,-0.021,0.010,-0.014
2537016000,2537016000,-0.000,0.000,-0.000,0.007,-0.006,-0.016
2537116000,2537116000,-0.000,0.000,-0.000,0.012,0.024,-0.011
2537216000,2537216000,-2.805e-06,0.000,-0.000,0.036,0.010,-0.005
2537316000,2537316000,-0.000,0.000,-7.374e-05,0.023,-0.008,0.028
2537416000,2537416000,-0.000,0.000,-0.000,0.004,-0.023,-0.030
2537516000,2537516000,-0.000,-0.000,-0.000,0.016,0.000,-0.015
2537616000,2537616000,-0.000,4.915e-05,-5.490e-05,-0.033,0.012,0.028
2537716000,2537716000,-0.000,2.583e-05,-0.000,0.033,0.017,-0.004
2537816000,2537816000,-0.000,-0.000,-6.058e-05,0.005,-0.012,-0.000
2537916000,2537916000,0.016,-0.010,0.000,0.345,-0.118,-0.021
2538016000,2538016000,0.080,-0.012,0.001,0.810,-0.044,-0.011
2538116000,2538116000,0.179,-0.012,0.002,1.106,-0.016,0.013
2538216000,2538216000,0.302,-0.013,0.002,1.310,-0.001,-0.029
2538316000,2538316000,0.427,-0.007,0.002,1.113,0.141,-0.025
2538416000,2538416000,0.499,-0.001,0.000,0.485,0.024,-0.003
2538516000,2538516000,0.521,0.000,-0.001,0.057,0.016,-0.010
2538616000,2538616000,0.509,0.001,-0.001,-0.244,0.020,-0.009
2538716000,2538716000,0.472,0.001,-0.002,-0.421,-0.003,-0.014
2538816000,2538816000,0.418,0.000,-0.002,-0.578,-0.003,0.000
2538916000,2538916000,0.354,-0.000,-0.002,-0.659,-0.026,0.023
2539016000,2539016000,0.288,-0.000,-0.002,-0.686,0.011,0.002
2539116000,2539116000,0.221,0.000,-0.001,-0.647,-0.018,0.033
2539216000,2539216000,0.159,-0.000,-0.001,-0.603,-0.011,0.014
2539316000,2539316000,0.105,0.001,-0.000,-0.499,0.029,-0.018
2539416000,2539416000,0.059,0.001,-2.742e-05,-0.409,-0.002,-0.007
2539516000,2539516000,0.023,0.001,0.000,-0.333,-0.040,0.003
2539616000,2539616000,-0.004,0.002,0.001,-0.231,-0.022,0.000
2539716000,2539716000,-0.023,0.003,0.001,-0.157,-0.008,0.014
2539816000,2539816000,-0.035,0.004,0.002,-0.082,0.003,-0.006
2539916000,2539916000,-0.041,0.005,0.002,-0.026,0.057,0.005
2540016000,2540016000,-0.047,0.006,0.002,-0.152,0.022,-0.021
2540116000,2540116000,-0.064,0.007,0.002,-0.184,-0.000,-0.016
2540216000,2540216000,-0.085,0.006,0.001,-0.246,-0.017,-0.007
2540316000,2540316000,-0.111,0.004,0.001,-0.298,-0.013,0.003
2540416000,2540416000,-0.146,0.003,0.002,-0.393,0.038,0.005
2540516000,2540516000,-0.194,0.005,0.001,-0.505,0.013,-0.004
2540616000,2540616000,-0.255,0.006,0.001,-0.674,-0.031,-0.020
2540716000,2540716000,-0.319,0.005,0.001,-0.607,-0.028,-0.028
2540816000,2540816000,-0.374,0.003,0.001,-0.538,-0.016,0.001
2540916000,2540916000,-0.417,0.001,0.002,-0.399,-0.074,-0.003
2541016000,2541016000,-0.449,0.001,0.002,-0.287,-0.022,-0.000
2541116000,2541116000,-0.462,-0.000,0.002,-0.014,-0.010,0.009
2541216000,2541216000,-0.451,-0.002,0.002,0.174,-0.032,0.005
2541316000,2541316000,-0.421,-0.003,0.002,0.401,0.002,0.023
2541416000,2541416000,-0.376,-0.001,0.002,0.510,0.032,-0.028
2541516000,2541516000,-0.322,-0.001,0.002,0.577,0.050,0.018
2541616000,2541616000,-0.259,-0.000,0.001,0.632,-0.016,-0.016
2541716000,2541716000,-0.194,-9.377e-05,0.001,0.666,0.016,-0.008
2541816000,2541816000,-0.129,0.000,0.000,0.645,0.037,0.008
2541916000,2541916000,-0.067,0.001,0.000,0.585,0.018,-0.010
2542016000,2542016000,-0.010,-0.000,0.000,0.538,-0.046,0.031
2542116000,2542116000,0.039,0.001,1.427e-05,0.464,0.002,-0.012
2542216000,2542216000,0.080,0.000,-0.000,0.366,-0.008,-0.016
2542316000,2542316000,0.112,0.000,-0.000,0.274,0.017,-0.010
2542416000,2542416000,0.135,-0.001,-0.000,0.194,-0.012,-0.002
2542520000,2542520000,0.149,-0.001,-0.001,0.113,-0.013,-0.039
2542620000,2542620000,0.154,-0.002,-0.000,0.034,0.007,-0.031
2542720000,2542720000,0.150,-0.003,-0.000,-0.091,0.000,0.013
2542820000,2542820000,0.140,-0.003,-0.000,-0.157,0.049,0.006
2542920000,2542920000,0.125,-0.004,-0.000,-0.184,-0.017,-0.015
2543020000,2543020000,0.106,-0.003,0.000,-0.210,-0.014,-0.005
2543120000,2543120000,0.084,-0.001,0.000,-0.218,0.054,0.009
2543220000,2543220000,0.061,0.001,0.000,-0.246,0.023,0.000
2543320000,2543320000,0.037,0.000,-0.000,-0.247,-0.016,-0.011
2543420000,2543420000,0.014,0.000,0.000,-0.234,0.000,-0.007
2543520000,2543520000,-0.006,-0.000,0.000,-0.220,0.020,0.009
2543620000,2543620000,-0.024,0.001,0.000,-0.180,-0.007,-0.022
2543720000,2543720000,-0.040,0.001,0.000,-0.180,-0.011,-0.001
2543820000,2543820000,-0.053,0.001,5.033e-05,-0.099,0.009,0.013
2543920000,2543920000,-0.063,0.000,0.000,-0.087,-0.006,-0.043
2544020000,2544020000,-0.069,0.000,8.215e-05,-0.095,-0.014,-0.027
2544120000,2544120000,-0.072,0.001,0.000,0.003,0.005,-0.003
2544220000,2544220000,-0.071,0.000,0.000,0.004,0.019,0.021
2544320000,2544320000,-0.068,-0.001,0.000,0.046,-0.047,-0.020
2544420000,2544420000,-0.063,0.000,0.000,0.067,0.001,-0.008
2544520000,2544520000,-0.056,0.001,0.000,0.090,0.017,-0.012
2544620000,2544620000,-0.048,0.003,0.000,0.056,0.061,0.004
2544720000,2544720000,-0.039,0.003,-5.493e-05,0.110,0.000,-0.021
2544820000,2544820000,-0.030,0.001,0.000,0.061,-0.003,0.031
2544920000,2544920000,-0.021,0.000,0.000,0.082,-0.008,-0.010
2545020000,2545020000,-0.012,-0.000,-0.000,0.070,-0.036,-0.003
2545120000,2545120000,-0.005,-0.000,0.000,0.107,0.009,0.020
2545220000,2545220000,0.000,0.000,-0.000,0.065,0.003,-0.016
2545320000,2545320000,0.006,0.000,-0.000,0.019,-0.038,-0.016
2545420000,2545420000,0.011,-0.001,-0.000,0.060,-0.022,-0.016
2545520000,2545520000,0.014,-0.004,6.638e-05,0.039,-0.018,-0.009
2545620000,2545620000,0.016,-0.006,0.000,0.017,-0.022,0.013
2545720000,2545720000,0.017,-0.003,0.000,0.043,0.036,0.012
2545820000,2545820000,0.017,-0.002,0.000,0.029,0.039,0.000
2545920000,2545920000,0.017,-0.002,0.001,-0.024,0.009,0.031
2546020000,2546020000,0.015,-0.002,0.000,-0.028,-0.001,-0.016
2546120000,2546120000,0.012,-0.001,0.001,-0.047,0.003,0.014
2546220000,2546220000,0.009,-0.001,0.000,-0.006,-0.016,-0.016
2546320000,2546320000,0.006,-0.000,0.000,-0.047,-0.012,0.024
2546420000,2546420000,0.003,0.000,0.000,-0.027,0.036,0.020
2546520000,2546520000,0.000,-0.000,0.000,-0.039,0.039,-0.006
2546620000,2546620000,-0.001,-0.000,0.000,0.003,0.002,0.007
2546720000,2546720000,-0.004,-0.000,0.000,-0.005,-0.050,-0.020
2546820000,2546820000,-0.006,-0.000,0.000,0.028,0.023,-0.010
2546920000,2546920000,-0.007,-0.002,0.001,-0.001,-0.025,0.025
2547020000,2547020000,-0.008,-0.002,0.001,-0.033,-0.016,0.020
2547120000,2547120000,-0.008,-0.002,0.000,-0.011,-0.003,-0.014
2547220000,2547220000,-0.008,0.000,0.000,-0.017,0.032,0.004
2547320000,2547320000,-0.007,0.002,0.000,-0.017,-0.000,0.021
2547420000,2547420000,-0.005,0.004,0.000,0.031,0.024,-0.015
2547520000,2547520000,-0.004,0.005,9.377e-05,0.036,0.030,-0.014
2547620000,2547620000,-0.002,0.002,0.000,0.011,-0.030,0.000
2547720000,2547720000,-0.001,0.001,-8.357e-06,0.001,-0.035,-0.031
2547820000,2547820000,0.000,-0.000,0.000,0.000,-0.042,0.030
2547920000,2547920000,0.001,0.000,3.131e-05,0.016,-0.043,0.011
2548020000,2548020000,0.002,0.001,0.000,0.021,0.014,0.016
2548120000,2548120000,0.003,0.001,5.662e-05,-0.007,0.038,0.016
2548220000,2548220000,0.004,0.001,2.542e-05,0.003,-0.008,0.003
2548320000,2548320000,0.004,0.000,-0.000,0.014,-0.036,0.002
2548420000,2548420000,0.005,0.000,-0.000,0.009,0.001,-0.005
2548520000,2548520000,0.005,0.001,-1.289e-05,-0.011,0.003,-0.036
2548620000,2548620000,0.005,0.001,-3.598e-05,0.002,-0.007,-0.030
2548720000,2548720000,0.005,0.002,-0.000,-0.022,0.015,-0.017
2548820000,2548820000,0.005,0.003,-4.597e-05,-0.012,-0.015,-0.009
2548920000,2548920000,0.005,0.004,0.000,0.014,-0.003,0.020
2549020000,2549020000,0.004,0.003,0.000,-0.062,-0.002,-0.044
2549120000,2549120000,0.004,0.002,-0.000,0.019,-0.027,-0.013
2549220000,2549220000,0.003,0.002,-0.000,-0.028,-0.021,-0.038
2549320000,2549320000,0.002,0.002,-5.068e-05,0.021,0.008,0.009
2549420000,2549420000,0.001,0.000,-0.000,0.005,-0.012,0.003
2549520000,2549520000,0.000,-0.000,1.456e-05,-0.014,-0.010,-0.009
2549620000,2549620000,0.000,-0.001,0.000,-0.029,-0.028,-0.004
2549720000,2549720000,0.000,-0.000,0.000,0.032,-0.018,0.030
2549820000,2549820000,-0.000,-0.000,0.000,-0.030,-0.000,0.026
2549920000,2549920000,-0.000,-0.000,-0.000,0.018,0.002,-0.006
2550020000,2550020000,-0.001,-0.000,-0.000,-0.023,0.004,-0.039
2550120000,2550120000,-0.001,0.000,-0.000,-0.015,-0.006,-0.007
2550220000,2550220000,-0.001,-0.000,-0.000,-0.024,0.003,-0.039
2550320000,2550320000,-0.001,-0.000,-0.000,-0.000,0.051,-0.003
2550420000,2550420000,-0.001,0.000,0.000,0.007,-0.017,0.030
2550520000,2550520000,-0.001,0.001,0.000,-0.009,-0.000,-0.005
2550620000,2550620000,-0.001,-0.001,-0.000,-0.018,-0.057,6.127e-05
2550720000,2550720000,-0.001,-0.003,-0.000,-0.010,0.006,-0.002
2550820000,2550820000,-0.001,-0.004,-0.000,0.015,0.028,-0.043
2550920000,2550920000,0.000,-0.003,-0.000,0.021,-0.018,-0.021
2551020000,2551020000,0.001,-0.002,-0.000,0.004,-0.003,-0.033
2551120000,2551120000,0.001,-0.001,-8.010e-05,0.014,-0.028,-0.007
2551220000,2551220000,0.001,-0.001,-9.561e-05,0.026,0.011,-0.005
2551320000,2551320000,0.001,-0.001,8.590e-06,0.002,0.015,-0.027
2551420000,2551420000,0.002,-0.000,-0.000,0.005,0.062,-0.041
2551520000,2551520000,0.002,0.000,7.234e-05,-0.007,0.001,0.021
2551620000,2551620000,0.002,0.001,0.000,-0.033,0.011,0.028
2551720000,2551720000,0.002,0.000,0.000,0.015,-0.009,0.029
2551820000,2551820000,0.002,0.002,6.019e-05,0.006,0.036,0.014
2551920000,2551920000,0.002,0.002,-0.000,0.013,-0.017,-0.005
2552020000,2552020000,0.002,0.002,-0.000,0.015,0.025,-0.025
2552120000,2552120000,0.002,0.002,-0.000,-0.013,0.017,0.007
2552220000,2552220000,0.002,0.004,-0.000,-0.037,0.028,0.016
2552320000,2552320000,0.002,0.003,1.991e-05,-0.001,-0.019,-0.010
2552420000,2552420000,0.002,0.003,8.615e-05,0.007,-0.001,-0.028
2552520000,2552520000,0.002,0.002,0.000,-0.009,-0.042,0.006
2552620000,2552620000,0.001,0.001,0.000,-0.017,-0.006,0.023
2552720000,2552720000,0.001,-0.000,0.000,-0.009,-0.005,-0.021
2552820000,2552820000,0.000,-3.597e-06,-0.000,-0.012,-0.021,-0.026
2552920000,2552920000,-2.753e-05,0.000,-7.173e-05,-0.043,-0.016,-0.006
2553020000,2553020000,-0.000,-0.000,0.000,-0.030,0.019,-0.003
2553120000,2553120000,-0.001,-0.000,-7.748e-05,-0.011,-0.009,-0.017
2553220000,2553220000,-0.000,0.001,0.000,-0.009,0.021,-0.003
2553320000,2553320000,-0.000,0.000,-0.000,-0.013,-0.013,-0.032
2553420000,2553420000,-0.000,-0.001,-1.685e-05,0.013,-0.043,-0.013
2553520000,2553520000,-0.000,-0.000,-5.425e-05,0.001,-0.033,0.005
2553620000,2553620000,-0.000,-0.001,-0.000,0.000,-0.040,-0.008
2553720000,2553720000,0.000,-0.000,7.588e-05,0.015,0.003,-0.005
2553820000,2553820000,0.000,-0.000,-0.000,0.032,0.074,-0.009
2553920000,2553920000,0.000,0.002,-0.000,0.015,-0.001,-0.030
2554020000,2554020000,0.001,0.002,-8.223e-05,-0.031,-0.010,-0.002
2554120000,2554120000,0.001,0.003,3.709e-05,0.005,0.031,0.001
2554220000,2554220000,0.001,0.000,-0.000,0.019,-0.015,-0.012
2554320000,2554320000,0.001,0.002,2.080e-05,-0.004,0.032,-0.012
2554420000,2554420000,0.001,0.002,-0.000,0.005,-0.036,-0.053
2554520000,2554520000,0.001,0.002,1.478e-05,-0.004,0.014,0.012
2554620000,2554620000,0.001,0.001,3.818e-07,0.007,-0.030,-0.007
2554720000,2554720000,0.001,0.001,3.009e-05,-0.027,-0.002,-0.016
2554820000,2554820000,0.001,0.001,-3.301e-05,-0.016,0.008,-0.000
2554920000,2554920000,0.001,0.001,-2.379e-05,-0.029,-0.029,-0.026
2555020000,2555020000,0.002,0.000,0.000,-0.005,-0.025,-0.012
2555120000,2555120000,0.002,0.002,-9.617e-05,-0.015,-0.000,0.003
2555220000,2555220000,0.002,0.003,2.713e-05,0.034,-0.038,-0.003
2555320000,2555320000,0.002,0.003,0.000,-0.002,-0.032,0.002
2555420000,2555420000,0.002,0.003,0.000,0.002,0.003,0.021
2555520000,2555520000,0.002,0.002,0.000,0.000,-0.039,-0.014
2555620000,2555620000,0.002,0.001,0.000,-0.013,0.003,-0.025
2555720000,2555720000,0.002,-0.000,0.000,-0.032,-0.053,0.008
2555820000,2555820000,0.002,-0.001,4.309e-05,-0.004,0.013,0.002
2555920000,2555920000,0.002,-0.002,0.000,0.023,-0.033,-0.022
2556020000,2556020000,0.001,-0.003,0.000,-0.019,0.011,0.003
2556120000,2556120000,0.001,-0.002,0.000,0.003,-0.006,-0.004
2556220000,2556220000,0.001,-0.001,-0.000,-0.002,-0.051,-0.023
2556320000,2556320000,0.000,-0.001,0.000,0.008,0.004,0.035
2556420000,2556420000,-0.000,-0.000,-3.451e-05,-0.008,0.007,0.012
2556520000,2556520000,-0.001,-0.001,2.001e-06,-0.001,-0.004,0.023
2556620000,2556620000,-0.001,0.000,0.000,0.014,-0.017,0.031
2556720000,2556720000,-0.002,-0.002,-0.000,0.001,-0.035,-0.019
2556820000,2556820000,-0.004,-0.001,0.000,-0.060,0.026,0.012
2556920000,2556920000,-0.003,-0.000,0.000,-0.007,0.024,0.012
2557020000,2557020000,-0.003,-0.000,-5.367e-05,0.041,-0.019,-0.000
2557120000,2557120000,-0.003,-0.001,-0.000,-0.028,0.027,-0.029
2557220000,2557220000,-0.003,-0.001,-0.000,-0.017,0.010,-0.026
2557320000,2557320000,-0.003,-0.001,-5.519e-05,0.035,-0.005,-0.025
2557420000,2557420000,-0.002,-0.003,-0.000,0.022,0.006,-0.033
2557520000,2557520000,-0.002,-0.005,-0.000,-0.003,0.023,0.008
2557620000,2557620000,-0.003,-0.003,-8.425e-05,0.030,0.025,-0.001
2557720000,2557720000,-0.003,-0.003,-0.000,0.008,-0.002,-0.027
2557820000,2557820000,-0.002,-0.001,-0.000,-0.013,0.010,-0.001
2557920000,2557920000,-0.001,-0.001,-0.000,0.020,0.039,-0.016
2558020000,2558020000,-0.000,-0.001,-8.684e-05,0.024,0.021,-0.011
2558120000,2558120000,-0.000,-0.001,-2.580e-05,0.005,-0.018,-0.027
2558220000,2558220000,-0.000,-0.001,3.019e-05,0.013,5.727e-05,-0.008
2558320000,2558320000,0.000,-0.000,-5.877e-05,0.026,-0.008,0.010
2558420000,2558420000,0.000,0.000,-0.000,-0.008,0.029,-0.000
2558520000,2558520000,0.000,0.000,-8.002e-05,-0.006,0.047,0.000
2558620000,2558620000,0.000,0.001,-0.000,0.003,0.048,0.022
2558720000,2558720000,0.000,0.001,0.000,0.028,-0.033,0.033
2558820000,2558820000,0.000,0.002,-1.021e-05,-0.005,0.027,0.007
2558920000,2558920000,0.001,0.003,-0.000,0.053,0.003,-0.015
2559020000,2559020000,0.000,0.004,0.000,-0.016,-0.003,0.021
2559120000,2559120000,0.000,0.002,-2.629e-05,0.016,-0.010,-0.010
2559220000,2559220000,0.000,0.001,6.970e-05,0.007,0.031,-0.010
2559320000,2559320000,0.000,0.001,-7.096e-05,0.016,0.001,-0.019
2559420000,2559420000,2.581e-05,0.002,0.000,0.005,0.061,-0.011
2559520000,2559520000,-0.000,0.001,5.475e-05,0.005,-0.033,-0.002
2559620000,2559620000,-0.002,0.000,-0.000,-0.024,-0.002,0.005
2559720000,2559720000,-0.003,0.002,0.000,0.005,0.001,0.024
2559820000,2559820000,-0.003,0.001,-8.226e-06,0.026,-0.065,0.004
2559920000,2559920000,-0.003,0.001,0.000,0.006,-0.015,-0.008
2560020000,2560020000,-0.003,0.001,-0.000,0.042,-0.004,-0.018
2560120000,2560120000,-0.003,0.000,-0.000,-0.012,0.032,-0.002
2560220000,2560220000,-0.003,0.001,-0.000,0.011,-0.024,0.005
2560320000,2560320000,-0.003,0.001,-0.000,-0.013,-0.017,-0.002
2560420000,2560420000,-0.003,0.001,1.613e-05,0.016,0.016,0.031
2560520000,2560520000,-0.002,0.000,-6.124e-05,-0.005,0.001,-0.017
2560620000,2560620000,-0.000,0.000,-7.434e-05,0.042,-0.020,0.012
2560720000,2560720000,0.000,-0.002,-7.830e-05,-0.011,-0.003,-0.025
2560820000,2560820000,0.001,-0.003,-6.603e-05,0.018,0.013,0.004
2560920000,2560920000,0.002,-0.005,-0.000,-0.008,-0.000,-0.019
2561020000,2561020000,0.002,-0.003,-0.000,-0.012,0.007,-0.031
2561120000,2561120000,0.003,-0.005,-0.000,-0.005,0.003,0.020
2561220000,2561220000,0.003,-0.003,-1.000e-05,0.037,0.021,0.016
2561320000,2561320000,0.003,-0.003,8.535e-05,-0.023,-0.020,0.005
2561420000,2561420000,0.003,-0.003,0.000,-0.017,-0.021,0.000
2561520000,2561520000,0.003,-0.002,4.259e-05,-0.018,0.006,-0.020
2561620000,2561620000,0.003,-0.003,3.665e-05,-0.035,0.025,-0.016
2561720000,2561720000,0.003,-0.002,8.531e-05,0.010,0.052,0.015
2561820000,2561820000,0.003,-0.001,5.940e-06,-0.007,0.000,-0.018
2561920000,2561920000,0.003,0.000,-0.000,-0.014,0.058,-0.030
2562020000,2562020000,0.003,0.002,0.000,-0.001,0.024,0.020
2562120000,2562120000,0.003,0.004,-0.000,-0.018,0.026,-0.029
2562220000,2562220000,0.003,0.003,0.000,0.017,-0.021,0.027
2562320000,2562320000,0.003,0.002,-0.000,0.054,-0.021,-0.021
2562420000,2562420000,0.003,0.001,0.000,-0.046,-0.056,0.021
2562520000,2562520000,0.002,-0.000,1.183e-05,0.016,0.006,-0.003
2562620000,2562620000,0.002,0.001,-9.755e-05,0.014,0.001,0.008
2562720000,2562720000,0.001,0.000,-0.000,-0.001,-0.013,-0.004
2562820000,2562820000,5.321e-05,9.375e-05,-0.000,0.010,-0.022,-0.009
2562920000,2562920000,7.600e-05,6.376e-05,-0.001,-0.000,-0.009,-0.020
2563020000,2563020000,0.000,9.276e-05,-0.000,-0.000,-0.000,-0.036
2563120000,2563120000,5.714e-06,0.000,-0.000,-0.005,-0.005,-0.031
2563220000,2563220000,0.000,0.000,-0.000,0.004,0.014,-0.010
2563320000,2563320000,-0.010,0.008,-0.000,-0.324,0.247,0.016
2563420000,2563420000,0.012,-0.008,-0.000,2.024,-1.253,-0.016
2563520000,2563520000,-0.000,0.000,-0.000,-1.106,0.475,0.000
2563620000,2563620000,0.000,0.000,-0.000,0.013,0.006,0.025
2563720000,2563720000,0.000,-5.050e-05,-0.000,0.026,-0.048,0.005
2563820000,2563820000,-0.000,0.000,-0.000,0.011,0.023,0.013
2563920000,2563920000,0.000,0.000,-0.001,0.000,0.019,-0.036
2564020000,2564020000,0.000,0.000,-0.000,-0.001,-7.446e-05,-0.013
2564120000,2564120000,0.000,0.000,-0.001,0.013,-0.034,-0.005
2564220000,2564220000,-2.862e-05,0.000,-0.000,-0.010,-0.016,-0.029
2564320000,2564320000,-0.000,0.000,-0.000,-0.021,0.012,-0.000
2564420000,2564420000,0.000,0.000,-0.000,-0.006,-0.007,0.034
2564520000,2564520000,0.000,0.000,-0.000,-0.001,0.000,0.027
2564620000,2564620000,0.000,4.801e-05,-0.000,-0.000,-0.027,0.006
2564720000,2564720000,0.000,9.698e-05,-0.000,0.001,-0.039,-0.012
2564820000,2564820000,-0.000,9.167e-05,-0.000,-0.001,-0.013,0.007
2564920000,2564920000,-0.000,0.000,-0.000,-0.021,0.018,-0.023
2565020000,2565020000,1.588e-05,0.000,-0.000,0.004,0.004,0.007
2565120000,2565120000,0.000,-6.040e-05,-0.000,0.035,-0.034,0.009
2565220000,2565220000,0.000,0.000,-0.000,-0.003,0.001,-0.023
