timestamp,yaw_sp_move_rate,q_d[0],q_d[1],q_d[2],q_d[3],thrust_body[0],thrust_body[1],thrust_body[2],reset_integral,fw_control_yaw_wheel
1204712000,0.0,0.748,0.0,0.0,0.663,0.0,0.0,-0.001,0,0
1204816000,0.0,0.748,0.0,0.0,0.663,0.0,0.0,-0.001,0,0
1204960000,0.0,0.748,0.0,0.0,0.663,0.0,0.0,-0.001,0,0
1205064000,0.0,0.748,0.0,0.0,0.663,0.0,0.0,-0.001,0,0
1205168000,0.0,0.748,0.0,0.0,0.663,0.0,0.0,-0.001,0,0
1205312000,0.0,0.748,0.0,0.0,0.663,0.0,0.0,-0.001,0,0
1205416000,0.0,0.748,0.0,0.0,0.663,0.0,0.0,-0.001,0,0
1205568000,0.0,0.748,0.0,0.0,0.663,0.0,0.0,-0.001,0,0
1205712000,0.0,0.748,0.0,0.0,0.663,0.0,0.0,-0.001,0,0
1205816000,0.0,0.748,0.0,0.0,0.663,0.0,0.0,-0.001,0,0
1205968000,0.0,0.748,0.0,0.0,0.663,0.0,0.0,-0.001,0,0
1206112000,0.0,0.748,0.0,0.0,0.663,0.0,0.0,-0.001,0,0
1206216000,0.0,0.748,0.0,0.0,0.663,0.0,0.0,-0.001,0,0
1206368000,0.0,0.748,0.0,0.0,0.663,0.0,0.0,-0.001,0,0
1206512000,0.0,0.748,0.0,0.0,0.663,0.0,0.0,-0.001,0,0
1206616000,0.0,0.748,0.0,0.0,0.663,0.0,0.0,-0.001,0,0
1206768000,0.0,0.748,0.0,0.0,0.663,0.0,0.0,-0.001,0,0
1206912000,0.0,0.748,0.0,0.0,0.663,0.0,0.0,-0.001,0,0
1207016000,0.0,0.748,0.0,0.0,0.663,0.0,0.0,-0.001,0,0
1207168000,0.0,0.748,0.0,0.0,0.663,0.0,0.0,-0.001,0,0
1207312000,0.0,0.748,0.0,0.0,0.663,0.0,0.0,-0.001,0,0
1207464000,0.0,0.748,0.0,0.0,0.663,0.0,0.0,-0.001,0,0
1207568000,0.0,0.748,0.0,0.0,0.663,0.0,0.0,-0.001,0,0
1207712000,0.0,0.748,0.0,0.0,0.663,0.0,0.0,-0.001,0,0
1207816000,0.0,0.748,0.0,0.0,0.663,0.0,0.0,-0.001,0,0
1207968000,0.0,0.748,0.0,0.0,0.663,0.0,0.0,-0.001,0,0
1208112000,0.0,0.748,0.0,0.0,0.663,0.0,0.0,-0.001,0,0
1208216000,0.0,0.748,0.0,0.0,0.663,0.0,0.0,-0.001,0,0
1208368000,0.0,0.748,0.0,0.0,0.663,0.0,0.0,-0.001,0,0
1208512000,0.0,0.747,0.0,0.0,0.663,0.0,0.0,-0.001,0,0
1208616000,0.0,0.747,0.0,0.0,0.663,0.0,0.0,-0.001,0,0
1208768000,0.0,0.747,0.0,0.0,0.663,0.0,0.0,-0.001,0,0
1208912000,0.0,0.747,0.0,0.0,0.663,0.0,0.0,-0.001,0,0
1209016000,0.0,0.747,0.0,0.0,0.663,0.0,0.0,-0.001,0,0
1209168000,0.0,0.747,0.0,0.0,0.663,0.0,0.0,-0.001,0,0
1209312000,0.0,0.747,0.0,0.0,0.664,0.0,0.0,-0.001,0,0
1209416000,0.0,0.747,-0.012,-0.016,0.663,0.0,0.0,-0.002,0,0
1209568000,0.0,0.747,-0.000,-0.000,0.664,0.0,0.0,-0.019,0,0
1209712000,0.0,0.747,-0.000,-0.000,0.664,0.0,0.0,-0.033,0,0
1209816000,0.0,0.747,-0.000,0.000,0.664,0.0,0.0,-0.049,0,0
1209968000,0.0,0.747,-0.000,0.000,0.664,0.0,0.0,-0.099,0,0
1210112000,0.0,0.747,-0.000,0.000,0.664,0.0,0.0,-0.134,0,0
1210216000,0.0,0.747,-8.638e-05,0.000,0.664,0.0,0.0,-0.162,0,0
1210368000,0.0,0.747,-0.000,0.000,0.664,0.0,0.0,-0.205,0,0
1210512000,0.0,0.747,-0.000,0.000,0.664,0.0,0.0,-0.250,0,0
1210616000,0.0,0.747,-0.000,0.000,0.664,0.0,0.0,-0.285,0,0
1210716000,0.0,0.747,-4.387e-05,0.001,0.664,0.0,0.0,-0.319,0,0
1210816000,0.0,0.747,-1.983e-05,0.001,0.664,0.0,0.0,-0.357,0,0
1210968000,0.0,0.747,-0.000,0.001,0.664,0.0,0.0,-0.417,0,0
1211112000,0.0,0.747,-0.000,0.001,0.664,0.0,0.0,-0.477,0,0
1211216000,0.0,0.747,-2.514e-05,0.001,0.664,0.0,0.0,-0.523,0,0
1211368000,0.0,0.747,0.000,0.001,0.664,0.0,0.0,-0.594,0,0
1211512000,0.0,0.747,0.000,0.002,0.664,0.0,0.0,-0.665,0,0
1211616000,0.0,0.747,0.000,0.002,0.664,0.0,0.0,-0.697,0,0
1211716000,0.0,0.747,0.000,0.002,0.664,0.0,0.0,-0.712,0,0
1211816000,0.0,0.747,0.000,0.003,0.664,0.0,0.0,-0.727,0,0
1211968000,0.0,0.747,0.000,0.003,0.664,0.0,0.0,-0.750,0,0
1212112000,0.0,0.747,0.000,0.004,0.664,0.0,0.0,-0.772,0,0
1212216000,0.0,0.747,0.001,0.004,0.664,0.0,0.0,-0.788,0,0
1212368000,0.0,0.747,0.001,0.005,0.664,0.0,0.0,-0.811,0,0
1212512000,0.0,0.747,0.001,0.005,0.664,0.0,0.0,-0.832,0,0
1212616000,0.0,0.747,0.001,0.005,0.664,0.0,0.0,-0.848,0,0
1212768000,0.0,0.747,0.001,0.005,0.664,0.0,0.0,-0.870,0,0
1212912000,0.0,0.747,0.002,0.004,0.664,0.0,0.0,-0.883,0,0
1213016000,0.0,0.747,0.002,0.004,0.664,0.0,0.0,-0.888,0,0
1213168000,0.0,0.747,0.002,0.004,0.664,0.0,0.0,-0.890,0,0
1213312000,0.0,0.747,0.002,0.004,0.664,0.0,0.0,-0.890,0,0
1213416000,0.0,0.747,0.002,0.004,0.664,0.0,0.0,-0.889,0,0
1213568000,0.0,0.747,0.003,0.003,0.664,0.0,0.0,-0.888,0,0
1213712000,0.0,0.747,0.003,0.003,0.664,0.0,0.0,-0.886,0,0
1213816000,0.0,0.747,0.003,0.004,0.664,0.0,0.0,-0.885,0,0
1213968000,0.0,0.747,0.004,0.004,0.664,0.0,0.0,-0.883,0,0
1214112000,0.0,0.747,0.004,0.004,0.664,0.0,0.0,-0.882,0,0
1214216000,0.0,0.747,0.005,0.004,0.664,0.0,0.0,-0.881,0,0
1214368000,0.0,0.747,0.005,0.004,0.664,0.0,0.0,-0.879,0,0
1214512000,0.0,0.747,0.005,0.004,0.664,0.0,0.0,-0.878,0,0
1214616000,0.0,0.747,0.005,0.005,0.664,0.0,0.0,-0.878,0,0
1214768000,0.0,0.747,0.006,0.005,0.664,0.0,0.0,-0.877,0,0
1214912000,0.0,0.747,0.006,0.005,0.664,0.0,0.0,-0.876,0,0
1215016000,0.0,0.747,0.006,0.005,0.664,0.0,0.0,-0.876,0,0
1215168000,0.0,0.747,0.006,0.005,0.664,0.0,0.0,-0.876,0,0
1215312000,0.0,0.747,0.006,0.005,0.664,0.0,0.0,-0.875,0,0
1215416000,0.0,0.747,0.006,0.005,0.664,0.0,0.0,-0.875,0,0
1215568000,0.0,0.747,0.006,0.004,0.664,0.0,0.0,-0.874,0,0
1215712000,0.0,0.747,0.006,0.004,0.664,0.0,0.0,-0.873,0,0
1215816000,0.0,0.747,0.005,0.004,0.664,0.0,0.0,-0.873,0,0
1215968000,0.0,0.747,0.005,0.005,0.664,0.0,0.0,-0.872,0,0
1216112000,0.0,0.747,0.005,0.005,0.664,0.0,0.0,-0.871,0,0
1216216000,0.0,0.747,0.005,0.005,0.664,0.0,0.0,-0.871,0,0
1216368000,0.0,0.747,0.005,0.005,0.664,0.0,0.0,-0.870,0,0
1216512000,0.0,0.747,0.005,0.004,0.664,0.0,0.0,-0.870,0,0
1216616000,0.0,0.747,0.005,0.004,0.664,0.0,0.0,-0.869,0,0
1216768000,0.0,0.747,0.005,0.004,0.664,0.0,0.0,-0.869,0,0
1216912000,0.0,0.747,0.005,0.005,0.664,0.0,0.0,-0.869,0,0
1217016000,0.0,0.747,0.005,0.005,0.664,0.0,0.0,-0.869,0,0
1217168000,0.0,0.747,0.005,0.005,0.664,0.0,0.0,-0.868,0,0
1217312000,0.0,0.747,0.005,0.005,0.664,0.0,0.0,-0.868,0,0
1217416000,0.0,0.747,0.005,0.005,0.664,0.0,0.0,-0.868,0,0
1217568000,0.0,0.747,0.005,0.005,0.664,0.0,0.0,-0.868,0,0
1217712000,0.0,0.747,0.005,0.005,0.664,0.0,0.0,-0.868,0,0
1217816000,0.0,0.747,0.005,0.005,0.664,0.0,0.0,-0.868,0,0
1217968000,0.0,0.747,0.005,0.005,0.664,0.0,0.0,-0.877,0,0
1218112000,0.0,0.747,0.005,0.005,0.664,0.0,0.0,-0.888,0,0
1218216000,0.0,0.747,0.005,0.005,0.664,0.0,0.0,-0.891,0,0
1218368000,0.0,0.747,0.006,0.005,0.664,0.0,0.0,-0.891,0,0
1218512000,0.0,0.747,0.006,0.005,0.664,0.0,0.0,-0.885,0,0
1218616000,0.0,0.747,0.006,0.005,0.664,0.0,0.0,-0.890,0,0
1218768000,0.0,0.747,0.006,0.005,0.664,0.0,0.0,-0.892,0,0
1218912000,0.0,0.747,0.005,0.005,0.664,0.0,0.0,-0.888,0,0
1219016000,0.0,0.747,0.005,0.005,0.664,0.0,0.0,-0.892,0,0
1219168000,0.0,0.747,0.005,0.004,0.664,0.0,0.0,-0.894,0,0
1219312000,0.0,0.747,0.005,0.004,0.664,0.0,0.0,-0.890,0,0
1219416000,0.0,0.747,0.004,0.004,0.664,0.0,0.0,-0.895,0,0
1219568000,0.0,0.747,0.004,0.004,0.664,0.0,0.0,-0.898,0,0
1219712000,0.0,0.747,0.004,0.003,0.664,0.0,0.0,-0.894,0,0
1219816000,0.0,0.747,0.004,0.003,0.664,0.0,0.0,-0.899,0,0
1219968000,0.0,0.747,0.004,0.003,0.664,0.0,0.0,-0.902,0,0
1220112000,0.0,0.747,0.004,0.003,0.664,0.0,0.0,-0.898,0,0
1220216000,0.0,0.747,0.005,0.004,0.664,0.0,0.0,-0.846,0,0
1220368000,0.0,0.747,0.005,0.004,0.664,0.0,0.0,-0.857,0,0
1220512000,0.0,0.747,0.006,0.004,0.664,0.0,0.0,-0.863,0,0
1220616000,0.0,0.747,0.006,0.004,0.664,0.0,0.0,-0.865,0,0
1220768000,0.0,0.747,0.006,0.004,0.664,0.0,0.0,-0.866,0,0
1220912000,0.0,0.747,0.006,0.004,0.664,0.0,0.0,-0.866,0,0
1221016000,0.0,0.747,0.006,0.004,0.664,0.0,0.0,-0.866,0,0
1221168000,0.0,0.747,0.006,0.004,0.664,0.0,0.0,-0.866,0,0
1221312000,0.0,0.747,0.006,0.005,0.664,0.0,0.0,-0.866,0,0
1221416000,0.0,0.747,0.006,0.005,0.664,0.0,0.0,-0.866,0,0
1221568000,0.0,0.747,0.006,0.005,0.664,0.0,0.0,-0.866,0,0
1221712000,0.0,0.747,0.006,0.005,0.664,0.0,0.0,-0.867,0,0
1221816000,0.0,0.747,0.006,0.004,0.664,0.0,0.0,-0.867,0,0
1221968000,0.0,0.747,0.006,0.004,0.664,0.0,0.0,-0.867,0,0
1222112000,0.0,0.747,0.005,0.004,0.664,0.0,0.0,-0.866,0,0
1222216000,0.0,0.747,0.005,0.004,0.664,0.0,0.0,-0.866,0,0
1222368000,0.0,0.747,0.005,0.005,0.664,0.0,0.0,-0.866,0,0
1222512000,0.0,0.747,0.005,0.005,0.664,0.0,0.0,-0.866,0,0
1222612000,0.0,0.747,0.004,0.005,0.664,0.0,0.0,-0.866,0,0
1222712000,0.0,0.747,0.004,0.005,0.664,0.0,0.0,-0.866,0,0
1222816000,0.0,0.747,0.004,0.005,0.664,0.0,0.0,-0.866,0,0
1222968000,0.0,0.747,0.004,0.005,0.664,0.0,0.0,-0.870,0,0
1223112000,0.0,0.747,0.004,0.005,0.664,0.0,0.0,-0.868,0,0
1223216000,0.0,0.747,0.004,0.005,0.664,0.0,0.0,-0.867,0,0
1223368000,0.0,0.747,0.004,0.005,0.664,0.0,0.0,-0.790,0,0
1223512000,0.0,0.747,0.004,0.005,0.664,0.0,0.0,-0.762,0,0
1223616000,0.0,0.747,0.005,0.005,0.664,0.0,0.0,-0.752,0,0
1223768000,0.0,0.747,0.005,0.005,0.664,0.0,0.0,-0.753,0,0
1223912000,0.0,0.747,0.005,0.005,0.664,0.0,0.0,-0.753,0,0
1224016000,0.0,0.747,0.005,0.005,0.664,0.0,0.0,-0.763,0,0
1224168000,0.0,0.747,0.005,0.005,0.664,0.0,0.0,-0.787,0,0
1224312000,0.0,0.747,0.006,0.005,0.664,0.0,0.0,-0.802,0,0
1224416000,0.0,0.747,0.006,0.005,0.664,0.0,0.0,-0.849,0,0
1224568000,0.0,0.747,0.005,0.004,0.664,0.0,0.0,-0.892,0,0
1224712000,0.0,0.747,0.005,0.004,0.664,0.0,0.0,-0.874,0,0
1224864000,0.0,0.747,0.004,0.004,0.664,0.0,0.0,-0.865,0,0
1224968000,0.0,0.747,0.004,0.004,0.664,0.0,0.0,-0.862,0,0
1225112000,0.0,0.747,0.004,0.004,0.664,0.0,0.0,-0.861,0,0
1225216000,0.0,0.747,0.004,0.004,0.664,0.0,0.0,-0.860,0,0
1225368000,0.0,0.747,0.005,0.004,0.664,0.0,0.0,-0.860,0,0
1225512000,0.0,0.747,0.005,0.005,0.664,0.0,0.0,-0.789,0,0
1225616000,0.0,0.747,0.005,0.005,0.664,0.0,0.0,-0.770,0,0
1225768000,0.0,0.747,0.005,0.005,0.664,0.0,0.0,-0.808,0,0
1225912000,0.0,0.747,0.005,0.005,0.664,0.0,0.0,-0.838,0,0
1226016000,0.0,0.747,0.005,0.005,0.664,0.0,0.0,-0.865,0,0
1226168000,0.0,0.747,0.006,0.005,0.664,0.0,0.0,-0.868,0,0
1226312000,0.0,0.747,0.006,0.005,0.664,0.0,0.0,-0.843,0,0
1226416000,0.0,0.747,0.006,0.005,0.664,0.0,0.0,-0.813,0,0
1226560000,0.0,0.747,0.006,0.005,0.664,0.0,0.0,-0.873,0,0
1226664000,0.0,0.747,0.006,0.005,0.664,0.0,0.0,-0.871,0,0
1226768000,0.0,0.747,0.006,0.005,0.664,0.0,0.0,-0.870,0,0
1226912000,0.0,0.747,0.006,0.005,0.664,0.0,0.0,-0.868,0,0
1227016000,0.0,0.747,0.006,0.006,0.664,0.0,0.0,-0.867,0,0
1227168000,0.0,0.747,0.006,0.006,0.664,0.0,0.0,-0.866,0,0
1227312000,0.0,0.747,0.007,0.005,0.664,0.0,0.0,-0.866,0,0
1227416000,0.0,0.747,0.007,0.006,0.664,0.0,0.0,-0.866,0,0
1227568000,0.0,0.747,0.007,0.006,0.664,0.0,0.0,-0.865,0,0
1227712000,0.0,0.747,0.008,0.006,0.664,0.0,0.0,-0.865,0,0
1227816000,0.0,0.747,0.008,0.006,0.664,0.0,0.0,-0.865,0,0
1227968000,0.0,0.747,0.008,0.006,0.664,0.0,0.0,-0.865,0,0
1228112000,0.0,0.747,0.007,0.006,0.664,0.0,0.0,-0.865,0,0
1228216000,0.0,0.747,0.008,0.006,0.664,0.0,0.0,-0.865,0,0
1228368000,0.0,0.747,0.008,0.006,0.664,0.0,0.0,-0.865,0,0
1228512000,0.0,0.747,0.007,0.006,0.664,0.0,0.0,-0.865,0,0
1228616000,0.0,0.747,0.007,0.005,0.664,0.0,0.0,-0.865,0,0
1228768000,0.0,0.747,0.007,0.005,0.664,0.0,0.0,-0.865,0,0
1228912000,0.0,0.747,0.007,0.005,0.664,0.0,0.0,-0.865,0,0
1229016000,0.0,0.747,0.007,0.005,0.664,0.0,0.0,-0.865,0,0
1229168000,0.0,0.747,0.006,0.004,0.664,0.0,0.0,-0.865,0,0
1229312000,0.0,0.747,0.006,0.004,0.664,0.0,0.0,-0.865,0,0
1229416000,0.0,0.747,0.006,0.004,0.664,0.0,0.0,-0.865,0,0
1229568000,0.0,0.747,0.006,0.005,0.664,0.0,0.0,-0.865,0,0
1229712000,0.0,0.747,0.005,0.005,0.664,0.0,0.0,-0.865,0,0
1229816000,0.0,0.747,0.005,0.005,0.664,0.0,0.0,-0.865,0,0
1229968000,0.0,0.747,0.005,0.004,0.664,0.0,0.0,-0.865,0,0
1230112000,0.0,0.747,0.005,0.004,0.664,0.0,0.0,-0.865,0,0
1230216000,0.0,0.747,0.005,0.004,0.664,0.0,0.0,-0.865,0,0
1230368000,0.0,0.747,0.005,0.004,0.664,0.0,0.0,-0.864,0,0
1230512000,0.0,0.747,0.005,0.004,0.664,0.0,0.0,-0.864,0,0
1230616000,0.0,0.747,0.005,0.004,0.664,0.0,0.0,-0.864,0,0
1230768000,0.0,0.747,0.005,0.004,0.664,0.0,0.0,-0.864,0,0
1230912000,0.0,0.747,0.006,0.004,0.664,0.0,0.0,-0.865,0,0
1231016000,0.0,0.747,0.006,0.005,0.664,0.0,0.0,-0.865,0,0
1231168000,0.0,0.747,0.006,0.005,0.664,0.0,0.0,-0.865,0,0
1231312000,0.0,0.747,0.006,0.004,0.664,0.0,0.0,-0.865,0,0
1231416000,0.0,0.747,0.006,0.004,0.664,0.0,0.0,-0.865,0,0
1231568000,0.0,0.747,0.005,0.004,0.664,0.0,0.0,-0.865,0,0
1231712000,0.0,0.747,0.005,0.004,0.664,0.0,0.0,-0.865,0,0
1231816000,0.0,0.747,0.005,0.004,0.664,0.0,0.0,-0.865,0,0
1231968000,0.0,0.747,0.005,0.004,0.664,0.0,0.0,-0.865,0,0
1232112000,0.0,0.747,0.005,0.004,0.664,0.0,0.0,-0.864,0,0
1232216000,0.0,0.747,0.005,0.004,0.664,0.0,0.0,-0.864,0,0
1232368000,0.0,0.747,0.005,0.005,0.664,0.0,0.0,-0.864,0,0
1232512000,0.0,0.747,0.006,0.005,0.664,0.0,0.0,-0.864,0,0
1232616000,0.0,0.747,0.006,0.005,0.664,0.0,0.0,-0.864,0,0
1232768000,0.0,0.747,0.006,0.005,0.664,0.0,0.0,-0.864,0,0
1232912000,0.0,0.747,0.006,0.005,0.664,0.0,0.0,-0.864,0,0
1233064000,0.0,0.747,0.006,0.005,0.664,0.0,0.0,-0.864,0,0
1233168000,0.0,0.747,0.006,0.005,0.664,0.0,0.0,-0.865,0,0
1233312000,0.0,0.747,0.006,0.005,0.664,0.0,0.0,-0.865,0,0
1233416000,0.0,0.747,0.006,0.005,0.664,0.0,0.0,-0.865,0,0
1233568000,0.0,0.747,0.005,0.005,0.664,0.0,0.0,-0.865,0,0
1233712000,0.0,0.747,0.005,0.005,0.664,0.0,0.0,-0.865,0,0
1233816000,0.0,0.747,0.004,0.005,0.664,0.0,0.0,-0.865,0,0
1233968000,0.0,0.747,0.004,0.005,0.664,0.0,0.0,-0.864,0,0
1234112000,0.0,0.747,0.004,0.005,0.664,0.0,0.0,-0.864,0,0
1234216000,0.0,0.747,0.004,0.005,0.664,0.0,0.0,-0.864,0,0
1234368000,0.0,0.747,0.003,0.005,0.664,0.0,0.0,-0.864,0,0
1234512000,0.0,0.747,0.003,0.005,0.664,0.0,0.0,-0.865,0,0
1234616000,0.0,0.747,0.003,0.005,0.664,0.0,0.0,-0.865,0,0
1234768000,0.0,0.747,0.003,0.005,0.664,0.0,0.0,-0.865,0,0
1234912000,0.0,0.747,0.003,0.004,0.664,0.0,0.0,-0.865,0,0
1235016000,0.0,0.747,0.003,0.004,0.664,0.0,0.0,-0.866,0,0
1235168000,0.0,0.747,0.003,0.004,0.664,0.0,0.0,-0.866,0,0
1235312000,0.0,0.747,0.000,-0.001,0.663,0.0,0.0,-0.866,0,0
1235416000,0.0,0.747,0.000,-0.001,0.663,0.0,0.0,-0.866,0,0
1235568000,0.0,0.747,0.000,-0.001,0.663,0.0,0.0,-0.866,0,0
1235712000,0.0,0.747,0.000,-0.001,0.663,0.0,0.0,-0.866,0,0
1235816000,0.0,0.747,0.000,-0.001,0.663,0.0,0.0,-0.865,0,0
1235968000,0.0,0.747,0.000,-0.001,0.663,0.0,0.0,-0.865,0,0
1236112000,0.0,0.747,0.000,-0.001,0.663,0.0,0.0,-0.864,0,0
1236216000,0.0,0.747,0.000,-0.001,0.663,0.0,0.0,-0.864,0,0
1236368000,0.0,0.747,0.000,-0.001,0.663,0.0,0.0,-0.864,0,0
1236512000,0.0,0.747,0.000,-0.001,0.663,0.0,0.0,-0.864,0,0
1236616000,0.0,0.747,0.000,-0.001,0.663,0.0,0.0,-0.864,0,0
1236768000,0.0,0.747,0.000,-0.001,0.663,0.0,0.0,-0.864,0,0
1236912000,0.0,0.747,0.000,-0.001,0.663,0.0,0.0,-0.864,0,0
1237064000,0.0,0.747,0.000,-0.001,0.663,0.0,0.0,-0.864,0,0
1237216000,0.0,0.747,0.000,-0.001,0.663,0.0,0.0,-0.864,0,0
1237368000,0.0,0.747,0.000,-0.001,0.663,0.0,0.0,-0.864,0,0
1237512000,0.0,0.747,0.000,-0.001,0.663,0.0,0.0,-0.864,0,0
1237616000,0.0,0.747,0.000,-0.001,0.663,0.0,0.0,-0.864,0,0
1237768000,0.0,0.747,0.000,-0.001,0.663,0.0,0.0,-0.865,0,0
1237912000,0.0,0.747,0.000,-0.001,0.663,0.0,0.0,-0.865,0,0
1238016000,0.0,0.747,0.000,-0.001,0.663,0.0,0.0,-0.865,0,0
1238168000,0.0,0.747,0.000,-0.001,0.663,0.0,0.0,-0.865,0,0
1238312000,0.0,0.747,0.000,-0.001,0.663,0.0,0.0,-0.865,0,0
1238416000,0.0,0.747,0.000,-0.001,0.663,0.0,0.0,-0.865,0,0
1238560000,0.0,0.747,0.000,-0.001,0.663,0.0,0.0,-0.865,0,0
1238664000,0.0,0.747,0.000,-0.001,0.663,0.0,0.0,-0.865,0,0
1238768000,0.0,0.747,0.000,-0.001,0.663,0.0,0.0,-0.865,0,0
1238912000,0.0,0.747,0.000,-0.001,0.663,0.0,0.0,-0.865,0,0
1239016000,0.0,0.747,0.000,-0.001,0.663,0.0,0.0,-0.865,0,0
1239168000,0.0,0.747,0.000,-0.001,0.663,0.0,0.0,-0.864,0,0
1239312000,0.0,0.747,-0.012,-0.012,0.663,0.0,0.0,-0.865,0,0
1239416000,0.0,0.746,-0.045,-0.041,0.662,0.0,0.0,-0.869,0,0
1239568000,0.0,0.731,-0.154,-0.139,0.649,0.0,0.0,-0.922,0,0
1239712000,0.0,0.730,-0.161,-0.144,0.648,0.0,0.0,-0.879,0,0
1239816000,0.0,0.730,-0.161,-0.144,0.648,0.0,0.0,-0.864,0,0
1239968000,0.0,0.730,-0.161,-0.144,0.648,0.0,0.0,-0.859,0,0
1240112000,0.0,0.730,-0.161,-0.144,0.648,0.0,0.0,-0.865,0,0
1240216000,0.0,0.730,-0.161,-0.144,0.648,0.0,0.0,-0.874,0,0
1240368000,0.0,0.730,-0.161,-0.144,0.648,0.0,0.0,-0.888,0,0
1240512000,0.0,0.730,-0.161,-0.144,0.648,0.0,0.0,-0.900,0,0
1240616000,0.0,0.729,-0.161,-0.144,0.649,0.0,0.0,-0.907,0,0
1240768000,0.0,0.739,-0.082,-0.076,0.663,0.0,0.0,-0.851,0,0
1240912000,0.0,0.743,0.000,-0.001,0.668,0.0,0.0,-0.890,0,0
1241016000,0.0,0.743,0.000,-0.001,0.669,0.0,0.0,-0.914,0,0
1241168000,0.0,0.742,0.000,-0.001,0.669,0.0,0.0,-0.918,0,0
1241312000,0.0,0.741,0.000,-0.001,0.670,0.0,0.0,-0.905,0,0
1241416000,0.0,0.741,0.000,-0.001,0.671,0.0,0.0,-0.894,0,0
1241568000,0.0,0.740,0.000,-0.001,0.672,0.0,0.0,-0.880,0,0
1241712000,0.0,0.739,0.000,-0.001,0.673,0.0,0.0,-0.871,0,0
1241816000,0.0,0.739,0.000,-0.001,0.673,0.0,0.0,-0.866,0,0
1241968000,0.0,0.739,0.000,-0.001,0.673,0.0,0.0,-0.862,0,0
1242112000,0.0,0.738,0.037,0.031,0.672,0.0,0.0,-0.864,0,0
1242216000,0.0,0.721,0.160,0.144,0.657,0.0,0.0,-0.939,0,0
1242368000,0.0,0.721,0.160,0.145,0.657,0.0,0.0,-0.877,0,0
1242516000,0.0,0.721,0.160,0.145,0.657,0.0,0.0,-0.857,0,0
1242616000,0.0,0.721,0.160,0.145,0.657,0.0,0.0,-0.854,0,0
1242768000,0.0,0.721,0.160,0.145,0.657,0.0,0.0,-0.860,0,0
1242912000,0.0,0.721,0.160,0.145,0.657,0.0,0.0,-0.871,0,0
1243016000,0.0,0.721,0.160,0.145,0.657,0.0,0.0,-0.880,0,0
1243168000,0.0,0.721,0.160,0.145,0.657,0.0,0.0,-0.893,0,0
1243312000,0.0,0.721,0.160,0.145,0.657,0.0,0.0,-0.904,0,0
1243416000,0.0,0.721,0.160,0.144,0.657,0.0,0.0,-0.910,0,0
1243568000,0.0,0.739,0.000,-0.001,0.673,0.0,0.0,-0.874,0,0
1243712000,0.0,0.739,0.000,-0.001,0.673,0.0,0.0,-0.911,0,0
1243816000,0.0,0.739,0.000,-0.001,0.673,0.0,0.0,-0.916,0,0
1243968000,0.0,0.739,0.000,-0.001,0.673,0.0,0.0,-0.907,0,0
1244112000,0.0,0.739,0.000,-0.001,0.673,0.0,0.0,-0.893,0,0
1244216000,0.0,0.739,0.000,-0.001,0.673,0.0,0.0,-0.883,0,0
1244368000,0.0,0.739,0.000,-0.001,0.673,0.0,0.0,-0.872,0,0
1244512000,0.0,0.739,0.000,-0.001,0.673,0.0,0.0,-0.866,0,0
1244616000,0.0,0.739,0.000,-0.001,0.673,0.0,0.0,-0.864,0,0
1244768000,0.0,0.739,0.000,-0.001,0.673,0.0,0.0,-0.863,0,0
1244912000,0.0,0.739,0.000,-0.001,0.673,0.0,0.0,-0.863,0,0
1245012000,0.0,0.739,0.000,-0.001,0.673,0.0,0.0,-0.863,0,0
1245116000,0.0,0.739,-0.003,-0.005,0.673,0.0,0.0,-0.863,0,0
1245268000,0.0,0.721,-0.159,-0.146,0.657,0.0,0.0,-0.920,0,0
1245412000,0.0,0.721,-0.159,-0.146,0.657,0.0,0.0,-0.872,0,0
1245516000,0.0,0.721,-0.159,-0.146,0.657,0.0,0.0,-0.859,0,0
1245668000,0.0,0.721,-0.159,-0.146,0.657,0.0,0.0,-0.857,0,0
1245812000,0.0,0.721,-0.159,-0.146,0.657,0.0,0.0,-0.864,0,0
1245916000,0.0,0.721,-0.159,-0.146,0.657,0.0,0.0,-0.873,0,0
1246068000,0.0,0.721,-0.159,-0.146,0.657,0.0,0.0,-0.888,0,0
1246212000,0.0,0.721,-0.159,-0.146,0.657,0.0,0.0,-0.901,0,0
1246316000,0.0,0.721,-0.159,-0.146,0.657,0.0,0.0,-0.908,0,0
1246468000,0.0,0.721,-0.159,-0.146,0.657,0.0,0.0,-0.917,0,0
1246612000,0.0,0.721,-0.159,-0.146,0.657,0.0,0.0,-0.923,0,0
1246716000,0.0,0.739,-0.000,-0.002,0.673,0.0,0.0,-0.843,0,0
1246868000,0.0,0.739,0.000,-0.001,0.673,0.0,0.0,-0.906,0,0
1247012000,0.0,0.739,0.000,-0.001,0.673,0.0,0.0,-0.922,0,0
1247116000,0.0,0.739,0.000,-0.001,0.673,0.0,0.0,-0.917,0,0
1247268000,0.0,0.739,0.000,-0.001,0.673,0.0,0.0,-0.901,0,0
1247412000,0.0,0.739,0.000,-0.001,0.673,0.0,0.0,-0.885,0,0
1247516000,0.0,0.739,0.000,-0.001,0.673,0.0,0.0,-0.876,0,0
1247668000,0.0,0.739,0.000,-0.001,0.673,0.0,0.0,-0.868,0,0
1247812000,0.0,0.739,0.000,-0.001,0.673,0.0,0.0,-0.863,0,0
1247916000,0.0,0.739,0.000,-0.001,0.673,0.0,0.0,-0.861,0,0
1248068000,0.0,0.739,0.000,-0.001,0.673,0.0,0.0,-0.860,0,0
1248212000,0.0,0.738,0.035,0.030,0.672,0.0,0.0,-0.863,0,0
1248316000,0.0,0.723,0.149,0.134,0.659,0.0,0.0,-0.917,0,0
1248468000,0.0,0.721,0.160,0.145,0.657,0.0,0.0,-0.874,0,0
1248612000,0.0,0.721,0.160,0.145,0.657,0.0,0.0,-0.856,0,0
1248716000,0.0,0.721,0.160,0.145,0.657,0.0,0.0,-0.854,0,0
1248868000,0.0,0.721,0.160,0.145,0.657,0.0,0.0,-0.860,0,0
1249012000,0.0,0.721,0.160,0.145,0.657,0.0,0.0,-0.871,0,0
1249116000,0.0,0.721,0.160,0.145,0.657,0.0,0.0,-0.880,0,0
1249268000,0.0,0.721,0.160,0.145,0.657,0.0,0.0,-0.893,0,0
1249412000,0.0,0.721,0.160,0.145,0.657,0.0,0.0,-0.903,0,0
1249516000,0.0,0.733,0.088,0.078,0.668,0.0,0.0,-0.851,0,0
1249668000,0.0,0.739,0.000,-0.001,0.673,0.0,0.0,-0.892,0,0
1249812000,0.0,0.739,0.000,-0.001,0.673,0.0,0.0,-0.915,0,0
1249916000,0.0,0.739,0.000,-0.001,0.673,0.0,0.0,-0.914,0,0
1250068000,0.0,0.739,0.000,-0.001,0.673,0.0,0.0,-0.901,0,0
1250212000,0.0,0.739,0.000,-0.001,0.673,0.0,0.0,-0.887,0,0
1250316000,0.0,0.739,0.000,-0.001,0.673,0.0,0.0,-0.879,0,0
1250468000,0.0,0.739,0.000,-0.001,0.673,0.0,0.0,-0.871,0,0
1250612000,0.0,0.739,0.000,-0.001,0.673,0.0,0.0,-0.867,0,0
1250716000,0.0,0.739,0.000,-0.001,0.673,0.0,0.0,-0.865,0,0
1250868000,0.0,0.739,-0.004,-0.005,0.673,0.0,0.0,-0.864,0,0
1251012000,0.0,0.721,-0.159,-0.146,0.657,0.0,0.0,-0.939,0,0
1251116000,0.0,0.721,-0.159,-0.146,0.657,0.0,0.0,-0.892,0,0
1251268000,0.0,0.721,-0.159,-0.146,0.657,0.0,0.0,-0.862,0,0
1251412000,0.0,0.721,-0.159,-0.146,0.657,0.0,0.0,-0.857,0,0
1251516000,0.0,0.721,-0.159,-0.146,0.657,0.0,0.0,-0.860,0,0
1251668000,0.0,0.721,-0.159,-0.146,0.657,0.0,0.0,-0.872,0,0
1251812000,0.0,0.721,-0.159,-0.146,0.657,0.0,0.0,-0.885,0,0
1251916000,0.0,0.721,-0.159,-0.146,0.657,0.0,0.0,-0.895,0,0
1252068000,0.0,0.721,-0.159,-0.146,0.657,0.0,0.0,-0.907,0,0
1252212000,0.0,0.721,-0.159,-0.146,0.657,0.0,0.0,-0.916,0,0
1252316000,0.0,0.721,-0.159,-0.146,0.657,0.0,0.0,-0.920,0,0
1252468000,0.0,0.721,-0.159,-0.146,0.657,0.0,0.0,-0.923,0,0
1252612000,0.0,0.739,-9.270e-05,-0.001,0.673,0.0,0.0,-0.873,0,0
1252716000,0.0,0.739,-9.270e-05,-0.001,0.673,0.0,0.0,-0.907,0,0
1252868000,0.0,0.739,-9.270e-05,-0.001,0.673,0.0,0.0,-0.921,0,0
1253012000,0.0,0.739,-9.270e-05,-0.001,0.673,0.0,0.0,-0.911,0,0
1253116000,0.0,0.739,-9.270e-05,-0.001,0.673,0.0,0.0,-0.899,0,0
1253268000,0.0,0.739,-9.270e-05,-0.001,0.673,0.0,0.0,-0.883,0,0
1253412000,0.0,0.739,-9.270e-05,-0.001,0.673,0.0,0.0,-0.872,0,0
1253516000,0.0,0.739,0.000,-0.001,0.673,0.0,0.0,-0.867,0,0
1253668000,0.0,0.739,0.009,0.007,0.673,0.0,0.0,-0.863,0,0
1253812000,0.0,0.736,0.066,0.059,0.670,0.0,0.0,-0.872,0,0
1253916000,0.0,0.721,0.160,0.144,0.657,0.0,0.0,-0.907,0,0
1254068000,0.0,0.721,0.160,0.145,0.657,0.0,0.0,-0.864,0,0
1254212000,0.0,0.721,0.160,0.145,0.657,0.0,0.0,-0.853,0,0
1254316000,0.0,0.721,0.160,0.145,0.657,0.0,0.0,-0.854,0,0
1254468000,0.0,0.721,0.160,0.145,0.657,0.0,0.0,-0.863,0,0
1254612000,0.0,0.721,0.160,0.145,0.657,0.0,0.0,-0.875,0,0
1254716000,0.0,0.721,0.160,0.145,0.657,0.0,0.0,-0.885,0,0
1254868000,0.0,0.721,0.160,0.145,0.657,0.0,0.0,-0.897,0,0
1255012000,0.0,0.721,0.160,0.145,0.657,0.0,0.0,-0.907,0,0
1255116000,0.0,0.721,0.160,0.145,0.657,0.0,0.0,-0.911,0,0
1255268000,0.0,0.721,0.160,0.144,0.657,0.0,0.0,-0.916,0,0
1255412000,0.0,0.739,0.000,-0.001,0.673,0.0,0.0,-0.866,0,0
1255516000,0.0,0.739,0.000,-0.001,0.673,0.0,0.0,-0.901,0,0
1255668000,0.0,0.739,0.000,-0.001,0.673,0.0,0.0,-0.916,0,0
1255816000,0.0,0.739,0.000,-0.001,0.673,0.0,0.0,-0.907,0,0
1255916000,0.0,0.739,0.000,-0.001,0.673,0.0,0.0,-0.897,0,0
1256068000,0.0,0.739,0.000,-0.001,0.673,0.0,0.0,-0.882,0,0
1256212000,0.0,0.739,0.000,-0.001,0.673,0.0,0.0,-0.872,0,0
1256316000,0.0,0.739,0.000,-0.001,0.673,0.0,0.0,-0.868,0,0
1256468000,0.0,0.739,0.000,-0.001,0.673,0.0,0.0,-0.864,0,0
1256612000,0.0,0.739,0.000,-0.001,0.673,0.0,0.0,-0.862,0,0
1256716000,0.0,0.739,0.000,-0.001,0.673,0.0,0.0,-0.862,0,0
1256868000,0.0,0.739,0.000,-0.001,0.673,0.0,0.0,-0.862,0,0
1257012000,0.0,0.739,0.000,-0.001,0.673,0.0,0.0,-0.862,0,0
1257116000,0.0,0.739,0.000,-0.001,0.673,0.0,0.0,-0.863,0,0
1257268000,0.0,0.739,0.000,-0.001,0.673,0.0,0.0,-0.864,0,0
1257412000,0.0,0.739,0.000,-0.001,0.673,0.0,0.0,-0.865,0,0
1257516000,0.0,0.739,0.000,-0.001,0.673,0.0,0.0,-0.865,0,0
1257668000,0.0,0.739,0.000,-0.001,0.673,0.0,0.0,-0.865,0,0
1257812000,0.0,0.739,0.000,-0.001,0.673,0.0,0.0,-0.865,0,0
1257916000,0.0,0.739,0.000,-0.001,0.673,0.0,0.0,-0.865,0,0
1258068000,0.0,0.739,0.000,-0.001,0.673,0.0,0.0,-0.865,0,0
1258212000,0.0,0.739,0.000,-0.001,0.673,0.0,0.0,-0.864,0,0
1258316000,0.0,0.739,0.000,-0.001,0.673,0.0,0.0,-0.864,0,0
1258468000,0.0,0.739,0.000,-0.001,0.673,0.0,0.0,-0.864,0,0
1258612000,0.0,0.739,0.000,-0.001,0.673,0.0,0.0,-0.864,0,0
1258716000,0.0,0.739,0.000,-0.001,0.673,0.0,0.0,-0.865,0,0
1258868000,0.0,0.739,0.000,-0.001,0.673,0.0,0.0,-0.865,0,0
1259012000,0.0,0.739,0.000,-0.001,0.673,0.0,0.0,-0.865,0,0
1259116000,0.0,0.739,0.000,-0.001,0.673,0.0,0.0,-0.865,0,0
1259268000,0.0,0.739,0.000,-0.001,0.673,0.0,0.0,-0.865,0,0
1259412000,0.0,0.739,0.000,-0.001,0.673,0.0,0.0,-0.865,0,0
1259516000,0.0,0.739,0.000,-0.001,0.673,0.0,0.0,-0.865,0,0
1259668000,0.0,0.738,0.031,0.049,0.671,0.0,0.0,-0.871,0,0
1259812000,0.0,0.735,0.073,0.107,0.664,0.0,0.0,-0.885,0,0
1259916000,0.0,0.731,0.102,0.145,0.657,0.0,0.0,-0.895,0,0
1260068000,0.0,0.728,0.126,0.175,0.650,0.0,0.0,-0.881,0,0
1260212000,0.0,0.728,0.127,0.174,0.650,0.0,0.0,-0.862,0,0
1260316000,0.0,0.728,0.127,0.174,0.650,0.0,0.0,-0.859,0,0
1260468000,0.0,0.728,0.127,0.175,0.650,0.0,0.0,-0.865,0,0
1260612000,0.0,0.728,0.127,0.174,0.650,0.0,0.0,-0.875,0,0
1260716000,0.0,0.727,0.128,0.174,0.650,0.0,0.0,-0.883,0,0
1260868000,0.0,0.727,0.128,0.173,0.650,0.0,0.0,-0.895,0,0
1261012000,0.0,0.731,0.107,0.143,0.658,0.0,0.0,-0.885,0,0
1261116000,0.0,0.733,0.089,0.122,0.662,0.0,0.0,-0.890,0,0
1261268000,0.0,0.736,0.066,0.097,0.666,0.0,0.0,-0.900,0,0
1261412000,0.0,0.737,0.043,0.072,0.669,0.0,0.0,-0.905,0,0
1261516000,0.0,0.738,0.027,0.053,0.671,0.0,0.0,-0.905,0,0
1261668000,0.0,0.739,0.005,0.027,0.672,0.0,0.0,-0.901,0,0
1261812000,0.0,0.739,-0.011,0.006,0.673,0.0,0.0,-0.893,0,0
1261916000,0.0,0.738,-0.022,-0.007,0.673,0.0,0.0,-0.887,0,0
1262068000,0.0,0.738,-0.033,-0.023,0.673,0.0,0.0,-0.877,0,0
1262212000,0.0,0.738,-0.034,-0.022,0.673,0.0,0.0,-0.868,0,0
1262316000,0.0,0.738,-0.032,-0.021,0.673,0.0,0.0,-0.864,0,0
1262468000,0.0,0.738,-0.026,-0.015,0.673,0.0,0.0,-0.861,0,0
1262612000,0.0,0.738,-0.018,-0.008,0.673,0.0,0.0,-0.861,0,0
1262716000,0.0,0.739,-0.012,-0.003,0.673,0.0,0.0,-0.862,0,0
1262868000,0.0,0.739,-0.002,0.005,0.673,0.0,0.0,-0.864,0,0
1263012000,0.0,0.739,0.005,0.013,0.673,0.0,0.0,-0.866,0,0
1263116000,0.0,0.739,0.011,0.017,0.673,0.0,0.0,-0.867,0,0
1263268000,0.0,0.739,0.017,0.023,0.673,0.0,0.0,-0.866,0,0
1263412000,0.0,0.738,0.022,0.027,0.672,0.0,0.0,-0.866,0,0
1263516000,0.0,0.738,0.024,0.029,0.672,0.0,0.0,-0.865,0,0
1263668000,0.0,0.738,0.025,0.029,0.672,0.0,0.0,-0.864,0,0
1263812000,0.0,0.738,0.025,0.029,0.672,0.0,0.0,-0.864,0,0
1263916000,0.0,0.738,0.024,0.028,0.672,0.0,0.0,-0.864,0,0
1264068000,0.0,0.738,0.021,0.025,0.672,0.0,0.0,-0.864,0,0
1264212000,0.0,0.738,0.018,0.022,0.673,0.0,0.0,-0.865,0,0
1264316000,0.0,0.739,0.016,0.019,0.673,0.0,0.0,-0.866,0,0
1264468000,0.0,0.739,0.012,0.015,0.673,0.0,0.0,-0.866,0,0
1264612000,0.0,0.739,0.009,0.012,0.673,0.0,0.0,-0.866,0,0
1264716000,0.0,0.739,0.007,0.010,0.673,0.0,0.0,-0.866,0,0
1264868000,0.0,0.739,0.004,0.007,0.673,0.0,0.0,-0.866,0,0
1265012000,0.0,0.739,0.002,0.005,0.673,0.0,0.0,-0.865,0,0
1265116000,0.0,0.739,0.002,0.004,0.673,0.0,0.0,-0.865,0,0
1265268000,0.0,0.739,0.001,0.003,0.673,0.0,0.0,-0.864,0,0
1265412000,0.0,0.739,0.001,0.003,0.673,0.0,0.0,-0.864,0,0
1265516000,0.0,0.739,0.001,0.002,0.673,0.0,0.0,-0.864,0,0
1265668000,0.0,0.739,0.001,0.002,0.673,0.0,0.0,-0.864,0,0
1265812000,0.0,0.739,0.002,0.003,0.673,0.0,0.0,-0.864,0,0
1265916000,0.0,0.739,0.002,0.003,0.673,0.0,0.0,-0.865,0,0
1266068000,0.0,0.739,0.003,0.003,0.673,0.0,0.0,-0.865,0,0
1266212000,0.0,0.739,0.004,0.004,0.673,0.0,0.0,-0.865,0,0
1266316000,0.0,0.739,0.004,0.004,0.673,0.0,0.0,-0.865,0,0
1266468000,0.0,0.739,0.005,0.005,0.673,0.0,0.0,-0.865,0,0
1266612000,0.0,0.739,0.005,0.005,0.673,0.0,0.0,-0.865,0,0
1266716000,0.0,0.739,0.005,0.005,0.673,0.0,0.0,-0.865,0,0
1266868000,0.0,0.739,0.006,0.005,0.673,0.0,0.0,-0.865,0,0
1267012000,0.0,0.739,0.005,0.005,0.673,0.0,0.0,-0.865,0,0
1267116000,0.0,0.739,0.005,0.005,0.673,0.0,0.0,-0.865,0,0
1267260000,0.0,0.739,0.005,0.004,0.673,0.0,0.0,-0.865,0,0
1267364000,0.0,0.739,0.005,0.004,0.673,0.0,0.0,-0.865,0,0
1267468000,0.0,0.739,0.005,0.004,0.673,0.0,0.0,-0.865,0,0
1267612000,0.0,0.739,0.004,0.004,0.673,0.0,0.0,-0.865,0,0
1267716000,0.0,0.739,0.004,0.004,0.673,0.0,0.0,-0.865,0,0
1267868000,0.0,0.739,0.004,0.004,0.673,0.0,0.0,-0.865,0,0
1268012000,0.0,0.739,0.004,0.004,0.673,0.0,0.0,-0.865,0,0
1268164000,0.0,0.739,0.003,0.004,0.673,0.0,0.0,-0.865,0,0
1268268000,0.0,0.739,0.003,0.004,0.673,0.0,0.0,-0.865,0,0
1268416000,0.0,0.739,0.003,0.004,0.673,0.0,0.0,-0.864,0,0
1268516000,0.0,0.739,0.003,0.003,0.673,0.0,0.0,-0.864,0,0
1268668000,0.0,0.739,0.003,0.003,0.673,0.0,0.0,-0.864,0,0
1268812000,0.0,0.739,0.003,0.003,0.673,0.0,0.0,-0.864,0,0
1268916000,0.0,0.739,0.003,0.003,0.673,0.0,0.0,-0.864,0,0
1269068000,0.0,0.739,0.003,0.003,0.673,0.0,0.0,-0.864,0,0
1269212000,0.0,0.739,0.004,0.004,0.673,0.0,0.0,-0.864,0,0
1269316000,0.0,0.739,0.004,0.004,0.673,0.0,0.0,-0.864,0,0
1269468000,0.0,0.739,0.005,0.004,0.673,0.0,0.0,-0.864,0,0
1269612000,0.0,0.739,0.005,0.005,0.673,0.0,0.0,-0.864,0,0
1269716000,0.0,0.739,0.005,0.005,0.673,0.0,0.0,-0.864,0,0
1269868000,0.0,0.739,0.006,0.005,0.673,0.0,0.0,-0.864,0,0
1270012000,0.0,0.739,0.006,0.006,0.673,0.0,0.0,-0.864,0,0
1270116000,0.0,0.739,0.006,0.006,0.673,0.0,0.0,-0.864,0,0
1270268000,0.0,0.739,0.006,0.006,0.673,0.0,0.0,-0.864,0,0
1270412000,0.0,0.739,0.007,0.007,0.673,0.0,0.0,-0.864,0,0
1270516000,0.0,0.739,0.007,0.007,0.673,0.0,0.0,-0.864,0,0
1270668000,0.0,0.739,0.007,0.007,0.673,0.0,0.0,-0.864,0,0
1270812000,0.0,0.739,0.006,0.007,0.673,0.0,0.0,-0.864,0,0
1270916000,0.0,0.739,0.006,0.007,0.673,0.0,0.0,-0.863,0,0
1271068000,0.0,0.739,0.006,0.006,0.673,0.0,0.0,-0.863,0,0
1271212000,0.0,0.739,0.005,0.006,0.673,0.0,0.0,-0.863,0,0
1271316000,0.0,0.739,0.005,0.006,0.673,0.0,0.0,-0.863,0,0
1271468000,0.0,0.739,0.005,0.006,0.673,0.0,0.0,-0.864,0,0
1271612000,0.0,0.739,0.005,0.006,0.673,0.0,0.0,-0.864,0,0
1271716000,0.0,0.739,0.005,0.006,0.673,0.0,0.0,-0.864,0,0
1271868000,0.0,0.739,0.005,0.006,0.673,0.0,0.0,-0.864,0,0
1272012000,0.0,0.739,0.005,0.007,0.673,0.0,0.0,-0.864,0,0
1272116000,0.0,0.739,0.005,0.007,0.673,0.0,0.0,-0.864,0,0
1272268000,0.0,0.739,0.005,0.007,0.673,0.0,0.0,-0.864,0,0
1272412000,0.0,0.739,0.005,0.008,0.673,0.0,0.0,-0.864,0,0
1272516000,0.0,0.739,0.005,0.008,0.673,0.0,0.0,-0.864,0,0
1272668000,0.0,0.739,0.005,0.008,0.673,0.0,0.0,-0.864,0,0
1272812000,0.0,0.739,0.006,0.008,0.673,0.0,0.0,-0.864,0,0
1272916000,0.0,0.739,0.006,0.009,0.673,0.0,0.0,-0.864,0,0
1273068000,0.0,0.739,0.006,0.009,0.673,0.0,0.0,-0.864,0,0
1273212000,0.0,0.739,0.007,0.009,0.673,0.0,0.0,-0.864,0,0
1273316000,0.0,0.739,0.007,0.008,0.673,0.0,0.0,-0.864,0,0
1273468000,0.0,0.739,0.007,0.008,0.673,0.0,0.0,-0.864,0,0
1273612000,0.0,0.739,0.007,0.009,0.673,0.0,0.0,-0.817,0,0
1273716000,0.0,0.739,0.007,0.009,0.673,0.0,0.0,-0.803,0,0
1273868000,0.0,0.739,0.007,0.009,0.673,0.0,0.0,-0.879,0,0
1274012000,0.0,0.739,0.007,0.009,0.673,0.0,0.0,-0.870,0,0
1274116000,0.0,0.739,0.007,0.009,0.673,0.0,0.0,-0.822,0,0
1274268000,0.0,0.739,0.007,0.010,0.673,0.0,0.0,-0.741,0,0
1274412000,0.0,0.739,0.007,0.010,0.673,0.0,0.0,-0.686,0,0
1274516000,0.0,0.739,0.008,0.011,0.673,0.0,0.0,-0.732,0,0
1274668000,0.0,0.739,0.007,0.010,0.673,0.0,0.0,-0.827,0,0
1274812000,0.0,0.739,0.006,0.009,0.673,0.0,0.0,-0.895,0,0
1274916000,0.0,0.739,0.006,0.009,0.673,0.0,0.0,-0.894,0,0
1275068000,0.0,0.739,0.005,0.008,0.673,0.0,0.0,-0.874,0,0
1275212000,0.0,0.739,0.005,0.008,0.673,0.0,0.0,-0.865,0,0
1275316000,0.0,0.739,0.005,0.008,0.673,0.0,0.0,-0.863,0,0
1275468000,0.0,0.739,0.005,0.008,0.673,0.0,0.0,-0.861,0,0
1275612000,0.0,0.739,0.004,0.008,0.673,0.0,0.0,-0.861,0,0
1275716000,0.0,0.739,0.004,0.008,0.673,0.0,0.0,-0.861,0,0
1275868000,0.0,0.739,0.005,0.008,0.673,0.0,0.0,-0.861,0,0
1276012000,0.0,0.739,0.005,0.008,0.673,0.0,0.0,-0.861,0,0
1276116000,0.0,0.739,0.005,0.008,0.673,0.0,0.0,-0.862,0,0
1276268000,0.0,0.739,0.005,0.008,0.673,0.0,0.0,-0.862,0,0
1276412000,0.0,0.739,0.006,0.008,0.673,0.0,0.0,-0.862,0,0
1276516000,0.0,0.739,0.006,0.008,0.673,0.0,0.0,-0.862,0,0
1276668000,0.0,0.739,0.006,0.008,0.673,0.0,0.0,-0.862,0,0
1276812000,0.0,0.739,0.006,0.009,0.673,0.0,0.0,-0.862,0,0
1276916000,0.0,0.739,0.006,0.009,0.673,0.0,0.0,-0.863,0,0
1277068000,0.0,0.739,0.006,0.009,0.673,0.0,0.0,-0.863,0,0
1277212000,0.0,0.739,0.006,0.009,0.673,0.0,0.0,-0.863,0,0
1277316000,0.0,0.739,0.006,0.009,0.673,0.0,0.0,-0.863,0,0
1277468000,0.0,0.739,0.006,0.008,0.673,0.0,0.0,-0.864,0,0
1277612000,0.0,0.739,0.006,0.008,0.673,0.0,0.0,-0.864,0,0
1277716000,0.0,0.739,0.006,0.008,0.673,0.0,0.0,-0.864,0,0
1277868000,0.0,0.739,0.006,0.008,0.673,0.0,0.0,-0.865,0,0
1278012000,0.0,0.739,0.005,0.008,0.673,0.0,0.0,-0.865,0,0
1278116000,0.0,0.739,0.005,0.008,0.673,0.0,0.0,-0.865,0,0
1278268000,0.0,0.739,0.005,0.008,0.673,0.0,0.0,-0.865,0,0
1278412000,0.0,0.739,0.005,0.008,0.673,0.0,0.0,-0.865,0,0
1278516000,0.0,0.739,0.005,0.008,0.673,0.0,0.0,-0.865,0,0
1278668000,0.0,0.739,0.005,0.008,0.673,0.0,0.0,-0.864,0,0
1278812000,0.0,0.739,0.005,0.009,0.673,0.0,0.0,-0.864,0,0
1278916000,0.0,0.739,0.005,0.009,0.673,0.0,0.0,-0.864,0,0
1279068000,0.0,0.739,0.006,0.009,0.673,0.0,0.0,-0.863,0,0
1279212000,0.0,0.739,0.006,0.009,0.673,0.0,0.0,-0.864,0,0
1279316000,0.0,0.739,0.006,0.009,0.673,0.0,0.0,-0.864,0,0
1279468000,0.0,0.739,0.006,0.009,0.673,0.0,0.0,-0.864,0,0
1279612000,0.0,0.739,0.006,0.009,0.673,0.0,0.0,-0.864,0,0
1279716000,0.0,0.739,0.006,0.009,0.673,0.0,0.0,-0.864,0,0
1279868000,0.0,0.739,0.006,0.009,0.673,0.0,0.0,-0.864,0,0
1280012000,0.0,0.739,0.006,0.009,0.673,0.0,0.0,-0.864,0,0
1280116000,0.0,0.739,0.006,0.009,0.673,0.0,0.0,-0.864,0,0
1280268000,0.0,0.739,0.006,0.008,0.673,0.0,0.0,-0.864,0,0
1280412000,0.0,0.739,0.006,0.008,0.673,0.0,0.0,-0.864,0,0
1280516000,0.0,0.739,0.006,0.008,0.673,0.0,0.0,-0.864,0,0
1280668000,0.0,0.739,0.006,0.008,0.673,0.0,0.0,-0.864,0,0
1280812000,0.0,0.739,0.006,0.008,0.673,0.0,0.0,-0.864,0,0
1280916000,0.0,0.739,0.006,0.008,0.673,0.0,0.0,-0.864,0,0
1281068000,0.0,0.739,0.006,0.008,0.673,0.0,0.0,-0.864,0,0
1281212000,0.0,0.739,0.006,0.008,0.673,0.0,0.0,-0.864,0,0
1281316000,0.0,0.739,0.006,0.008,0.673,0.0,0.0,-0.864,0,0
1281468000,0.0,0.739,0.006,0.008,0.673,0.0,0.0,-0.864,0,0
1281612000,0.0,0.739,0.006,0.008,0.673,0.0,0.0,-0.880,0,0
1281716000,0.0,0.739,0.006,0.008,0.673,0.0,0.0,-0.879,0,0
1281868000,0.0,0.739,0.005,0.007,0.673,0.0,0.0,-0.877,0,0
1282012000,0.0,0.739,0.005,0.007,0.673,0.0,0.0,-0.871,0,0
1282116000,0.0,0.739,0.005,0.007,0.673,0.0,0.0,-0.876,0,0
1282268000,0.0,0.739,0.005,0.007,0.673,0.0,0.0,-0.876,0,0
1282412000,0.0,0.739,0.005,0.008,0.673,0.0,0.0,-0.869,0,0
1282516000,0.0,0.739,0.005,0.008,0.673,0.0,0.0,-0.875,0,0
1282668000,0.0,0.739,0.005,0.008,0.673,0.0,0.0,-0.874,0,0
1282812000,0.0,0.739,0.005,0.008,0.673,0.0,0.0,-0.868,0,0
1282916000,0.0,0.739,0.005,0.008,0.673,0.0,0.0,-0.874,0,0
1283068000,0.0,0.739,0.005,0.009,0.673,0.0,0.0,-0.874,0,0
1283212000,0.0,0.739,0.005,0.009,0.673,0.0,0.0,-0.868,0,0
1283316000,0.0,0.739,0.005,0.009,0.673,0.0,0.0,-0.874,0,0
1283468000,0.0,0.739,0.006,0.009,0.673,0.0,0.0,-0.874,0,0
1283612000,0.0,0.739,0.006,0.009,0.673,0.0,0.0,-0.868,0,0
1283716000,0.0,0.739,0.006,0.009,0.673,0.0,0.0,-0.874,0,0
1283868000,0.0,0.739,0.006,0.009,0.673,0.0,0.0,-0.874,0,0
1284012000,0.0,0.739,0.006,0.009,0.673,0.0,0.0,-0.868,0,0
1284116000,0.0,0.739,0.006,0.009,0.673,0.0,0.0,-0.873,0,0
1284268000,0.0,0.739,0.005,0.009,0.673,0.0,0.0,-0.873,0,0
1284412000,0.0,0.739,0.005,0.009,0.673,0.0,0.0,-0.867,0,0
1284516000,0.0,0.739,0.005,0.009,0.673,0.0,0.0,-0.873,0,0
1284668000,0.0,0.739,0.005,0.008,0.673,0.0,0.0,-0.873,0,0
1284812000,0.0,0.739,0.004,0.008,0.673,0.0,0.0,-0.867,0,0
1284916000,0.0,0.739,0.004,0.008,0.673,0.0,0.0,-0.874,0,0
1285068000,0.0,0.739,0.004,0.007,0.673,0.0,0.0,-0.874,0,0
1285212000,0.0,0.739,0.004,0.007,0.673,0.0,0.0,-0.868,0,0
1285316000,0.0,0.739,0.004,0.007,0.673,0.0,0.0,-0.874,0,0
1285468000,0.0,0.739,0.003,0.006,0.673,0.0,0.0,-0.874,0,0
1285612000,0.0,0.739,0.003,0.006,0.673,0.0,0.0,-0.867,0,0
1285716000,0.0,0.739,0.004,0.006,0.673,0.0,0.0,-0.874,0,0
1285868000,0.0,0.739,0.004,0.006,0.673,0.0,0.0,-0.873,0,0
1286012000,0.0,0.739,0.004,0.006,0.673,0.0,0.0,-0.866,0,0
1286116000,0.0,0.739,0.004,0.006,0.673,0.0,0.0,-0.873,0,0
1286268000,0.0,0.739,0.004,0.006,0.673,0.0,0.0,-0.865,0,0
1286412000,0.0,0.739,0.004,0.006,0.673,0.0,0.0,-0.864,0,0
1286516000,0.0,0.739,0.005,0.007,0.673,0.0,0.0,-0.864,0,0
1286668000,0.0,0.739,0.005,0.007,0.673,0.0,0.0,-0.864,0,0
1286812000,0.0,0.739,0.005,0.007,0.673,0.0,0.0,-0.865,0,0
1286916000,0.0,0.739,0.005,0.007,0.673,0.0,0.0,-0.865,0,0
1287068000,0.0,0.739,0.005,0.007,0.673,0.0,0.0,-0.865,0,0
1287212000,0.0,0.739,0.005,0.008,0.673,0.0,0.0,-0.865,0,0
1287316000,0.0,0.739,0.005,0.007,0.673,0.0,0.0,-0.865,0,0
1287468000,0.0,0.739,0.005,0.007,0.673,0.0,0.0,-0.865,0,0
1287612000,0.0,0.739,0.005,0.007,0.673,0.0,0.0,-0.865,0,0
1287716000,0.0,0.739,0.005,0.007,0.673,0.0,0.0,-0.865,0,0
1287868000,0.0,0.739,0.005,0.007,0.673,0.0,0.0,-0.865,0,0
1288012000,0.0,0.739,0.005,0.007,0.673,0.0,0.0,-0.865,0,0
1288116000,0.0,0.739,0.005,0.007,0.673,0.0,0.0,-0.865,0,0
1288268000,0.0,0.739,0.005,0.007,0.673,0.0,0.0,-0.865,0,0
1288412000,0.0,0.739,0.005,0.007,0.673,0.0,0.0,-0.865,0,0
1288516000,0.0,0.739,0.005,0.007,0.673,0.0,0.0,-0.865,0,0
1288668000,0.0,0.739,0.004,0.008,0.673,0.0,0.0,-0.865,0,0
1288812000,0.0,0.739,0.004,0.008,0.673,0.0,0.0,-0.865,0,0
1288916000,0.0,0.739,0.004,0.008,0.673,0.0,0.0,-0.865,0,0
1289068000,0.0,0.739,0.004,0.008,0.673,0.0,0.0,-0.865,0,0
1289212000,0.0,0.739,0.004,0.008,0.673,0.0,0.0,-0.865,0,0
1289316000,0.0,0.739,0.004,0.008,0.673,0.0,0.0,-0.865,0,0
1289468000,0.0,0.739,0.004,0.007,0.673,0.0,0.0,-0.865,0,0
1289612000,0.0,0.739,0.004,0.007,0.673,0.0,0.0,-0.864,0,0
1289716000,0.0,0.739,0.004,0.007,0.673,0.0,0.0,-0.864,0,0
1289868000,0.0,0.739,0.004,0.007,0.673,0.0,0.0,-0.864,0,0
1290012000,0.0,0.739,0.004,0.007,0.673,0.0,0.0,-0.864,0,0
1290116000,0.0,0.739,0.005,0.008,0.673,0.0,0.0,-0.864,0,0
1290268000,0.0,0.739,0.005,0.008,0.673,0.0,0.0,-0.864,0,0
1290412000,0.0,0.739,0.005,0.008,0.673,0.0,0.0,-0.864,0,0
1290516000,0.0,0.739,0.005,0.008,0.673,0.0,0.0,-0.864,0,0
1290668000,0.0,0.739,0.005,0.008,0.673,0.0,0.0,-0.864,0,0
1290812000,0.0,0.739,0.005,0.008,0.673,0.0,0.0,-0.865,0,0
1290916000,0.0,0.739,0.005,0.008,0.673,0.0,0.0,-0.865,0,0
1291068000,0.0,0.739,0.005,0.008,0.673,0.0,0.0,-0.865,0,0
1291212000,0.0,0.739,0.005,0.008,0.673,0.0,0.0,-0.865,0,0
1291316000,0.0,0.739,0.005,0.007,0.673,0.0,0.0,-0.865,0,0
1291468000,0.0,0.739,0.005,0.007,0.673,0.0,0.0,-0.865,0,0
1291612000,0.0,0.739,0.004,0.007,0.673,0.0,0.0,-0.865,0,0
1291716000,0.0,0.739,0.004,0.007,0.673,0.0,0.0,-0.865,0,0
1291868000,0.0,0.739,0.004,0.007,0.673,0.0,0.0,-0.865,0,0
1292012000,0.0,0.739,0.004,0.007,0.673,0.0,0.0,-0.864,0,0
1292116000,0.0,0.739,0.004,0.007,0.673,0.0,0.0,-0.864,0,0
1292268000,0.0,0.739,0.004,0.007,0.673,0.0,0.0,-0.864,0,0
1292412000,0.0,0.739,0.004,0.007,0.673,0.0,0.0,-0.864,0,0
1292516000,0.0,0.739,0.004,0.007,0.673,0.0,0.0,-0.864,0,0
1292668000,0.0,0.739,0.004,0.007,0.673,0.0,0.0,-0.865,0,0
1292812000,0.0,0.739,0.004,0.007,0.673,0.0,0.0,-0.865,0,0
1292916000,0.0,0.739,0.004,0.008,0.673,0.0,0.0,-0.865,0,0
1293068000,0.0,0.739,0.005,0.008,0.673,0.0,0.0,-0.865,0,0
1293212000,0.0,0.739,0.005,0.008,0.673,0.0,0.0,-0.865,0,0
1293316000,0.0,0.739,0.005,0.009,0.673,0.0,0.0,-0.865,0,0
1293468000,0.0,0.739,0.000,0.003,0.673,0.0,0.0,-0.665,0,0
1293612000,0.0,0.739,0.006,0.008,0.673,0.0,0.0,-0.645,0,0
1293716000,0.0,0.739,0.003,0.007,0.673,0.0,0.0,-0.632,0,0
1293868000,0.0,0.739,0.003,0.007,0.673,0.0,0.0,-0.614,0,0
1294012000,0.0,0.739,0.003,0.007,0.673,0.0,0.0,-0.597,0,0
1294116000,0.0,0.739,0.003,0.006,0.673,0.0,0.0,-0.586,0,0
1294268000,0.0,0.739,0.003,0.006,0.673,0.0,0.0,-0.569,0,0
1294412000,0.0,0.739,0.002,0.006,0.673,0.0,0.0,-0.554,0,0
1294516000,0.0,0.739,0.002,0.006,0.673,0.0,0.0,-0.544,0,0
1294668000,0.0,0.739,0.003,0.006,0.673,0.0,0.0,-0.529,0,0
1294812000,0.0,0.739,0.002,0.006,0.673,0.0,0.0,-0.515,0,0
1294916000,0.0,0.739,0.002,0.006,0.673,0.0,0.0,-0.506,0,0
1295068000,0.0,0.739,0.002,0.006,0.673,0.0,0.0,-0.491,0,0
1295216000,0.0,0.739,0.002,0.006,0.673,0.0,0.0,-0.477,0,0
1295316000,0.0,0.739,0.002,0.006,0.673,0.0,0.0,-0.467,0,0
1295468000,0.0,0.739,0.002,0.006,0.673,0.0,0.0,-0.452,0,0
1295612000,0.0,0.739,0.002,0.006,0.673,0.0,0.0,-0.438,0,0
1295716000,0.0,0.739,0.0,0.0,0.673,0.0,0.0,-0.12,0,0
1295868000,0.0,0.739,0.0,0.0,0.673,0.0,0.0,-0.12,0,0
1296012000,0.0,0.739,0.0,0.0,0.673,0.0,0.0,-0.12,0,0
1296116000,0.0,0.739,0.0,0.0,0.673,0.0,0.0,-0.12,0,0
1296268000,0.0,0.739,0.0,0.0,0.673,0.0,0.0,-0.12,0,0
1296412000,0.0,0.739,0.0,0.0,0.673,0.0,0.0,-0.001,0,0
1296516000,0.0,0.738,0.0,0.0,0.673,0.0,0.0,-0.001,0,0
1296668000,0.0,0.738,0.0,0.0,0.673,0.0,0.0,-0.001,0,0
1296812000,0.0,0.738,0.0,0.0,0.673,0.0,0.0,-0.001,0,0
1296964000,0.0,0.738,0.0,0.0,0.673,0.0,0.0,-0.001,0,0
1297068000,0.0,0.738,0.0,0.0,0.673,0.0,0.0,-0.001,0,0
1297212000,0.0,0.738,0.0,0.0,0.673,0.0,0.0,-0.001,0,0
1297316000,0.0,0.738,0.0,0.0,0.673,0.0,0.0,-0.001,0,0
1297468000,0.0,0.738,0.0,0.0,0.673,0.0,0.0,-0.001,0,0
1297612000,0.0,0.738,0.0,0.0,0.673,0.0,0.0,-0.001,0,0
1297764000,0.0,0.738,0.0,0.0,0.673,0.0,0.0,-0.001,0,0
1297868000,0.0,0.738,0.0,0.0,0.673,0.0,0.0,-0.001,0,0
1298012000,0.0,0.738,0.0,0.0,0.673,0.0,0.0,-0.001,0,0
1298116000,0.0,0.738,0.0,0.0,0.673,0.0,0.0,-0.001,0,0
1298268000,0.0,0.738,0.0,0.0,0.673,0.0,0.0,-0.001,0,0
1298412000,0.0,0.738,0.0,0.0,0.673,0.0,0.0,-0.001,0,0
1298516000,0.0,0.738,0.0,0.0,0.673,0.0,0.0,-0.001,0,0
1298668000,0.0,0.738,0.0,0.0,0.673,0.0,0.0,-0.001,0,0
1298812000,0.0,0.738,0.0,0.0,0.673,0.0,0.0,-0.001,0,0
1298916000,0.0,0.738,0.0,0.0,0.673,0.0,0.0,-0.001,0,0
1299068000,0.0,0.738,0.0,0.0,0.673,0.0,0.0,-0.001,0,0
1299212000,0.0,0.738,0.0,0.0,0.673,0.0,0.0,-0.001,0,0
1299316000,0.0,0.738,0.0,0.0,0.673,0.0,0.0,-0.001,0,0
