timestamp,timestamp_sample,xyz[0],xyz[1],xyz[2],xyz_derivative[0],xyz_derivative[1],xyz_derivative[2]
1204720000,1204720000,-0.000,-0.000,-0.000,-0.045,-0.018,-0.000
1204820000,1204820000,0.000,-0.000,-0.000,-0.013,-0.012,0.000
1204920000,1204920000,0.000,-0.000,-1.855e-05,-0.012,0.030,0.002
1205020000,1205020000,-0.000,-0.000,-0.000,-0.035,-0.005,-0.029
1205120000,1205120000,0.000,-9.261e-05,-1.749e-05,0.001,0.029,0.028
1205220000,1205220000,0.000,-0.000,-0.000,0.009,0.021,-0.009
1205320000,1205320000,0.000,-0.000,6.866e-05,0.006,-0.025,0.024
1205420000,1205420000,9.337e-05,-0.000,-6.434e-05,-0.008,0.022,0.015
1205520000,1205520000,0.000,-0.000,0.000,0.004,0.014,0.017
1205620000,1205620000,-7.444e-05,-0.000,-0.000,0.002,-0.019,-0.015
1205720000,1205720000,5.230e-05,-0.000,-0.000,-0.006,-0.010,-0.037
1205820000,1205820000,0.000,-0.000,-7.584e-06,0.028,-0.006,0.005
1205920000,1205920000,0.000,-0.000,-0.000,-0.013,0.019,-0.030
1206020000,1206020000,0.000,-7.353e-05,-1.072e-05,0.004,0.027,-0.002
1206120000,1206120000,0.000,-0.000,-0.000,-0.009,0.020,-0.001
1206220000,1206220000,-0.000,9.432e-05,9.276e-05,-0.022,0.016,0.013
1206320000,1206320000,0.000,-0.000,-0.000,0.008,0.009,0.002
1206420000,1206420000,7.061e-05,-0.000,-0.000,-0.008,-0.009,0.017
1206520000,1206520000,-0.000,-0.000,-5.969e-06,-0.026,0.034,0.035
1206620000,1206620000,0.000,4.009e-05,4.310e-05,0.006,0.022,0.010
1206720000,1206720000,6.570e-05,-0.000,-0.000,-0.020,-0.005,-0.032
1206820000,1206820000,-7.797e-05,-0.000,5.802e-05,-0.016,0.002,0.007
1206920000,1206920000,0.000,-0.000,-0.000,-0.012,-0.001,-0.010
1207020000,1207020000,8.673e-06,-0.000,-0.000,0.017,-0.008,-0.018
1207120000,1207120000,0.000,-0.000,6.424e-05,0.015,0.026,-0.009
1207220000,1207220000,0.000,-0.000,0.000,-0.002,0.010,0.009
1207320000,1207320000,0.000,-0.000,-0.000,0.007,0.013,-0.024
1207420000,1207420000,0.000,-0.000,7.305e-05,-0.001,0.014,0.012
1207520000,1207520000,0.000,-0.000,-0.000,0.022,0.006,-0.003
1207620000,1207620000,0.000,-0.000,3.979e-05,-0.001,-0.005,0.003
1207720000,1207720000,-0.000,-0.000,-6.336e-05,-0.020,-0.007,0.005
1207820000,1207820000,0.000,5.036e-05,4.209e-05,0.010,0.021,0.000
1207920000,1207920000,0.000,-3.332e-05,0.000,0.013,0.026,0.026
1208020000,1208020000,0.000,-0.000,-0.000,0.012,-0.017,-0.037
1208120000,1208120000,-3.175e-05,-0.000,-0.000,0.019,0.004,-0.001
1208220000,1208220000,-0.000,-0.000,1.898e-05,-0.027,0.001,0.015
1208320000,1208320000,0.000,1.902e-05,-0.000,0.006,0.016,0.019
1208420000,1208420000,9.571e-05,-0.000,5.231e-05,-0.021,0.028,0.008
1208520000,1208520000,-6.754e-05,-8.424e-05,-5.258e-05,-0.034,0.003,0.004
1208620000,1208620000,-0.000,-0.000,-0.000,-0.032,0.000,0.004
1208720000,1208720000,-0.000,-0.000,0.000,0.003,0.005,0.038
1208820000,1208820000,0.000,2.532e-05,-4.569e-05,0.011,0.024,0.012
1208920000,1208920000,-3.251e-06,-0.000,-0.000,0.004,0.018,-0.008
1209020000,1209020000,6.275e-05,-0.000,-0.000,0.011,-0.018,-0.022
1209120000,1209116000,-0.000,-4.214e-05,0.000,-0.031,0.007,0.020
1209220000,1209220000,-8.654e-05,-9.926e-05,3.919e-05,-0.019,-0.004,-0.014
1209320000,1209320000,-3.952e-05,0.000,-0.000,-0.001,0.021,0.013
1209420000,1209420000,7.295e-05,-0.000,0.000,-0.010,-0.027,-0.005
1209520000,1209520000,-0.000,-2.868e-05,-0.000,0.002,-0.022,0.012
1209620000,1209620000,0.000,-0.000,0.000,0.007,-0.020,0.037
1209720000,1209720000,8.706e-05,-0.000,-0.000,0.020,0.008,-0.025
1209820000,1209820000,0.000,-5.112e-05,-0.000,0.031,-0.010,-0.006
1209920000,1209920000,-0.000,-7.084e-05,1.755e-05,-0.023,-0.001,-0.010
1210020000,1210020000,0.000,-0.000,-0.000,0.018,-0.001,0.016
1210120000,1210120000,4.705e-05,-0.000,0.000,0.020,-0.000,-0.003
1210220000,1210220000,0.000,8.806e-05,-3.799e-06,0.041,0.016,0.021
1210320000,1210320000,6.115e-06,0.000,-0.000,-0.001,0.002,-0.003
1210420000,1210420000,-0.000,-0.000,1.344e-05,-0.034,-0.019,0.005
1210520000,1210520000,0.000,-0.000,-0.000,0.033,-0.002,-0.014
1210620000,1210620000,-0.000,-0.000,-0.000,-0.022,-0.003,-0.008
1210720000,1210720000,-0.000,-0.000,-0.000,0.010,-0.017,-0.018
1210820000,1210820000,8.454e-05,-0.000,4.655e-05,0.007,0.014,-0.008
1210920000,1210920000,0.000,-5.745e-05,-4.002e-05,0.001,0.006,-0.000
1211020000,1211020000,-0.000,-0.000,-0.000,0.000,0.002,-0.013
1211120000,1211120000,0.000,-0.000,0.000,0.025,-0.008,-0.000
1211220000,1211220000,-8.864e-05,-0.000,-0.000,-0.001,0.011,-0.020
1211320000,1211320000,-0.000,0.000,-3.225e-05,-0.030,0.010,-0.000
1211420000,1211420000,0.000,-0.000,-0.000,0.021,-0.024,-0.018
1211520000,1211520000,0.000,-4.865e-05,-0.000,0.017,0.003,-0.000
1211620000,1211620000,-0.000,0.000,-9.729e-05,-0.001,0.043,0.000
1211720000,1211720000,-0.000,-0.000,-0.000,-0.003,-0.004,-0.010
1211820000,1211820000,0.000,0.000,-5.420e-05,0.040,0.008,-0.005
1211920000,1211920000,-0.000,0.000,-7.798e-05,-0.020,0.014,-0.001
1212020000,1212020000,-0.000,-0.000,-0.000,-0.033,0.016,-0.024
1212120000,1212120000,9.858e-05,-5.175e-05,1.637e-05,0.009,0.004,-0.002
1212220000,1212220000,-7.220e-05,1.648e-05,-7.700e-05,-0.016,-0.003,0.003
1212320000,1212320000,0.000,-0.000,-2.437e-06,0.033,-0.035,0.001
1212420000,1212420000,-0.000,0.000,-0.000,-0.006,0.006,0.001
1212520000,1212520000,-4.744e-05,-0.000,-4.949e-05,-0.006,-0.021,0.002
1212620000,1212620000,-1.794e-05,0.000,4.536e-05,0.007,0.015,-0.004
1212720000,1212720000,0.000,-2.893e-05,0.001,0.025,0.000,-0.003
1212820000,1212820000,-0.001,0.041,0.001,-0.010,0.554,0.005
1212920000,1212920000,-0.002,0.010,0.002,0.001,-0.428,0.034
1213020000,1213020000,-0.002,-0.000,0.002,-0.004,0.068,-0.026
1213120000,1213120000,-0.003,-0.001,0.002,-0.035,-0.064,0.042
1213220000,1213220000,-0.003,-0.003,0.001,0.016,0.002,-0.008
1213320000,1213320000,-0.003,-0.005,0.001,0.000,-0.066,-0.030
1213420000,1213420000,-0.003,-0.005,0.001,0.020,-0.020,0.031
1213520000,1213520000,-0.003,-0.005,0.001,-0.010,-0.014,0.016
1213620000,1213620000,-0.003,-0.005,0.002,-0.002,0.023,0.009
1213720000,1213720000,-0.003,-0.005,0.002,0.024,0.033,-0.026
1213820000,1213820000,-0.002,-0.003,0.002,0.030,0.007,0.059
1213920000,1213920000,-0.002,-0.003,0.002,0.003,0.002,0.001
1214020000,1214020000,-0.000,-0.003,0.001,0.025,-0.051,-0.024
1214120000,1214120000,0.000,-0.003,0.001,-0.003,0.008,-0.012
1214220000,1214220000,0.001,-0.003,0.002,-0.012,0.007,0.020
1214320000,1214320000,0.002,-0.004,0.002,0.018,-0.016,-0.026
1214420000,1214420000,0.003,-0.002,0.002,0.029,-0.014,0.035
1214520000,1214520000,0.003,0.000,0.001,-0.013,0.060,-0.005
1214620000,1214620000,0.004,0.000,0.001,0.017,-0.034,-0.002
1214720000,1214720000,0.005,0.000,0.001,0.015,0.006,-0.004
1214820000,1214820000,0.005,0.001,0.000,-0.005,0.033,-0.008
1214920000,1214920000,0.005,0.000,0.000,0.000,-0.025,0.012
1215020000,1215020000,0.006,-0.000,3.087e-05,0.012,-0.026,0.013
1215120000,1215120000,0.006,-0.001,-5.158e-06,0.036,0.021,0.020
1215220000,1215220000,0.006,-0.002,4.716e-05,-0.023,0.019,0.009
1215320000,1215320000,0.005,-0.001,3.213e-05,-0.041,0.002,-0.027
1215420000,1215420000,0.004,-0.001,0.000,0.006,0.005,0.020
1215520000,1215520000,0.003,-0.001,0.000,-0.030,-0.030,-0.037
1215620000,1215620000,0.001,-0.001,0.000,-0.020,-0.010,-0.022
1215720000,1215720000,0.000,-3.529e-05,0.000,-0.035,0.055,-0.037
1215820000,1215820000,-0.000,0.002,0.000,-0.014,0.016,-0.024
1215920000,1215920000,-0.001,0.003,0.000,-0.025,0.007,-0.013
1216020000,1216020000,-0.001,0.003,0.000,0.013,0.007,0.000
1216120000,1216120000,-0.001,0.002,0.000,-0.000,0.015,0.029
1216220000,1216220000,-0.001,0.001,0.000,0.001,-0.019,0.024
1216320000,1216320000,-0.001,0.000,0.000,0.035,-0.040,0.033
1216420000,1216420000,-0.001,0.000,0.000,-0.006,-0.012,-0.000
1216520000,1216520000,-0.001,-0.000,0.000,0.000,-0.042,0.014
1216620000,1216620000,-0.001,-0.001,8.491e-05,-0.015,-0.001,-0.030
1216720000,1216720000,-0.001,-0.001,-0.000,-0.014,-0.003,-0.017
1216820000,1216820000,-0.000,0.000,-0.000,0.026,0.006,-0.014
1216920000,1216920000,-0.001,0.001,-0.000,0.013,0.012,-0.019
1217020000,1217020000,-0.001,0.000,-9.002e-05,-0.003,-0.012,-0.004
1217120000,1217120000,-0.001,0.000,0.000,-0.001,-0.007,0.030
1217220000,1217220000,-0.001,-0.000,0.000,-0.014,0.026,0.020
1217320000,1217320000,-0.001,0.000,5.275e-05,-0.015,0.005,-0.015
1217420000,1217420000,-0.001,0.001,0.000,-0.016,-0.002,-0.001
1217520000,1217520000,-0.001,0.001,0.000,-0.019,-0.003,0.000
1217620000,1217620000,-0.001,-0.000,0.000,-0.024,0.008,0.002
1217720000,1217720000,-0.001,-0.001,0.000,0.014,-0.007,0.024
1217820000,1217820000,-0.001,-0.000,-0.000,-0.014,0.017,0.006
1217920000,1217920000,-0.000,-0.001,-0.000,-0.016,0.000,0.000
1218020000,1218020000,-0.000,-0.000,-0.000,-0.014,0.023,0.023
1218120000,1218120000,-0.000,-0.000,-0.000,-0.010,0.005,0.004
1218220000,1218220000,0.000,0.000,-0.000,0.019,-0.021,-0.001
1218320000,1218320000,0.000,0.000,-0.000,-0.005,0.019,-0.019
1218420000,1218420000,0.001,0.000,-5.214e-05,0.017,-0.016,-0.015
1218520000,1218520000,0.002,-0.001,0.000,-0.023,-0.050,0.006
1218620000,1218620000,0.002,-0.001,-0.000,-0.009,0.014,-0.010
1218720000,1218720000,0.002,-0.000,0.000,0.017,0.013,0.007
1218820000,1218820000,0.002,-0.000,0.000,0.023,0.003,-0.021
1218920000,1218920000,0.001,0.000,0.000,-0.000,0.006,0.002
1219020000,1219020000,0.001,0.000,0.000,-0.003,0.025,0.014
1219120000,1219120000,0.001,0.000,0.000,-0.001,-0.034,0.002
1219220000,1219220000,0.000,0.001,0.000,-0.020,0.015,0.018
1219320000,1219320000,-0.000,0.001,0.001,-0.017,0.014,0.002
1219420000,1219420000,-0.001,0.001,0.000,0.011,0.032,-0.004
1219520000,1219520000,-0.002,-0.000,0.000,-0.005,0.024,-0.005
1219620000,1219620000,-0.002,-0.000,0.000,0.012,-0.026,0.017
1219720000,1219720000,-0.003,-0.002,0.000,-0.008,0.004,0.009
1219820000,1219820000,-0.003,-0.002,0.000,-0.015,-0.009,0.005
1219920000,1219920000,-0.003,-0.002,0.000,0.020,-0.018,0.002
1220020000,1220020000,-0.003,-0.001,2.623e-05,0.008,0.068,-0.016
1220120000,1220120000,-0.002,-0.000,0.000,0.033,0.033,-0.006
1220220000,1220220000,-0.002,0.000,-0.000,0.014,-0.001,-0.002
1220320000,1220320000,-0.002,0.000,0.000,0.017,0.006,0.004
1220420000,1220420000,-0.000,0.000,-2.185e-05,0.048,0.020,0.003
1220520000,1220520000,0.000,-0.000,-0.000,0.019,-0.023,-0.027
1220620000,1220620000,0.001,-0.001,2.741e-05,-0.020,-0.024,0.021
1220720000,1220720000,0.002,0.000,-0.000,0.015,-0.005,-8.292e-05
1220820000,1220820000,0.002,-0.000,-0.000,0.006,0.003,-0.010
1220920000,1220920000,0.002,-0.000,-0.000,0.000,0.007,-0.025
1221020000,1221020000,0.002,-0.000,7.861e-05,0.023,0.032,0.027
1221120000,1221120000,0.002,-0.000,-0.000,0.029,0.005,-0.006
1221220000,1221220000,0.001,3.010e-05,9.713e-05,-0.005,-0.017,0.020
1221320000,1221320000,0.001,0.000,0.000,-0.021,-0.000,-0.007
1221420000,1221420000,0.002,0.002,-0.000,0.002,-0.019,-0.036
1221520000,1221520000,0.002,0.003,-0.000,0.006,-0.012,-0.000
1221620000,1221620000,0.003,0.001,-0.000,0.012,-0.039,-0.036
1221720000,1221720000,0.002,0.000,-0.000,-0.022,0.026,0.027
1221820000,1221820000,0.002,-0.001,-0.000,-0.008,-0.011,0.012
1221920000,1221920000,0.002,-0.000,-0.000,-0.026,0.013,-0.024
1222020000,1222020000,0.000,0.001,-0.000,-0.042,0.022,0.003
1222120000,1222120000,-0.000,0.002,-0.000,-0.036,0.018,-0.033
1222220000,1222220000,-0.001,0.003,-0.000,-0.029,0.049,-0.023
1222320000,1222320000,-0.002,0.003,-0.000,0.018,0.023,0.002
1222420000,1222420000,-0.001,0.004,-0.000,0.009,0.011,-0.036
1222520000,1222520000,-0.001,0.004,-0.000,0.029,-0.006,-0.015
1222620000,1222620000,-0.001,0.006,-0.000,0.021,0.002,0.015
1222720000,1222720000,-0.001,0.005,-0.000,0.012,-0.037,-0.000
1222820000,1222820000,-0.001,0.003,-0.000,-0.014,0.013,0.015
1222920000,1222920000,-0.001,0.002,-0.001,-0.004,-0.001,-0.027
1223020000,1223020000,-0.002,0.003,-0.000,-0.032,0.021,0.032
1223120000,1223120000,-0.002,0.002,-0.000,-0.002,-0.014,-0.002
1223220000,1223220000,-0.002,0.000,0.000,-0.013,0.029,0.013
1223320000,1223320000,-0.002,-0.000,-0.000,-0.008,-0.013,-0.046
1223420000,1223420000,-0.002,-0.000,0.000,-0.011,0.009,0.049
1223520000,1223520000,-0.002,-0.001,0.000,0.020,0.036,-0.002
1223620000,1223620000,-0.002,-0.003,0.000,0.020,-0.010,-0.015
1223720000,1223720000,-0.001,-0.002,0.000,-0.005,0.050,-0.015
1223820000,1223820000,-0.000,-0.001,2.814e-05,0.012,0.020,-0.017
1223920000,1223920000,0.000,-2.744e-05,0.000,-0.001,0.007,0.023
1224020000,1224020000,0.001,-0.001,0.000,0.021,-0.031,0.015
1224120000,1224120000,0.001,-0.001,0.000,-0.013,-0.004,0.004
1224220000,1224220000,0.001,-0.002,0.000,-0.009,-0.032,0.014
1224320000,1224320000,0.002,-0.002,5.301e-05,-0.010,-0.035,0.000
1224420000,1224420000,0.002,-0.002,0.000,-0.005,0.004,0.008
1224520000,1224520000,0.001,-0.003,0.000,0.031,-0.008,0.008
1224620000,1224620000,0.001,-0.001,0.000,-0.027,0.028,0.004
1224720000,1224720000,0.000,-0.001,0.001,0.012,-0.022,0.017
1224820000,1224820000,-0.000,0.001,0.001,-0.029,0.017,0.022
1224920000,1224920000,-0.000,0.002,0.001,0.002,0.002,0.039
1225020000,1225020000,-0.001,0.002,0.000,-0.013,0.042,-0.036
1225120000,1225120000,-0.001,0.002,0.000,-0.006,-0.015,-0.017
1225220000,1225220000,-0.001,0.002,0.000,0.000,0.008,-0.009
1225320000,1225320000,-0.001,0.000,0.000,-0.010,-0.028,0.030
1225420000,1225420000,-0.001,-0.000,-0.000,-0.015,-0.014,0.011
1225520000,1225520000,-0.000,0.001,-0.000,0.001,0.007,-0.031
1225620000,1225620000,-0.000,0.000,-0.000,-0.004,-0.007,-0.008
1225720000,1225720000,-0.000,0.000,-0.000,0.013,0.003,-0.008
1225820000,1225820000,-4.200e-05,-2.662e-05,-0.000,-0.013,-0.038,0.019
1225920000,1225920000,0.000,-0.000,-0.000,0.008,-0.021,0.016
1226020000,1226020000,0.001,-0.002,-0.000,0.000,-0.017,-0.000
1226120000,1226120000,0.001,-0.002,-0.000,-0.013,0.000,0.000
1226220000,1226220000,0.001,-0.001,-0.000,-0.001,-0.021,-0.001
1226320000,1226320000,0.001,-0.000,-2.925e-05,0.026,-0.024,0.006
1226420000,1226420000,0.002,0.000,-5.787e-05,0.031,0.028,-0.012
1226520000,1226520000,0.002,-0.000,0.000,-0.029,-0.015,0.002
1226620000,1226620000,0.002,-0.000,0.000,0.013,-0.024,-0.013
1226720000,1226720000,0.003,-0.001,8.324e-05,0.027,-0.024,0.022
1226820000,1226820000,0.003,-0.001,0.000,0.027,-0.008,-0.015
1226920000,1226920000,0.003,-0.001,0.000,0.001,0.019,-0.031
1227020000,1227020000,0.002,-5.818e-05,0.000,-0.018,0.003,0.009
1227120000,1227120000,0.003,-0.000,0.000,-0.002,-0.021,-0.003
1227220000,1227220000,0.003,-0.001,0.000,-0.002,0.016,0.016
1227320000,1227320000,0.002,-0.002,0.000,-0.015,0.012,-0.024
1227420000,1227420000,0.002,-0.001,0.000,-0.036,0.002,0.006
1227520000,1227520000,0.003,-0.001,0.000,0.032,0.008,0.006
1227620000,1227620000,0.002,-0.001,0.000,-0.012,-0.021,-0.024
1227720000,1227720000,0.003,-0.003,0.001,0.000,-0.025,0.012
1227820000,1227820000,0.003,-0.001,0.000,-0.004,0.018,-0.030
1227920000,1227920000,0.003,-0.002,0.001,-0.017,-0.033,-0.007
1228020000,1228020000,0.003,-0.001,0.001,-0.008,-0.007,0.043
1228120000,1228120000,0.003,-0.000,0.001,-0.018,0.015,0.005
1228220000,1228220000,0.003,-0.001,0.000,0.016,-0.002,-0.011
1228320000,1228320000,0.003,-0.001,0.000,-0.013,-0.008,-0.029
1228420000,1228420000,0.002,-0.000,0.000,0.006,0.007,-0.003
1228520000,1228520000,0.002,0.001,0.000,0.005,-0.011,0.005
1228620000,1228620000,0.001,0.000,0.000,-0.016,-0.008,-0.039
1228720000,1228720000,-0.000,-0.000,0.000,-0.015,0.015,-0.017
1228820000,1228820000,-0.000,-0.002,0.000,0.009,0.005,0.004
1228920000,1228920000,-0.001,-0.001,-0.000,0.006,-0.003,-0.014
1229020000,1229020000,-0.002,-0.001,-0.000,-0.008,-0.014,-0.009
1229120000,1229120000,-0.003,-0.002,-0.000,0.002,-0.042,0.022
1229220000,1229220000,-0.004,-0.001,-0.001,-0.013,0.012,0.008
1229320000,1229320000,-0.003,-0.000,-0.002,0.015,0.086,-0.021
1229420000,1229420000,-0.003,0.002,-0.002,-0.025,0.016,-0.001
1229520000,1229520000,-0.004,0.003,-0.001,0.010,0.012,0.024
1229620000,1229620000,-0.004,0.004,-0.001,-0.000,0.018,-0.016
1229720000,1229720000,-0.003,0.005,6.029e-05,-0.000,-0.016,-0.010
1229820000,1229820000,-0.004,0.003,0.000,-0.028,-0.020,0.025
1229920000,1229920000,-0.004,0.003,0.001,-0.004,0.039,-0.009
1230020000,1230020000,-0.004,0.001,0.001,0.027,-0.016,0.008
1230120000,1230120000,-0.004,6.524e-05,0.001,-0.022,-0.003,0.002
1230220000,1230220000,-0.003,-0.001,0.000,-0.005,-0.002,-0.031
1230320000,1230320000,-0.003,-0.002,-9.672e-05,0.022,0.000,-0.020
1230420000,1230420000,-0.002,-0.002,-0.000,-0.009,0.017,0.045
1230520000,1230520000,-0.002,-0.003,-0.000,-0.023,-0.006,-0.008
1230620000,1230620000,-0.001,-0.002,-0.001,0.006,0.015,0.009
1230720000,1230720000,-0.000,-0.002,-0.000,0.075,-0.011,0.025
1230820000,1230820000,0.000,-0.002,-0.000,0.018,0.016,-0.017
1230920000,1230920000,0.001,-0.000,-0.000,0.023,0.050,-0.012
1231020000,1231020000,0.001,-0.000,-0.000,0.002,-0.017,-0.000
1231120000,1231120000,0.002,-0.000,-0.000,0.006,-0.002,0.016
1231220000,1231220000,0.002,-0.000,-0.000,-0.004,-0.025,-0.000
1231320000,1231320000,0.002,-0.000,-0.000,0.005,-0.022,-0.023
1231420000,1231420000,0.002,-0.001,-0.000,-0.015,0.001,-0.001
1231520000,1231520000,0.002,-0.001,0.000,0.020,0.036,0.013
1231620000,1231620000,0.001,-0.000,0.000,-0.027,-0.024,-0.015
1231720000,1231720000,0.001,0.000,0.000,0.005,0.040,-0.037
1231820000,1231820000,0.001,0.000,0.000,-0.013,-0.013,0.007
1231920000,1231920000,0.001,-0.000,0.000,0.006,0.006,-0.021
1232020000,1232020000,0.000,0.000,0.000,-0.005,0.008,-0.005
1232120000,1232120000,0.001,0.001,0.000,0.011,-0.047,3.452e-05
1232220000,1232220000,0.001,-0.000,0.000,0.036,-0.003,0.011
1232320000,1232320000,0.000,-0.000,0.001,-0.011,0.019,0.025
1232420000,1232420000,0.000,-0.000,0.000,0.010,0.006,-0.026
1232520000,1232520000,0.000,-0.000,0.001,-0.005,0.000,-0.004
1232620000,1232620000,0.000,-0.000,0.001,0.011,0.014,0.027
1232720000,1232720000,0.001,0.001,0.001,0.015,-0.004,-0.004
1232820000,1232820000,0.000,-0.000,0.000,0.039,0.029,-0.032
1232920000,1232920000,0.001,-0.000,0.001,0.001,0.024,-0.006
1233020000,1233020000,0.001,-0.000,0.001,-0.039,-0.016,-0.012
1233120000,1233120000,0.001,-0.001,0.000,0.022,-0.042,-0.037
1233220000,1233220000,0.001,0.000,0.000,-0.012,0.044,-0.010
1233320000,1233320000,0.001,0.002,0.000,0.005,0.044,-0.018
1233420000,1233420000,0.001,0.002,0.000,0.012,0.011,0.000
1233520000,1233520000,0.001,0.002,0.000,0.019,0.037,0.008
1233620000,1233620000,0.002,0.002,0.000,0.020,0.014,0.001
1233720000,1233720000,0.000,0.003,8.628e-05,-0.040,0.012,-0.018
1233820000,1233820000,0.000,0.002,-5.782e-05,-0.019,0.022,-0.010
1233920000,1233920000,-0.001,0.002,-7.691e-05,-0.008,-0.003,0.026
1234020000,1234020000,-0.001,0.002,-0.000,-0.039,0.015,-0.021
1234120000,1234120000,-0.002,0.001,-0.000,0.006,-0.008,0.004
1234220000,1234220000,-0.002,0.002,-0.000,-0.020,-0.017,0.016
1234320000,1234320000,-0.003,0.001,6.811e-05,-0.016,0.020,0.034
1234420000,1234420000,-0.003,0.001,-0.000,0.006,0.014,-0.027
1234520000,1234520000,-0.003,-0.000,0.000,0.022,-0.018,-0.006
1234620000,1234620000,-0.003,-0.001,-0.000,-0.019,-0.007,-0.026
1234720000,1234720000,-0.003,0.000,-0.000,0.013,0.011,-0.024
1234820000,1234820000,-0.003,0.000,-0.000,-0.007,-0.034,-0.036
1234920000,1234920000,-0.003,-0.001,3.536e-05,-0.018,0.003,-0.020
1235020000,1235020000,-0.003,-0.002,-0.000,-0.006,-0.000,0.002
1235120000,1235120000,-0.003,-0.001,0.000,0.010,0.043,0.008
1235220000,1235220000,-0.003,-0.001,0.000,0.024,-0.004,-0.004
1235320000,1235320000,-0.004,-0.008,0.000,-0.063,-0.337,0.005
1235420000,1235420000,-0.010,-0.020,0.000,-0.096,0.188,-0.000
1235520000,1235520000,-0.013,-0.009,-5.829e-05,-0.024,0.079,0.000
1235620000,1235620000,-0.015,-0.004,0.000,-0.027,0.002,0.023
1235720000,1235720000,-0.016,-0.002,0.000,0.018,0.046,-0.011
1235820000,1235820000,-0.016,-0.001,0.000,0.008,-0.014,-0.005
1235920000,1235920000,-0.015,-0.000,0.000,0.037,0.018,-0.013
1236020000,1236020000,-0.013,-0.000,0.000,0.035,0.034,0.012
1236120000,1236120000,-0.011,-0.000,0.000,0.030,-0.013,0.016
1236220000,1236220000,-0.009,-0.000,0.000,-0.017,0.000,0.006
1236320000,1236320000,-0.006,1.547e-05,-0.000,-0.001,0.013,-0.002
1236420000,1236420000,-0.005,-0.000,-0.000,0.013,-0.039,-0.004
1236520000,1236520000,-0.004,0.000,-0.000,0.030,-0.021,-0.003
1236620000,1236620000,-0.002,-2.179e-05,-0.001,-0.001,-0.013,-0.009
1236720000,1236720000,-0.001,0.000,-0.002,0.025,0.036,-0.016
1236820000,1236820000,-0.001,0.000,-0.002,0.028,0.001,0.027
1236920000,1236920000,-0.000,0.000,-0.002,0.019,-0.013,0.001
1237020000,1237020000,0.001,0.000,-0.000,0.019,0.015,0.038
1237120000,1237120000,0.001,-9.339e-05,-0.000,0.009,-0.005,0.031
1237220000,1237220000,0.001,2.134e-05,-0.000,-0.023,-0.000,0.009
1237320000,1237320000,0.001,0.000,-0.002,0.006,-0.028,-0.016
1237420000,1237420000,0.000,0.000,-0.003,-0.019,-0.007,-0.005
1237520000,1237520000,0.000,0.000,-0.006,-0.000,-0.005,-0.012
1237620000,1237620000,0.001,0.000,-0.006,0.016,0.017,-0.019
1237720000,1237720000,0.000,-0.000,-0.006,-0.062,-0.040,-0.018
1237820000,1237820000,0.001,-0.000,-0.004,0.029,0.001,0.045
1237920000,1237920000,0.001,-0.000,-0.001,0.020,-0.023,0.024
1238020000,1238020000,0.000,-0.000,5.897e-05,-0.003,-0.008,0.012
1238120000,1238120000,0.000,-0.000,0.001,-0.016,-0.012,0.014
1238220000,1238220000,-0.000,-1.918e-06,0.002,0.003,0.006,0.012
1238320000,1238320000,-0.000,-0.000,0.003,-0.014,0.030,0.030
1238420000,1238420000,-0.000,-0.000,0.003,0.001,0.004,0.014
1238520000,1238520000,-0.000,-0.000,0.003,0.015,-0.027,0.001
1238620000,1238620000,-0.000,-0.000,0.003,-0.006,-0.001,-0.011
1238720000,1238720000,-0.000,-0.000,0.003,0.010,0.019,-0.009
1238820000,1238820000,-0.000,-0.000,0.003,-0.034,-0.009,0.040
1238920000,1238920000,-0.000,-0.000,0.003,-0.025,0.000,0.002
1239020000,1239020000,0.000,-0.000,0.002,-0.002,0.002,0.017
1239120000,1239120000,-0.000,-0.000,0.002,-0.042,0.007,0.002
1239220000,1239220000,-0.000,-0.000,0.002,-0.007,-0.044,-0.021
1239320000,1239320000,-0.004,-0.000,0.000,-0.103,-0.043,-0.006
1239420000,1239420000,-0.040,0.000,-0.001,-0.675,0.012,-0.019
1239520000,1239520000,-0.133,0.001,-0.003,-1.699,0.032,-0.017
1239620000,1239620000,-0.310,0.003,-0.005,-1.894,0.095,-0.003
1239720000,1239720000,-0.448,0.005,-0.006,-1.048,0.001,0.032
1239820000,1239820000,-0.517,0.002,-0.005,-0.465,0.017,0.027
1239920000,1239920000,-0.536,0.001,-0.003,-0.031,0.033,0.037
1240020000,1240020000,-0.522,0.000,-0.002,0.256,0.011,0.040
1240120000,1240120000,-0.481,0.000,-0.001,0.490,-0.012,-0.007
1240220000,1240220000,-0.424,-0.000,0.000,0.652,0.034,0.036
1240320000,1240320000,-0.359,0.001,0.000,0.711,0.008,-0.016
1240420000,1240420000,-0.289,0.007,-0.004,0.708,0.074,-0.088
1240520000,1240520000,-0.222,0.017,-0.014,0.641,0.083,-0.061
1240620000,1240620000,-0.159,0.022,-0.029,0.577,-0.094,-0.131
1240720000,1240720000,-0.104,0.009,-0.029,0.509,-0.105,0.046
1240820000,1240820000,0.001,-0.010,-0.023,2.600,-0.433,0.110
1240920000,1240920000,0.259,-0.004,-0.015,2.266,0.127,0.032
1241020000,1241020000,0.441,0.001,-0.010,1.495,0.047,0.036
1241120000,1241120000,0.546,0.003,-0.009,0.757,0.020,0.004
1241220000,1241220000,0.587,0.003,-0.007,0.134,0.013,0.017
1241320000,1241320000,0.580,0.002,-0.006,-0.224,-0.030,0.002
1241420000,1241420000,0.541,0.002,-0.006,-0.489,-0.035,0.005
1241520000,1241520000,0.482,0.001,-0.004,-0.621,0.005,0.020
1241620000,1241620000,0.413,0.000,-0.003,-0.760,-0.005,0.022
1241720000,1241720000,0.341,-0.000,-0.002,-0.745,-0.046,0.023
1241820000,1241820000,0.270,-0.000,-0.002,-0.708,-0.002,0.006
1241920000,1241920000,0.204,-0.001,-0.001,-0.619,-0.003,-0.020
1242020000,1242020000,0.144,-0.000,-0.002,-0.590,0.018,-0.019
1242120000,1242120000,0.103,-0.000,-0.002,0.079,0.017,-0.011
1242220000,1242220000,0.149,-0.000,5.750e-05,1.207,-0.024,0.009
1242320000,1242320000,0.339,0.003,0.003,1.488,-0.019,0.003
1242420000,1242420000,0.445,0.002,0.001,0.796,-0.014,-0.040
1242520000,1242520000,0.493,0.000,0.000,0.292,-0.037,0.018
1242620000,1242620000,0.501,0.000,-0.000,-0.085,-0.023,-0.012
1242720000,1242720000,0.478,0.000,-0.001,-0.364,0.040,-0.046
1242820000,1242820000,0.435,0.000,-0.002,-0.523,0.043,-0.016
1242920000,1242920000,0.378,0.000,-0.002,-0.604,0.014,-0.002
1243020000,1243020000,0.314,-0.000,-0.002,-0.660,-0.003,0.001
1243124000,1243124000,0.246,-0.000,-0.001,-0.648,0.024,0.000
1243224000,1243224000,0.183,-0.000,-0.001,-0.590,-0.011,-0.002
1243324000,1243324000,0.127,-0.000,-0.000,-0.544,0.015,0.009
1243424000,1243424000,0.078,-0.000,-0.000,-0.428,-0.011,-0.003
1243524000,1243524000,-0.037,-0.005,-0.001,-1.950,0.001,-0.035
1243624000,1243624000,-0.279,-0.004,-0.002,-2.180,-0.026,-0.000
1243724000,1243724000,-0.454,-0.003,-0.002,-1.440,0.019,0.009
1243824000,1243824000,-0.554,-0.002,-0.000,-0.687,0.053,0.038
1243924000,1243924000,-0.591,-0.002,0.000,-0.142,0.023,-0.003
1244024000,1244024000,-0.581,-0.001,0.001,0.294,0.027,0.024
1244124000,1244124000,-0.540,0.000,0.002,0.488,0.016,0.004
1244224000,1244224000,-0.481,0.001,0.002,0.650,0.034,0.000
1244324000,1244324000,-0.411,0.001,0.002,0.709,0.004,0.011
1244424000,1244424000,-0.338,0.001,0.003,0.740,-0.035,-0.000
1244524000,1244524000,-0.268,0.001,0.004,0.670,-0.006,-0.006
1244624000,1244624000,-0.202,0.001,0.004,0.660,-0.014,0.005
1244724000,1244724000,-0.143,0.001,0.004,0.542,0.045,-0.017
1244824000,1244824000,-0.092,0.000,0.004,0.473,0.058,-0.004
1244924000,1244924000,-0.049,2.024e-05,0.004,0.403,-0.044,0.013
1245024000,1245024000,-0.015,-0.000,0.003,0.313,-0.012,-0.019
1245124000,1245124000,0.009,-0.000,0.001,0.250,0.006,-0.020
1245224000,1245224000,-0.052,9.168e-05,-0.001,-1.915,0.007,-0.024
1245324000,1245324000,-0.266,0.003,-0.004,-1.875,0.111,-0.021
1245424000,1245424000,-0.402,0.002,-0.003,-1.038,-0.012,-0.011
1245524000,1245524000,-0.472,0.000,-0.001,-0.485,-0.045,0.037
1245624000,1245624000,-0.497,0.000,0.000,-0.098,0.033,0.019
1245724000,1245724000,-0.487,3.011e-05,0.001,0.172,-0.008,0.012
1245824000,1245824000,-0.453,0.000,0.001,0.447,0.015,-0.012
1245924000,1245924000,-0.402,0.000,0.002,0.586,-0.002,-0.006
1246024000,1246024000,-0.340,0.000,0.002,0.648,-0.041,0.005
1246124000,1246124000,-0.275,0.000,0.001,0.667,-0.022,-0.013
1246224000,1246224000,-0.211,4.475e-05,0.001,0.640,-0.027,0.003
1246324000,1246324000,-0.151,0.000,0.000,0.555,0.031,-0.035
1246424000,1246424000,-0.098,0.000,-0.000,0.482,0.001,-0.040
1246524000,1246524000,-0.054,-0.000,-0.000,0.408,0.021,0.011
1246624000,1246624000,-0.019,0.000,-0.000,0.305,0.008,0.041
1246724000,1246724000,0.043,-0.003,-0.000,2.450,-0.179,0.055
1246824000,1246824000,0.286,-0.004,0.002,2.170,0.006,0.017
1246924000,1246924000,0.460,-0.002,0.001,1.406,0.052,-0.020
1247024000,1247024000,0.561,-0.001,-0.000,0.722,-0.000,0.003
1247124000,1247124000,0.598,-0.000,-0.001,0.149,0.028,-0.000
1247224000,1247224000,0.587,-0.000,-0.002,-0.261,0.010,-0.005
1247324000,1247324000,0.544,-0.000,-0.002,-0.541,-0.049,0.002
1247424000,1247424000,0.483,-0.000,-0.002,-0.702,-0.017,0.012
1247524000,1247524000,0.412,6.947e-05,-0.001,-0.738,0.042,0.013
1247624000,1247624000,0.339,-0.000,-0.001,-0.719,-0.013,-0.021
1247724000,1247724000,0.267,0.000,-0.000,-0.679,-0.001,0.014
1247824000,1247824000,0.200,-0.000,0.000,-0.628,-0.019,0.011
1247924000,1247924000,0.140,6.106e-05,0.001,-0.558,0.020,0.051
1248024000,1248024000,0.088,2.348e-05,0.000,-0.461,-0.029,-0.020
1248124000,1248124000,0.047,0.000,0.000,-0.327,0.019,-0.005
1248224000,1248224000,0.041,0.000,0.000,0.223,-0.001,-0.011
1248324000,1248324000,0.161,0.000,0.002,2.067,-0.049,0.052
1248424000,1248424000,0.337,0.003,0.002,1.410,0.022,-0.021
1248524000,1248524000,0.439,0.002,0.001,0.746,-0.004,-0.005
1248624000,1248624000,0.484,0.001,-0.000,0.254,-0.016,-0.025
1248724000,1248724000,0.490,0.001,-0.002,-0.101,-0.022,-0.021
1248824000,1248824000,0.467,0.001,-0.002,-0.343,0.006,-0.029
1248924000,1248924000,0.425,0.000,-0.002,-0.521,-0.028,0.002
1249024000,1249024000,0.369,0.000,-0.002,-0.598,-0.015,-0.011
1249124000,1249124000,0.306,0.000,-0.001,-0.609,0.014,0.015
1249224000,1249224000,0.242,-6.074e-05,-0.002,-0.619,-0.038,-0.005
1249324000,1249324000,0.180,-0.000,-0.001,-0.590,-0.015,0.035
1249424000,1249424000,0.124,3.644e-05,-0.000,-0.536,-0.013,-0.022
1249524000,1249524000,0.059,-0.004,-6.437e-05,-1.452,0.010,-0.018
1249624000,1249624000,-0.177,-0.003,-0.002,-2.487,-0.001,0.001
1249724000,1249724000,-0.385,-0.002,-0.002,-1.752,-0.019,0.036
1249824000,1249824000,-0.517,-0.001,-0.000,-1.008,0.010,0.038
1249924000,1249924000,-0.580,0.000,0.001,-0.423,0.032,-0.001
1250024000,1250024000,-0.589,0.000,0.002,0.073,0.049,0.008
1250124000,1250124000,-0.561,0.000,0.003,0.429,0.029,0.003
1250224000,1250224000,-0.509,0.000,0.003,0.580,-0.010,7.359e-05
1250324000,1250324000,-0.443,0.000,0.003,0.703,0.011,-0.011
1250424000,1250424000,-0.372,0.000,0.002,0.736,0.010,-0.031
1250524000,1250524000,-0.300,0.000,0.002,0.676,-0.044,-0.009
1250624000,1250624000,-0.231,-0.000,0.001,0.678,-0.022,-0.051
1250724000,1250724000,-0.169,-2.178e-05,0.001,0.549,-0.012,-0.003
1250824000,1250824000,-0.113,-0.000,0.000,0.516,0.012,0.023
1250924000,1250924000,-0.070,-0.000,0.000,0.341,-0.006,-0.018
1251024000,1251024000,-0.150,0.000,-0.002,-1.767,-0.034,-0.017
1251124000,1251124000,-0.339,0.003,-0.003,-1.485,0.044,0.017
1251224000,1251224000,-0.444,0.002,-0.002,-0.794,-0.030,-0.027
1251324000,1251324000,-0.492,0.001,0.000,-0.290,-0.017,0.000
1251424000,1251424000,-0.500,0.000,0.001,0.069,-0.004,0.019
1251524000,1251524000,-0.477,0.000,0.002,0.329,0.004,-0.010
1251624000,1251624000,-0.434,0.000,0.002,0.472,0.006,-0.007
1251724000,1251724000,-0.377,0.000,0.003,0.609,0.007,0.010
1251824000,1251824000,-0.313,0.000,0.002,0.671,0.011,0.015
1251924000,1251924000,-0.247,0.000,0.001,0.630,-0.009,-0.005
1252024000,1252024000,-0.184,-0.000,0.001,0.611,-0.033,-0.027
1252124000,1252124000,-0.127,-0.001,0.000,0.544,-0.011,-0.021
1252224000,1252224000,-0.078,-0.001,0.000,0.453,-0.012,0.007
1252324000,1252324000,-0.037,-0.001,0.000,0.393,0.012,-0.006
1252424000,1252424000,-0.006,-0.000,-0.000,0.291,0.020,-0.024
1252524000,1252524000,0.015,-0.000,-0.000,0.209,0.013,-0.024
1252624000,1252624000,0.218,-0.005,0.002,2.363,0.009,0.017
1252724000,1252724000,0.414,-0.002,0.002,1.672,0.073,0.013
1252824000,1252824000,0.536,-0.001,0.000,0.914,0.041,0.007
1252924000,1252924000,0.591,-0.000,-0.002,0.289,0.037,-0.027
1253024000,1253024000,0.593,0.000,-0.003,-0.137,0.034,-0.059
1253124000,1253124000,0.559,0.001,-0.004,-0.427,0.038,-0.011
1253224000,1253224000,0.502,0.000,-0.004,-0.627,0.011,0.019
1253324000,1253324000,0.434,0.000,-0.003,-0.690,0.012,0.014
1253424000,1253424000,0.361,0.000,-0.003,-0.742,-0.009,-0.027
1253524000,1253524000,0.289,0.000,-0.003,-0.681,0.030,-0.035
1253624000,1253624000,0.222,0.000,-0.002,-0.613,0.021,0.030
1253724000,1253724000,0.169,0.000,-0.001,-0.264,0.035,0.024
1253824000,1253824000,0.171,-0.000,-0.000,0.458,-0.043,0.029
1253924000,1253924000,0.328,0.002,0.002,1.711,0.051,0.011
1254024000,1254024000,0.448,0.002,0.002,0.891,-0.036,0.014
1254124000,1254124000,0.505,0.001,0.000,0.372,0.032,-0.020
1254224000,1254224000,0.517,0.000,-0.000,-0.050,0.007,-0.041
1254324000,1254324000,0.497,-1.691e-05,-0.002,-0.307,-0.001,-0.014
1254424000,1254424000,0.455,4.949e-05,-0.002,-0.472,0.004,0.014
1254524000,1254524000,0.398,-4.216e-05,-0.002,-0.607,0.008,0.006
1254624000,1254624000,0.333,8.247e-05,-0.002,-0.680,0.026,0.009
1254724000,1254724000,0.265,0.000,-0.001,-0.685,0.033,0.012
1254824000,1254824000,0.200,-0.000,-0.001,-0.647,-0.028,-0.011
1254924000,1254924000,0.140,-0.000,-0.000,-0.545,-0.035,-0.000
1255024000,1255024000,0.087,-0.000,-0.000,-0.530,0.000,-0.003
1255124000,1255124000,0.044,-0.000,-0.000,-0.376,-0.042,-0.011
1255224000,1255224000,0.009,-2.280e-05,0.000,-0.305,0.030,0.008
1255324000,1255324000,-0.018,-0.004,0.000,-0.406,-0.128,0.009
1255424000,1255424000,-0.188,-0.003,-0.001,-2.443,0.017,-0.025
1255524000,1255524000,-0.395,-0.002,-0.002,-1.726,-0.061,-0.012
1255624000,1255624000,-0.528,-0.000,-0.000,-1.041,0.030,-0.028
1255724000,1255724000,-0.592,0.000,0.001,-0.372,0.024,-0.014
1255824000,1255824000,-0.600,0.001,0.003,0.087,0.008,0.016
1255924000,1255924000,-0.571,0.000,0.004,0.416,-0.020,0.018
1256024000,1256024000,-0.517,0.001,0.004,0.574,0.011,-0.026
1256124000,1256124000,-0.449,0.000,0.004,0.715,-0.016,-0.008
1256224000,1256224000,-0.376,0.000,0.003,0.739,0.009,-0.009
1256324000,1256324000,-0.302,0.000,0.003,0.714,-0.024,0.018
1256424000,1256424000,-0.233,0.000,0.002,0.698,-0.001,-0.017
1256524000,1256524000,-0.168,0.000,0.001,0.633,0.003,-0.024
1256624000,1256624000,-0.112,0.000,0.001,0.520,0.035,-0.032
1256724000,1256724000,-0.064,-0.000,0.000,0.428,-0.022,-0.043
1256824000,1256824000,-0.026,-0.000,0.001,0.320,-0.033,0.022
1256924000,1256924000,0.003,0.000,0.000,0.273,0.025,0.007
1257024000,1257024000,0.026,-0.000,-0.000,0.198,-0.060,-0.023
1257124000,1257124000,0.040,-0.000,-3.010e-05,0.093,0.000,0.021
1257224000,1257224000,0.049,-0.000,-7.611e-05,0.064,0.003,-0.005
1257324000,1257324000,0.054,-0.000,-0.000,0.013,0.000,0.002
1257424000,1257424000,0.054,8.198e-05,-0.000,-0.008,0.029,0.029
1257524000,1257524000,0.052,0.000,-0.000,-0.032,0.004,0.003
1257624000,1257624000,0.047,-6.811e-06,-0.000,-0.056,-0.025,-0.003
1257724000,1257724000,0.041,-6.734e-05,-0.000,-0.048,0.000,-0.000
1257824000,1257824000,0.035,-0.000,-0.000,-0.065,-0.037,-0.006
1257924000,1257924000,0.029,-0.000,-0.000,-0.033,0.006,0.000
1258024000,1258024000,0.023,-4.396e-05,-0.000,-0.074,0.001,-0.025
1258124000,1258124000,0.018,0.000,-0.000,-0.018,0.012,0.024
1258224000,1258224000,0.013,0.000,0.000,-0.016,-0.002,-0.006
1258324000,1258324000,0.009,0.000,0.000,-0.064,-0.003,0.010
1258424000,1258424000,0.006,0.000,1.561e-05,-0.011,0.020,-0.013
1258524000,1258524000,0.003,0.000,-0.000,-0.015,-0.017,-0.032
1258624000,1258624000,0.001,0.000,-0.000,-0.034,0.042,-0.000
1258724000,1258724000,-0.000,0.000,-4.364e-06,-0.040,-0.011,-0.002
1258824000,1258824000,-0.000,0.000,-0.000,0.012,-0.043,-0.018
1258924000,1258924000,-0.000,4.035e-06,0.000,-0.036,-0.016,0.006
1259024000,1259024000,-0.000,-7.098e-05,0.000,-0.002,-0.019,0.008
1259124000,1259124000,-0.000,0.000,0.000,0.000,-0.001,0.000
1259224000,1259224000,-0.000,0.000,-0.000,-0.006,0.038,-0.033
1259324000,1259324000,-0.000,0.000,0.000,0.005,0.027,0.004
1259424000,1259424000,-0.000,-0.000,-0.000,-0.012,-0.036,-0.021
1259524000,1259524000,-0.000,-0.000,-0.000,-0.020,-0.004,-0.021
1259624000,1259624000,0.008,0.060,5.113e-05,0.263,1.346,-0.004
1259724000,1259724000,0.059,0.169,-0.000,0.695,0.584,-0.015
1259824000,1259824000,0.148,0.184,-0.003,1.055,0.160,-0.029
1259924000,1259924000,0.264,0.193,-0.005,1.256,0.291,-0.048
1260024000,1260024000,0.390,0.183,-0.009,1.254,-0.270,-0.021
1260124000,1260124000,0.475,0.073,-0.006,0.592,-0.809,0.045
1260224000,1260224000,0.509,0.031,-0.004,0.150,-0.345,0.010
1260324000,1260324000,0.505,0.011,-0.002,-0.164,-0.090,0.016
1260424000,1260424000,0.474,0.006,-0.002,-0.406,-0.038,-0.001
1260524000,1260524000,0.425,0.006,-0.001,-0.558,0.029,-0.003
1260624000,1260624000,0.364,0.001,-0.001,-0.655,-0.164,-0.007
1260724000,1260724000,0.299,-0.009,-5.767e-05,-0.656,0.007,-0.016
1260824000,1260824000,0.234,-0.010,0.002,-0.636,-0.004,0.010
1260924000,1260924000,0.170,-0.019,0.004,-0.679,-0.390,0.020
1261024000,1261024000,0.091,-0.078,0.012,-0.905,-0.391,0.103
1261124000,1261124000,-0.002,-0.075,0.019,-0.962,0.319,0.067
1261224000,1261224000,-0.098,-0.052,0.022,-0.984,0.085,-0.001
1261324000,1261324000,-0.189,-0.050,0.023,-0.878,0.067,-0.016
1261424000,1261424000,-0.272,-0.050,0.024,-0.778,-0.094,0.038
1261524000,1261524000,-0.343,-0.051,0.024,-0.620,-0.004,0.024
1261624000,1261624000,-0.400,-0.051,0.023,-0.524,-0.066,-0.014
1261724000,1261724000,-0.442,-0.052,0.023,-0.384,4.602e-05,-0.003
1261824000,1261824000,-0.469,-0.058,0.022,-0.215,-0.079,0.007
1261924000,1261924000,-0.481,-0.056,0.020,-0.037,0.095,-0.044
1262024000,1262024000,-0.480,-0.063,0.018,0.071,-0.082,-0.045
1262124000,1262124000,-0.466,-0.037,0.015,0.263,0.569,-0.028
1262224000,1262224000,-0.431,-0.010,0.012,0.422,0.026,0.002
1262324000,1262324000,-0.381,-0.007,0.009,0.541,0.030,0.002
1262424000,1262424000,-0.320,-0.002,0.006,0.656,0.044,-0.032
1262524000,1262524000,-0.250,6.209e-05,0.004,0.706,0.018,0.009
1262624000,1262624000,-0.178,0.000,0.003,0.699,0.028,-0.012
1262724000,1262724000,-0.107,-0.000,0.001,0.696,-0.025,-0.008
1262824000,1262824000,-0.038,9.149e-05,0.001,0.621,0.028,0.028
1262924000,1262924000,0.022,-0.001,0.000,0.614,-0.005,0.010
1263024000,1263024000,0.076,0.000,-0.000,0.493,-0.019,-0.008
1263124000,1263124000,0.119,-0.000,-0.000,0.393,-0.002,0.012
1263224000,1263224000,0.152,-0.000,-0.001,0.284,0.016,-0.015
1263324000,1263324000,0.174,-0.001,-0.001,0.195,-0.005,0.004
1263424000,1263424000,0.185,-0.001,-0.001,0.059,0.017,0.001
1263524000,1263524000,0.187,-0.001,-0.001,-0.018,-0.020,-0.033
1263624000,1263624000,0.180,-0.001,-0.001,-0.120,-0.039,-0.037
1263724000,1263724000,0.166,-0.002,-0.001,-0.162,-0.062,0.023
1263824000,1263824000,0.148,-0.002,-0.001,-0.208,-0.013,0.018
1263924000,1263924000,0.124,-0.002,-0.002,-0.265,-0.033,0.008
1264024000,1264024000,0.098,-0.004,-0.002,-0.257,0.026,0.015
1264124000,1264124000,0.071,-0.005,-0.002,-0.263,-0.010,0.013
1264224000,1264224000,0.045,-0.006,-0.002,-0.237,0.034,-0.024
1264324000,1264324000,0.019,-0.004,-0.001,-0.246,0.060,0.011
1264424000,1264424000,-0.003,-0.005,-0.001,-0.216,-0.012,-0.012
1264524000,1264524000,-0.023,-0.002,-0.001,-0.170,0.029,0.009
1264624000,1264624000,-0.041,-0.001,-0.001,-0.148,-0.015,0.012
1264724000,1264724000,-0.055,-0.002,-0.000,-0.124,-0.001,0.000
1264824000,1264824000,-0.066,-0.001,-0.000,-0.073,-0.003,0.004
1264924000,1264924000,-0.072,-0.002,-0.001,-0.059,-0.005,-0.034
1265024000,1265024000,-0.075,-0.003,-0.000,-0.007,0.004,0.015
1265124000,1265124000,-0.074,-0.002,-0.000,0.029,0.020,-0.009
1265224000,1265224000,-0.070,-0.004,-0.000,0.070,-0.079,0.018
1265324000,1265324000,-0.064,-0.003,5.745e-05,0.072,0.021,-0.004
1265424000,1265424000,-0.058,-0.004,-0.000,0.084,0.005,0.012
1265524000,1265524000,-0.049,-0.004,8.152e-05,0.109,0.010,0.023
1265624000,1265624000,-0.040,-0.004,-0.000,0.082,0.006,-0.010
1265724000,1265724000,-0.031,-0.004,0.000,0.057,0.033,0.017
1265824000,1265824000,-0.022,-0.001,0.000,0.094,0.042,0.014
1265924000,1265924000,-0.014,-0.000,-1.901e-05,0.086,0.005,0.013
1266024000,1266024000,-0.008,-0.001,-0.000,0.069,0.030,-0.008
1266124000,1266124000,-0.001,-0.001,-0.000,0.041,-0.017,0.037
1266224000,1266224000,0.004,0.001,-0.000,0.075,0.041,-0.015
1266324000,1266324000,0.008,0.000,-0.000,0.064,0.025,0.022
1266424000,1266424000,0.010,-0.001,-0.000,0.009,-0.018,-0.002
1266524000,1266524000,0.013,-0.003,-3.618e-05,-0.012,0.040,0.002
1266624000,1266624000,0.015,-0.002,-7.925e-05,0.031,0.023,0.011
1266724000,1266724000,0.014,-0.002,-0.000,-0.018,-0.049,-0.002
1266824000,1266824000,0.015,-0.002,-0.000,0.042,-0.021,0.011
1266924000,1266924000,0.013,-0.001,0.000,-0.063,0.004,-0.004
1267024000,1267024000,0.013,-0.001,-0.000,0.011,0.004,-0.003
1267124000,1267124000,0.010,-0.000,-0.000,-0.031,0.002,-0.026
1267224000,1267224000,0.007,-0.001,-6.634e-05,0.007,-0.005,-0.015
1267324000,1267324000,0.004,0.000,-0.000,-0.011,0.019,-0.034
1267424000,1267424000,0.003,0.001,0.000,-0.005,-0.026,0.010
1267524000,1267524000,0.001,0.001,2.150e-05,-0.010,0.021,0.000
1267624000,1267624000,-0.000,0.001,-0.000,-0.005,0.007,-0.016
1267724000,1267724000,-0.001,0.001,-0.000,-0.004,0.033,-0.035
1267824000,1267824000,-0.002,0.000,-0.000,-0.046,-0.003,0.012
1267924000,1267924000,-0.003,-0.000,0.000,0.021,-0.036,0.031
1268024000,1268024000,-0.004,-0.000,0.000,-0.009,0.010,0.027
1268124000,1268124000,-0.004,0.001,0.000,0.004,0.006,0.011
1268224000,1268224000,-0.005,0.001,-0.000,-0.016,-0.037,-0.044
1268324000,1268324000,-0.006,0.001,-0.000,-0.039,-0.025,0.017
1268424000,1268424000,-0.005,0.001,-0.000,0.007,-0.005,-0.009
1268524000,1268524000,-0.005,0.001,5.353e-05,0.018,0.009,-0.006
1268624000,1268624000,-0.005,0.001,8.327e-07,-0.021,0.010,0.017
1268724000,1268724000,-0.005,-0.001,-0.000,-0.029,-0.044,-0.016
1268824000,1268824000,-0.005,-0.003,2.024e-05,0.040,-0.012,0.028
1268924000,1268924000,-0.005,-0.002,-0.000,-0.019,0.019,-0.000
1269024000,1269024000,-0.005,-0.002,-0.000,0.027,-0.016,-0.021
1269124000,1269124000,-0.004,-0.002,-0.000,0.020,0.035,-0.040
1269224000,1269224000,-0.003,-0.001,-0.000,0.017,-0.018,0.001
1269324000,1269324000,-0.000,-0.002,0.000,0.032,-0.003,0.008
1269424000,1269424000,-9.906e-05,-0.002,0.000,0.000,-0.007,-0.000
1269524000,1269524000,0.000,-0.002,0.000,-0.005,0.014,-0.003
1269624000,1269624000,0.002,-0.001,0.000,-0.004,0.007,-0.013
1269724000,1269724000,0.004,-0.001,0.000,0.011,0.007,0.016
1269824000,1269824000,0.005,-0.000,0.000,-0.013,-0.013,0.012
1269924000,1269924000,0.006,4.007e-05,0.000,0.013,0.007,-0.000
1270024000,1270024000,0.006,9.855e-05,0.000,-0.002,-0.011,0.016
1270124000,1270124000,0.006,0.001,0.000,0.004,0.029,0.030
1270224000,1270224000,0.006,0.001,-6.952e-05,0.015,0.023,-0.000
1270324000,1270324000,0.006,0.001,-0.000,0.013,0.004,-0.009
1270424000,1270424000,0.007,-0.000,-0.000,0.002,-0.010,-0.022
1270524000,1270524000,0.007,0.000,-0.000,0.011,-0.001,-0.014
1270624000,1270624000,0.006,0.000,3.729e-05,0.002,-0.016,-0.020
1270724000,1270724000,0.006,0.000,0.000,-0.013,-0.017,0.028
1270824000,1270824000,0.006,0.000,0.000,-0.021,0.027,-0.020
1270924000,1270924000,0.004,0.001,-1.287e-05,-0.017,0.047,0.000
1271024000,1271024000,0.002,0.001,-0.000,-0.051,-0.021,0.002
1271124000,1271124000,0.000,0.002,-0.000,-0.004,0.008,-0.003
1271224000,1271224000,-0.001,0.002,-0.000,-0.049,0.034,-0.023
1271324000,1271324000,-0.002,0.002,-0.000,-0.024,0.006,-0.021
1271424000,1271424000,-0.003,0.001,-8.153e-05,-0.028,-0.006,-0.011
1271524000,1271524000,-0.003,0.001,0.000,-0.040,0.020,0.013
1271624000,1271624000,-0.003,0.000,0.000,0.010,0.009,-0.009
1271724000,1271724000,-0.004,-0.000,3.536e-05,-0.020,0.004,0.002
1271824000,1271824000,-0.003,0.000,-0.000,0.002,0.034,-0.014
1271924000,1271924000,-0.003,0.002,-0.000,-0.021,0.047,0.001
1272024000,1272024000,-0.003,0.002,-0.000,0.004,-0.015,0.021
1272124000,1272124000,-0.003,0.002,-9.312e-05,0.002,-0.015,0.008
1272224000,1272224000,-0.002,0.002,-0.000,-0.005,-0.013,0.018
1272324000,1272324000,-0.001,0.002,-0.000,0.005,0.027,-0.018
1272424000,1272424000,-0.000,0.003,8.281e-05,0.015,-0.010,0.000
1272524000,1272524000,0.000,0.002,1.356e-06,0.005,-0.031,0.001
1272624000,1272624000,0.002,0.001,-0.000,0.021,0.003,0.001
1272724000,1272724000,0.002,0.000,0.000,-0.035,0.000,0.032
1272824000,1272824000,0.003,-0.001,-0.000,0.006,-0.002,0.004
1272924000,1272924000,0.003,-0.000,0.000,-0.025,0.003,0.026
1273024000,1273024000,0.003,-0.000,-0.000,0.003,0.006,-0.025
1273124000,1273124000,0.004,-0.001,0.000,0.020,0.018,0.034
1273224000,1273224000,0.004,-0.003,-0.000,-0.003,-0.031,-0.041
1273324000,1273324000,0.004,-0.003,-0.000,0.011,0.022,-0.008
1273424000,1273424000,0.004,-0.003,-0.000,-0.019,0.001,-0.025
1273524000,1273524000,0.003,-0.001,0.000,-0.014,0.046,0.021
1273624000,1273624000,0.004,0.000,0.000,0.017,-0.003,0.010
1273724000,1273724000,0.004,0.001,0.000,-0.011,0.000,0.036
1273824000,1273824000,0.004,0.002,0.000,0.038,-0.013,0.013
1273924000,1273924000,0.004,0.001,-7.664e-06,-0.004,-0.007,0.001
1274024000,1274024000,0.003,0.001,1.111e-05,-0.000,0.049,-0.006
1274124000,1274124000,0.003,0.002,0.000,0.005,0.000,0.008
1274224000,1274224000,0.003,0.002,0.000,0.003,-0.011,0.007
1274324000,1274324000,0.003,0.002,-5.830e-05,0.003,0.014,-0.012
1274424000,1274424000,0.003,0.002,8.089e-05,0.017,-0.017,-0.033
1274524000,1274524000,0.004,0.001,-5.736e-05,0.030,-0.036,0.011
1274624000,1274624000,0.003,0.000,-0.000,-0.007,-0.028,-0.019
1274724000,1274724000,0.003,0.000,-0.000,-0.000,-0.012,-0.022
1274824000,1274824000,0.001,-0.000,0.000,-0.041,-0.006,0.029
1274924000,1274924000,-0.001,-0.000,-0.000,0.005,0.030,-0.001
1275024000,1275024000,-0.004,-5.770e-05,3.982e-06,-0.003,0.042,0.002
1275124000,1275124000,-0.006,7.710e-05,-0.000,-0.021,-0.071,-0.033
1275224000,1275224000,-0.007,-0.001,0.000,0.016,0.037,-0.004
1275324000,1275324000,-0.008,-0.000,-0.000,0.009,0.024,-0.034
1275424000,1275424000,-0.008,-0.000,0.000,-0.022,0.047,0.003
1275524000,1275524000,-0.008,0.001,6.738e-05,0.026,0.009,-0.000
1275628000,1275628000,-0.008,0.003,-0.000,-0.032,0.092,0.007
1275728000,1275728000,-0.008,0.002,9.461e-05,-0.013,0.023,0.019
1275828000,1275828000,-0.007,0.002,-0.000,-0.021,-0.000,-0.027
1275928000,1275928000,-0.005,0.000,0.000,0.004,0.040,0.027
1276028000,1276028000,-0.003,-0.001,0.000,0.030,-0.005,-0.021
1276128000,1276128000,-0.001,-0.000,9.347e-05,0.030,0.047,0.015
1276228000,1276228000,-8.171e-05,-0.001,-3.347e-05,0.000,-0.044,-0.005
1276328000,1276328000,0.000,-0.002,-9.078e-05,-0.023,-0.008,-0.002
1276428000,1276428000,0.002,-0.003,-0.000,0.010,-0.004,-0.014
1276528000,1276528000,0.002,-0.003,-0.000,-0.041,-0.007,-0.009
1276628000,1276628000,0.002,-0.003,-0.000,-0.000,-0.003,-0.009
1276728000,1276728000,0.002,-0.000,-0.000,-0.025,0.032,-0.010
1276828000,1276828000,0.002,0.000,-0.000,-0.007,0.040,-0.002
1276928000,1276928000,0.003,0.001,-0.000,-0.004,-0.010,0.005
1277028000,1277028000,0.003,0.001,-0.000,-0.026,-0.010,0.018
1277128000,1277128000,0.003,0.001,-0.000,-0.010,0.008,-0.012
1277228000,1277228000,0.003,-0.000,-0.000,0.017,-0.024,-0.015
1277328000,1277328000,0.003,-0.000,-6.684e-05,0.024,0.015,-0.005
1277428000,1277428000,0.002,-9.800e-05,0.000,-0.033,0.018,-0.001
1277528000,1277528000,0.002,0.000,4.858e-05,-0.023,0.001,-0.009
1277628000,1277628000,0.002,0.000,-0.000,0.005,0.003,-0.011
1277728000,1277728000,0.001,0.001,0.000,0.021,0.030,-0.011
1277828000,1277828000,0.000,0.002,0.000,-0.016,0.024,0.005
1277928000,1277928000,9.559e-06,0.001,-0.000,-0.043,-0.035,-0.033
1278028000,1278028000,-5.771e-05,0.001,0.000,-0.020,0.007,0.018
1278128000,1278128000,-0.000,0.000,-0.000,0.005,-0.034,0.001
1278228000,1278228000,1.015e-06,-0.000,-0.000,0.028,-0.009,-0.025
1278328000,1278328000,-0.000,-0.000,0.000,0.003,0.003,0.029
1278428000,1278428000,-0.000,0.000,5.767e-06,0.000,0.027,0.009
1278528000,1278528000,-0.000,0.000,6.762e-05,0.016,0.010,-0.004
1278628000,1278628000,-0.000,0.000,0.000,0.007,-0.016,0.020
1278728000,1278728000,-0.000,0.000,0.000,0.003,0.036,-0.014
1278828000,1278828000,-0.000,0.001,-0.000,0.018,0.025,0.016
1278928000,1278928000,-0.000,-8.490e-05,0.000,-0.025,-0.031,0.039
1279028000,1279028000,-0.000,-0.001,-0.000,-0.011,-0.021,0.018
1279128000,1279128000,-0.000,-0.002,-0.000,0.003,0.023,-0.042
1279228000,1279228000,0.000,-0.002,-0.000,0.028,0.063,0.013
1279328000,1279328000,0.000,-0.001,-5.254e-05,-6.212e-05,-0.009,-0.004
1279428000,1279428000,0.001,-0.000,-0.000,0.022,0.005,0.011
1279528000,1279528000,0.002,-0.000,-0.000,0.027,-0.020,-0.008
1279628000,1279628000,0.002,0.000,-6.351e-05,-0.019,-0.014,0.005
1279728000,1279728000,0.002,0.001,-0.000,-0.003,0.009,-0.015
1279828000,1279828000,0.002,0.000,-0.000,-0.005,-0.063,-0.005
1279928000,1279928000,0.002,0.000,-9.470e-05,-0.008,-0.022,0.012
1280028000,1280028000,0.001,-0.001,-3.431e-05,-0.005,-0.055,0.031
1280128000,1280128000,0.001,-0.001,-3.338e-05,-0.028,-0.005,-0.004
1280228000,1280228000,0.001,-0.003,0.000,-0.000,-0.020,0.009
1280328000,1280328000,0.001,-0.003,0.000,0.009,-0.004,0.005
1280428000,1280428000,0.001,-0.003,0.000,0.008,0.004,0.019
1280528000,1280528000,0.001,-0.002,-9.219e-05,0.040,0.036,-0.033
1280628000,1280628000,0.001,-0.001,0.000,-0.009,-0.027,0.043
1280728000,1280728000,0.000,0.000,0.000,-0.031,0.050,0.034
1280828000,1280828000,0.000,0.001,-0.000,0.029,0.010,-0.009
1280928000,1280928000,0.000,0.000,8.674e-05,0.010,0.024,0.015
1281028000,1281028000,-9.166e-05,0.002,0.000,-0.030,0.003,0.036
1281128000,1281128000,8.904e-05,0.000,-0.000,0.011,-0.053,-0.011
1281228000,1281228000,-0.000,-0.000,0.000,-0.004,-0.060,0.004
1281328000,1281328000,-0.000,-0.001,-0.000,-0.011,0.039,-0.009
1281428000,1281428000,-0.000,-0.002,0.000,-0.010,-0.034,0.023
1281528000,1281528000,-0.000,-0.001,-0.000,-0.007,-0.005,-0.030
1281628000,1281628000,-0.000,-0.000,-0.000,-0.000,0.057,-0.002
1281728000,1281728000,-0.000,-0.000,-0.000,0.007,0.021,-0.024
1281828000,1281828000,-0.000,0.000,0.000,0.037,0.016,-0.009
1281928000,1281928000,-0.000,-0.000,0.000,0.005,0.030,0.031
1282028000,1282028000,-0.001,-0.000,9.742e-05,-0.027,0.003,0.024
1282128000,1282128000,-0.001,0.000,-8.684e-05,-0.010,0.007,0.009
1282228000,1282228000,-0.001,0.001,-0.000,-0.014,0.011,-0.013
1282328000,1282328000,-0.001,0.001,3.291e-05,-0.030,0.031,0.027
1282428000,1282428000,-0.001,0.002,-0.000,0.004,0.004,-0.001
1282528000,1282528000,-0.001,0.005,-0.000,-0.017,0.008,0.019
1282628000,1282628000,-0.000,0.004,-7.800e-05,-0.010,-0.040,-0.015
1282728000,1282728000,-0.000,0.003,-3.776e-06,0.009,-0.001,0.004
1282828000,1282828000,-0.000,0.004,-0.000,0.002,0.020,-0.030
1282928000,1282928000,0.000,0.002,0.000,0.038,-0.005,0.046
1283028000,1283028000,0.000,0.001,-0.000,0.014,-0.022,-0.008
1283128000,1283128000,0.001,0.003,-0.000,0.008,0.003,-0.011
1283228000,1283228000,0.001,0.002,0.000,-0.004,-0.027,0.014
1283328000,1283328000,0.002,0.003,-1.315e-05,0.041,-0.005,0.002
1283428000,1283428000,0.003,0.001,-9.121e-05,0.004,-0.037,-0.032
1283528000,1283528000,0.004,0.000,2.973e-05,0.026,0.021,-0.007
1283628000,1283628000,0.003,-0.000,-0.000,-0.003,0.000,0.006
1283728000,1283728000,0.003,-0.001,-0.000,-0.015,-0.038,-0.000
1283828000,1283828000,0.003,-0.001,-0.000,-0.018,-0.023,-0.018
1283928000,1283928000,0.003,-0.000,0.000,0.016,-0.009,0.012
1284028000,1284028000,0.003,0.000,-8.817e-05,-0.015,0.038,0.024
1284128000,1284128000,0.003,0.000,0.000,0.027,-0.022,0.016
1284228000,1284228000,0.003,-0.000,0.000,-0.027,-0.039,0.011
1284328000,1284328000,0.003,-0.001,0.000,-0.018,0.006,-0.000
1284428000,1284428000,0.002,0.000,0.000,-0.002,0.006,0.003
1284528000,1284528000,0.000,0.001,-0.000,-0.027,0.019,0.002
1284628000,1284628000,-0.000,0.001,-0.000,-0.013,-0.007,-0.012
1284728000,1284728000,-0.001,0.001,-0.000,-0.028,-0.005,0.006
1284828000,1284828000,-0.001,-0.000,7.086e-05,-0.017,-0.055,-0.010
1284928000,1284928000,-0.003,0.001,6.567e-05,-0.002,0.000,-0.002
1285028000,1285028000,-0.004,0.000,-5.765e-05,0.010,-0.032,0.011
1285128000,1285128000,-0.005,-0.001,0.000,-0.008,0.006,0.032
1285228000,1285228000,-0.005,-0.003,-0.000,0.009,0.001,5.841e-05
1285328000,1285328000,-0.005,-0.003,0.000,-0.004,-0.006,0.010
1285428000,1285428000,-0.005,-0.002,3.761e-05,0.000,0.010,-0.006
1285528000,1285528000,-0.005,-0.003,0.000,-0.001,-0.018,0.009
1285628000,1285628000,-0.005,-0.002,-0.000,-0.044,-0.001,-0.023
1285728000,1285728000,-0.005,-0.002,1.822e-05,0.014,0.028,-0.025
1285828000,1285828000,-0.005,-0.001,-0.000,-0.004,0.011,-0.035
1285928000,1285928000,-0.005,-0.000,-0.000,0.001,-0.012,0.027
1286028000,1286028000,-0.004,-0.000,-0.000,0.013,-0.001,-0.001
1286128000,1286128000,-0.003,-0.001,0.000,-0.005,-0.013,0.036
1286228000,1286228000,-0.003,-0.001,-0.000,-0.017,0.026,-0.010
1286328000,1286328000,-0.002,-0.001,0.000,-0.023,-0.016,0.005
1286428000,1286428000,-0.000,-0.001,0.000,0.013,-0.020,0.042
1286528000,1286528000,0.000,0.000,0.000,0.016,-0.008,-0.012
1286628000,1286628000,0.001,3.696e-07,0.000,0.015,0.021,0.025
1286728000,1286728000,0.002,-0.000,-0.000,0.012,0.008,-0.013
1286828000,1286828000,0.003,0.001,-0.000,0.008,-0.024,9.116e-05
1286928000,1286928000,0.003,0.002,-0.000,0.003,-0.017,-0.001
1287028000,1287028000,0.003,0.003,-0.000,0.010,0.013,0.039
1287128000,1287128000,0.003,0.003,-0.000,0.009,0.023,-0.001
1287228000,1287228000,0.003,0.002,6.666e-05,0.008,0.016,0.024
1287328000,1287328000,0.002,0.001,-0.000,-0.040,-0.029,-0.012
1287428000,1287428000,0.003,-0.000,-5.424e-05,0.026,-0.022,0.001
1287528000,1287528000,0.003,-0.000,0.000,0.013,0.021,0.014
1287628000,1287628000,0.002,-0.000,-0.000,-0.041,0.032,0.007
1287728000,1287728000,0.002,-0.000,0.000,0.023,-0.006,0.016
1287828000,1287828000,0.002,-0.001,-0.000,0.011,-0.015,-0.036
1287928000,1287928000,0.001,-0.003,0.000,0.005,0.001,0.021
1288028000,1288028000,0.001,-0.002,3.659e-05,-0.000,0.058,0.023
1288128000,1288128000,0.001,-0.001,-9.429e-05,-0.010,0.035,-0.008
1288228000,1288228000,0.001,0.000,0.000,-0.015,0.006,0.028
1288328000,1288328000,0.000,0.002,3.916e-05,-0.026,0.015,-0.003
1288428000,1288428000,7.888e-05,0.001,0.000,-0.037,0.015,-0.004
1288528000,1288528000,1.708e-05,0.001,-0.000,0.010,-0.024,0.004
1288628000,1288628000,0.000,0.002,-6.729e-06,0.046,-0.012,0.005
1288728000,1288728000,-0.000,0.004,0.000,-0.016,-0.033,0.007
1288828000,1288828000,9.729e-05,0.004,-0.000,0.045,0.001,-0.026
1288928000,1288928000,-0.000,0.002,-2.515e-05,-0.007,0.009,0.009
1289028000,1289028000,-0.001,0.003,-0.000,0.007,0.017,-0.025
1289128000,1289128000,-0.000,0.002,-4.104e-05,-0.006,-0.040,0.002
1289228000,1289228000,-0.001,0.001,-0.000,-0.006,-0.021,-0.003
1289328000,1289328000,-0.000,-0.000,-0.000,0.043,0.020,-0.016
1289428000,1289428000,-0.001,-0.001,-2.292e-05,0.004,-0.044,-0.012
1289528000,1289528000,-0.001,-0.001,-0.000,0.023,-0.010,-0.011
1289628000,1289628000,-0.002,-0.002,-0.000,-0.004,-0.006,-0.009
1289728000,1289728000,-0.001,-0.000,-0.000,0.036,0.059,-0.008
1289828000,1289828000,-0.002,-0.000,-2.529e-05,-0.049,-0.003,0.013
1289928000,1289928000,-0.001,-0.000,-9.168e-05,-0.024,-0.042,-0.004
1290028000,1290028000,-0.001,-0.001,-0.000,0.031,-0.073,0.001
1290128000,1290128000,-0.001,-0.000,-0.000,-0.025,-0.016,-0.016
1290228000,1290228000,-0.001,-3.186e-05,0.000,-0.002,0.013,0.005
1290328000,1290328000,-0.001,0.000,-0.000,-0.009,0.068,-0.009
1290428000,1290428000,-0.000,-0.002,-0.000,0.003,0.020,-0.020
1290528000,1290528000,0.000,-0.002,1.138e-05,0.008,0.011,-0.002
1290628000,1290628000,0.000,-0.001,-0.000,-0.004,0.006,-0.006
1290728000,1290728000,0.000,-0.001,-0.000,0.011,0.014,0.000
1290828000,1290828000,0.000,-0.001,-0.000,-0.029,0.079,-0.038
1290928000,1290928000,0.001,-0.000,-0.000,0.005,0.006,-0.020
1291028000,1291028000,0.001,0.001,3.425e-05,0.025,0.046,0.008
1291128000,1291128000,0.000,0.002,7.889e-06,-0.021,0.000,0.002
1291228000,1291228000,0.000,0.002,1.384e-05,-0.003,-0.045,-0.026
1291328000,1291328000,0.000,0.001,6.524e-05,-0.003,0.019,-0.017
1291428000,1291428000,0.000,0.000,9.598e-05,0.004,0.004,-0.027
1291528000,1291528000,-0.000,-0.000,0.000,-0.021,-0.049,0.015
1291628000,1291628000,-2.934e-05,-0.001,-4.372e-05,-0.007,-0.022,-0.016
1291728000,1291728000,-0.001,0.000,-0.000,-0.002,0.013,0.003
1291828000,1291828000,-0.001,0.000,0.000,-0.011,-0.000,0.018
1291928000,1291928000,-0.001,0.000,0.000,-0.006,-0.041,0.015
1292028000,1292028000,-0.001,0.001,0.000,-0.002,0.012,-0.000
1292128000,1292128000,-0.001,0.000,0.000,0.011,-0.002,0.006
1292228000,1292228000,-0.001,0.000,0.000,-0.005,0.014,0.002
1292328000,1292328000,-0.002,0.000,-0.000,0.005,-0.009,-0.022
1292428000,1292428000,-0.001,0.001,-3.967e-05,-0.001,0.010,-0.013
1292528000,1292528000,-0.001,0.001,6.671e-05,0.028,0.024,-0.004
1292628000,1292628000,-0.001,-2.933e-05,-1.060e-05,0.008,0.001,0.003
1292728000,1292728000,-0.001,-9.025e-05,-0.000,0.008,-0.003,-0.005
1292828000,1292828000,-0.001,0.000,-0.000,-0.044,0.012,-0.006
1292928000,1292928000,-0.000,0.001,-0.000,0.001,0.011,0.007
1293028000,1293028000,-0.000,0.002,0.000,-0.010,0.002,0.050
1293128000,1293128000,0.000,0.002,6.792e-05,-0.010,-0.001,0.016
1293228000,1293228000,0.001,0.002,-0.000,0.035,0.054,-0.016
1293328000,1293328000,0.002,0.002,5.069e-05,-0.011,0.020,-0.007
1293428000,1293428000,0.001,0.000,8.883e-05,-0.198,-0.110,0.021
1293528000,1293528000,0.032,-0.013,0.000,0.564,-0.243,0.019
1293628000,1293628000,0.006,-0.002,0.000,1.603,-0.662,-0.005
1293728000,1293728000,0.000,-0.000,0.000,0.020,-0.015,0.021
1293828000,1293828000,0.000,0.000,0.000,0.001,0.011,-0.005
1293928000,1293928000,0.000,0.000,0.000,-0.016,-0.028,0.028
1294028000,1294028000,0.000,0.000,0.000,-0.000,0.018,0.001
1294128000,1294128000,1.636e-05,0.000,0.000,0.001,-0.002,0.037
1294228000,1294228000,2.935e-05,0.000,0.000,-0.005,0.003,0.003
1294328000,1294328000,0.000,-0.000,0.000,0.016,-0.028,-0.005
1294428000,1294428000,0.000,0.000,0.000,0.003,-0.003,-0.007
1294528000,1294528000,-9.680e-05,-0.000,0.000,-0.020,-0.011,-0.009
1294628000,1294628000,1.282e-05,0.000,0.000,-0.011,-0.004,-0.012
1294728000,1294728000,0.000,0.000,9.742e-05,0.004,-0.011,-0.021
1294828000,1294828000,-0.000,0.000,0.000,-0.034,-0.016,-0.015
1294928000,1294928000,-0.000,0.000,0.000,0.014,0.005,0.004
1295028000,1295028000,-0.000,0.000,0.000,-0.014,-0.014,-0.010
1295128000,1295128000,3.689e-05,0.000,0.000,-0.019,0.027,-0.012
1295228000,1295228000,-0.000,0.000,0.000,-0.008,0.023,-0.001
1295328000,1295328000,0.000,0.000,0.000,0.011,0.023,0.021
1295428000,1295428000,-1.954e-05,0.000,0.000,-0.007,-0.015,0.012
1295528000,1295528000,-0.000,5.202e-05,0.000,-0.031,-0.024,-0.002
1295628000,1295628000,3.147e-05,0.000,-3.753e-05,-0.016,0.005,-0.021
1295728000,1295728000,-6.464e-05,0.000,0.000,0.016,0.018,0.029
1295828000,1295828000,0.000,9.781e-05,0.000,-0.026,0.004,-0.003
1295928000,1295928000,0.000,8.404e-05,8.985e-05,0.040,-0.022,-0.006
1296028000,1296028000,-5.911e-05,0.000,0.000,0.007,0.011,0.016
1296128000,1296128000,0.000,0.000,0.000,0.016,0.009,0.008
1296228000,1296228000,-0.000,0.000,0.000,-0.015,-0.025,0.015
1296328000,1296328000,-1.859e-05,0.000,-6.828e-05,-0.015,0.019,-0.019
1296428000,1296428000,0.000,0.000,9.493e-05,0.004,0.007,-0.028
1296528000,1296528000,0.000,0.000,0.000,0.016,0.013,0.016
1296628000,1296628000,-3.056e-05,0.000,0.000,0.013,-0.013,0.006
1296728000,1296728000,0.000,0.000,-0.000,0.034,0.020,-0.035
1296828000,1296828000,0.000,0.000,0.000,0.029,0.005,0.008
1296928000,1296928000,0.000,0.000,0.000,0.021,0.019,0.000
1297028000,1297028000,0.000,0.000,0.000,0.014,-0.013,-0.023
1297128000,1297128000,6.732e-06,0.000,-7.409e-06,-0.006,0.006,0.005
1297228000,1297228000,0.000,0.000,0.000,0.014,0.031,0.006
1297328000,1297328000,-0.000,0.000,0.000,-0.026,0.008,0.034
1297428000,1297428000,-0.000,0.000,0.000,-0.027,-0.004,-0.009
1297528000,1297528000,6.262e-05,0.000,0.000,0.024,0.021,-0.019
1297628000,1297628000,0.000,0.000,0.000,0.016,0.007,0.000
1297728000,1297728000,-4.932e-05,0.000,0.000,0.006,-0.018,-0.021
1297828000,1297828000,-1.296e-05,0.000,-2.963e-05,0.008,-0.020,-0.018
1297928000,1297928000,-0.000,-6.849e-05,9.222e-05,-0.000,-0.023,0.005
1298028000,1298028000,0.000,9.664e-05,-0.000,-0.005,-0.018,-0.022
1298128000,1298128000,0.000,0.000,0.000,0.030,-0.018,-0.021
1298228000,1298228000,0.000,2.031e-05,0.000,0.009,-0.011,0.016
1298328000,1298328000,-0.000,0.000,8.622e-05,-0.006,-0.005,-0.014
1298428000,1298428000,0.000,0.000,0.000,-0.002,-0.015,-0.001
1298528000,1298528000,0.000,4.727e-06,0.000,0.035,-0.021,0.011
1298628000,1298628000,-1.335e-06,7.292e-05,0.000,-0.008,-0.018,0.008
1298728000,1298728000,4.893e-05,3.869e-05,0.000,0.010,-0.020,-0.006
1298828000,1298828000,-0.000,0.000,1.028e-05,-0.005,0.026,-0.028
1298928000,1298928000,6.687e-05,0.000,0.000,0.020,0.018,-0.000
1299028000,1299028000,1.928e-05,0.000,0.000,0.008,0.016,0.019
1299128000,1299128000,-3.570e-06,-8.232e-05,0.000,0.003,-0.023,0.020
1299228000,1299228000,-0.000,0.000,0.000,-0.026,0.013,0.009
1299328000,1299328000,-9.536e-05,0.000,0.000,0.014,0.028,0.001
