timestamp,roll,pitch,yaw,thrust_body[0],thrust_body[1],thrust_body[2],reset_integral
1204720000,-0.029,0.008,-3.516e-05,0.0,0.0,-0.001,0
1204820000,-0.029,0.008,-3.248e-05,0.0,0.0,-0.001,0
1204920000,-0.028,0.008,-3.784e-05,0.0,0.0,-0.001,0
1205020000,-0.028,0.008,-2.801e-05,0.0,0.0,-0.001,0
1205120000,-0.029,0.008,-3.606e-05,0.0,0.0,-0.001,0
1205220000,-0.028,0.008,-3.069e-05,0.0,0.0,-0.001,0
1205320000,-0.028,0.008,-4.082e-05,0.0,0.0,-0.001,0
1205420000,-0.028,0.008,-3.635e-05,0.0,0.0,-0.001,0
1205520000,-0.028,0.008,-4.500e-05,0.0,0.0,-0.001,0
1205620000,-0.028,0.008,-3.457e-05,0.0,0.0,-0.001,0
1205720000,-0.028,0.008,-3.188e-05,0.0,0.0,-0.001,0
1205820000,-0.028,0.008,-3.427e-05,0.0,0.0,-0.001,0
1205920000,-0.028,0.008,-2.890e-05,0.0,0.0,-0.001,0
1206020000,-0.028,0.008,-3.486e-05,0.0,0.0,-0.001,0
1206120000,-0.028,0.008,-3.665e-05,0.0,0.0,-0.001,0
1206220000,-0.028,0.008,-3.337e-05,0.0,0.0,-0.001,0
1206320000,-0.028,0.008,-2.831e-05,0.0,0.0,-0.001,0
1206420000,-0.028,0.008,-2.801e-05,0.0,0.0,-0.001,0
1206520000,-0.028,0.008,-3.218e-05,0.0,0.0,-0.001,0
1206620000,-0.028,0.007,-2.771e-05,0.0,0.0,-0.001,0
1206720000,-0.029,0.007,-2.145e-05,0.0,0.0,-0.001,0
1206820000,-0.029,0.007,-2.950e-05,0.0,0.0,-0.001,0
1206920000,-0.029,0.007,-2.533e-05,0.0,0.0,-0.001,0
1207020000,-0.029,0.008,-2.771e-05,0.0,0.0,-0.001,0
1207120000,-0.028,0.007,-3.695e-05,0.0,0.0,-0.001,0
1207220000,-0.028,0.007,-3.576e-05,0.0,0.0,-0.001,0
1207320000,-0.028,0.007,-3.606e-05,0.0,0.0,-0.001,0
1207420000,-0.028,0.007,-5.155e-05,0.0,0.0,-0.001,0
1207520000,-0.028,0.007,-3.337e-05,0.0,0.0,-0.001,0
1207620000,-0.028,0.006,-3.606e-05,0.0,0.0,-0.001,0
1207720000,-0.028,0.006,-4.351e-05,0.0,0.0,-0.001,0
1207820000,-0.028,0.006,-3.457e-05,0.0,0.0,-0.001,0
1207920000,-0.028,0.006,-4.380e-05,0.0,0.0,-0.001,0
1208020000,-0.028,0.005,-2.682e-05,0.0,0.0,-0.001,0
1208120000,-0.028,0.005,-2.801e-05,0.0,0.0,-0.001,0
1208220000,-0.028,0.005,-2.861e-05,0.0,0.0,-0.001,0
1208320000,-0.028,0.005,-3.188e-05,0.0,0.0,-0.001,0
1208420000,-0.028,0.004,-2.771e-05,0.0,0.0,-0.001,0
1208520000,-0.027,0.004,-3.606e-05,0.0,0.0,-0.001,0
1208620000,-0.027,0.004,-2.771e-05,0.0,0.0,-0.001,0
1208720000,-0.027,0.004,-4.470e-05,0.0,0.0,-0.001,0
1208820000,-0.027,0.003,-2.205e-05,0.0,0.0,-0.001,0
1208920000,-0.027,0.003,-2.205e-05,0.0,0.0,-0.001,0
1209020000,-0.027,0.003,-1.430e-05,0.0,0.0,-0.001,0
1209120000,-0.027,0.003,-1.668e-05,0.0,0.0,-0.001,0
1209240000,-0.027,0.003,-1.519e-05,0.0,0.0,-0.001,0
1209340000,-0.027,0.003,-1.221e-05,0.0,0.0,-0.001,0
1209444000,-0.101,-0.030,-0.000,0.0,0.0,-0.004,0
1209560000,-0.029,0.002,-0.000,0.0,0.0,-0.017,0
1209660000,-0.028,0.003,-0.000,0.0,0.0,-0.028,0
1209760000,-0.027,0.005,-0.000,0.0,0.0,-0.037,0
1209860000,-0.026,0.006,-0.000,0.0,0.0,-0.061,0
1209960000,-0.026,0.007,-0.000,0.0,0.0,-0.094,0
1210060000,-0.025,0.006,-0.000,0.0,0.0,-0.120,0
1210160000,-0.025,0.006,-0.000,0.0,0.0,-0.144,0
1210260000,-0.025,0.007,-0.000,0.0,0.0,-0.173,0
1210360000,-0.025,0.008,-0.000,0.0,0.0,-0.200,0
1210460000,-0.024,0.009,-0.000,0.0,0.0,-0.232,0
1210560000,-0.024,0.009,-0.000,0.0,0.0,-0.263,0
1210660000,-0.023,0.009,-0.000,0.0,0.0,-0.299,0
1210760000,-0.022,0.010,-0.000,0.0,0.0,-0.333,0
1210860000,-0.022,0.010,-0.000,0.0,0.0,-0.372,0
1210960000,-0.022,0.011,-0.000,0.0,0.0,-0.410,0
1211060000,-0.022,0.012,-0.000,0.0,0.0,-0.453,0
1211160000,-0.021,0.012,-0.000,0.0,0.0,-0.494,0
1211260000,-0.021,0.013,-0.000,0.0,0.0,-0.541,0
1211360000,-0.020,0.013,-0.000,0.0,0.0,-0.586,0
1211460000,-0.019,0.013,-5.036e-05,0.0,0.0,-0.633,0
1211560000,-0.018,0.014,9.417e-05,0.0,0.0,-0.686,0
1211660000,-0.018,0.016,0.000,0.0,0.0,-0.703,0
1211760000,-0.016,0.018,0.000,0.0,0.0,-0.718,0
1211860000,-0.014,0.021,4.202e-05,0.0,0.0,-0.733,0
1211960000,-0.013,0.022,-2.205e-05,0.0,0.0,-0.748,0
1212060000,-0.011,0.023,6.109e-05,0.0,0.0,-0.763,0
1212160000,-0.010,0.024,0.000,0.0,0.0,-0.778,0
1212280000,-0.008,0.024,0.000,0.0,0.0,-0.796,0
1212380000,-0.007,0.025,0.001,0.0,0.0,-0.812,0
1212480000,-0.006,0.025,0.001,0.0,0.0,-0.826,0
1212580000,-0.005,0.026,0.001,0.0,0.0,-0.842,0
1212680000,-0.005,0.026,0.002,0.0,0.0,-0.856,0
1212780000,-0.005,0.028,0.002,0.0,0.0,-0.871,0
1212880000,-0.005,0.009,0.001,0.0,0.0,-0.881,0
1212980000,-0.005,-0.000,0.001,0.0,0.0,-0.886,0
1213080000,-0.005,-0.000,0.001,0.0,0.0,-0.889,0
1213200000,-0.004,-0.002,0.000,0.0,0.0,-0.890,0
1213300000,-0.003,-0.003,0.000,0.0,0.0,-0.890,0
1213400000,-0.003,-0.003,0.001,0.0,0.0,-0.889,0
1213500000,-0.003,-0.003,0.001,0.0,0.0,-0.888,0
1213600000,-0.002,-0.003,0.001,0.0,0.0,-0.887,0
1213700000,-0.000,-0.003,0.002,0.0,0.0,-0.886,0
1213800000,0.000,-0.002,0.002,0.0,0.0,-0.885,0
1213900000,0.002,-0.002,0.001,0.0,0.0,-0.884,0
1214000000,0.004,-0.002,0.001,0.0,0.0,-0.883,0
1214100000,0.005,-0.002,0.001,0.0,0.0,-0.882,0
1214200000,0.006,-0.002,0.001,0.0,0.0,-0.881,0
1214300000,0.006,-0.002,0.001,0.0,0.0,-0.880,0
1214400000,0.006,-0.001,0.001,0.0,0.0,-0.879,0
1214500000,0.006,0.000,0.001,0.0,0.0,-0.878,0
1214600000,0.007,0.000,0.000,0.0,0.0,-0.878,0
1214700000,0.007,0.000,0.000,0.0,0.0,-0.877,0
1214800000,0.007,0.000,0.000,0.0,0.0,-0.877,0
1214900000,0.007,0.000,-7.808e-05,0.0,0.0,-0.876,0
1215000000,0.006,-0.000,-0.000,0.0,0.0,-0.876,0
1215100000,0.005,-0.001,2.741e-05,0.0,0.0,-0.876,0
1215200000,0.003,-0.000,0.000,0.0,0.0,-0.876,0
1215300000,0.001,-0.000,0.000,0.0,0.0,-0.875,0
1215400000,-0.000,-0.000,0.000,0.0,0.0,-0.875,0
1215520000,-0.002,-0.001,0.000,0.0,0.0,-0.874,0
1215620000,-0.003,-0.000,0.000,0.0,0.0,-0.874,0
1215720000,-0.003,0.000,0.000,0.0,0.0,-0.873,0
1215820000,-0.004,0.001,0.000,0.0,0.0,-0.873,0
1215920000,-0.004,0.002,0.000,0.0,0.0,-0.872,0
1216020000,-0.003,0.001,0.000,0.0,0.0,-0.872,0
1216120000,-0.003,0.001,0.000,0.0,0.0,-0.871,0
1216220000,-0.002,0.000,0.000,0.0,0.0,-0.871,0
1216320000,-0.003,0.000,0.000,0.0,0.0,-0.870,0
1216420000,-0.003,-7.377e-05,0.000,0.0,0.0,-0.870,0
1216520000,-0.002,-0.000,7.748e-05,0.0,0.0,-0.870,0
1216620000,-0.002,-0.000,-9.030e-05,0.0,0.0,-0.869,0
1216720000,-0.002,-0.000,-0.000,0.0,0.0,-0.869,0
1216820000,-0.002,0.000,-0.000,0.0,0.0,-0.869,0
1216920000,-0.001,0.000,6.198e-05,0.0,0.0,-0.869,0
1217020000,-0.001,0.000,0.000,0.0,0.0,-0.869,0
1217120000,-0.001,-0.000,0.000,0.0,0.0,-0.869,0
1217220000,-0.000,0.000,0.000,0.0,0.0,-0.868,0
1217320000,-0.000,0.000,0.000,0.0,0.0,-0.868,0
1217420000,-0.000,0.001,0.000,0.0,0.0,-0.868,0
1217520000,-0.000,0.000,0.000,0.0,0.0,-0.868,0
1217620000,-0.000,-0.000,0.000,0.0,0.0,-0.868,0
1217720000,-4.924e-05,-0.000,2.980e-05,0.0,0.0,-0.868,0
1217820000,0.000,-0.000,-0.000,0.0,0.0,-0.868,0
1217920000,0.001,-0.001,-0.000,0.0,0.0,-0.868,0
1218020000,0.002,-0.000,-0.000,0.0,0.0,-0.898,0
1218120000,0.003,-9.412e-05,-0.000,0.0,0.0,-0.888,0
1218220000,0.003,0.000,-7.271e-05,0.0,0.0,-0.891,0
1218320000,0.004,0.000,8.851e-05,0.0,0.0,-0.886,0
1218420000,0.004,-0.000,0.000,0.0,0.0,-0.890,0
1218520000,0.004,-0.000,0.000,0.0,0.0,-0.885,0
1218620000,0.003,-0.000,0.000,0.0,0.0,-0.890,0
1218720000,0.002,-0.000,0.000,0.0,0.0,-0.886,0
1218820000,0.001,2.925e-05,0.000,0.0,0.0,-0.891,0
1218920000,-0.000,0.000,0.000,0.0,0.0,-0.888,0
1219020000,-0.001,0.000,0.000,0.0,0.0,-0.892,0
1219120000,-0.002,0.000,0.000,0.0,0.0,-0.889,0
1219220000,-0.003,0.001,0.000,0.0,0.0,-0.893,0
1219320000,-0.004,0.000,0.000,0.0,0.0,-0.890,0
1219420000,-0.005,0.000,0.000,0.0,0.0,-0.895,0
1219520000,-0.006,-0.000,0.000,0.0,0.0,-0.892,0
1219620000,-0.006,-0.000,0.000,0.0,0.0,-0.897,0
1219720000,-0.006,-0.001,0.000,0.0,0.0,-0.894,0
1219820000,-0.005,-0.001,0.000,0.0,0.0,-0.899,0
1219920000,-0.004,-0.001,-6.854e-06,0.0,0.0,-0.896,0
1220020000,-0.004,-0.000,-3.844e-05,0.0,0.0,-0.900,0
1220120000,-0.003,9.034e-05,2.235e-05,0.0,0.0,-0.898,0
1220220000,-0.001,1.875e-05,9.298e-05,0.0,0.0,-0.846,0
1220320000,0.001,-0.000,0.000,0.0,0.0,-0.854,0
1220420000,0.003,0.000,8.106e-05,0.0,0.0,-0.860,0
1220520000,0.004,-0.000,4.291e-05,0.0,0.0,-0.863,0
1220620000,0.004,-0.000,4.172e-05,0.0,0.0,-0.865,0
1220720000,0.004,0.000,6.318e-05,0.0,0.0,-0.866,0
1220820000,0.003,-0.000,0.000,0.0,0.0,-0.866,0
1220920000,0.003,-0.000,0.000,0.0,0.0,-0.866,0
1221020000,0.003,-0.000,0.000,0.0,0.0,-0.866,0
1221120000,0.003,0.000,0.000,0.0,0.0,-0.866,0
1221220000,0.002,1.268e-05,0.000,0.0,0.0,-0.866,0
1221320000,0.002,0.001,-2.682e-06,0.0,0.0,-0.866,0
1221420000,0.002,0.001,-0.000,0.0,0.0,-0.866,0
1221520000,0.002,0.001,-0.000,0.0,0.0,-0.866,0
1221620000,0.001,0.000,-0.000,0.0,0.0,-0.866,0
1221720000,0.000,-0.000,-0.000,0.0,0.0,-0.867,0
1221820000,-0.000,-0.000,-0.000,0.0,0.0,-0.867,0
1221920000,-0.001,-0.000,-0.000,0.0,0.0,-0.867,0
1222020000,-0.003,0.001,-0.000,0.0,0.0,-0.866,0
1222120000,-0.004,0.000,-0.000,0.0,0.0,-0.866,0
1222220000,-0.004,0.002,-0.000,0.0,0.0,-0.866,0
1222320000,-0.003,0.002,-0.000,0.0,0.0,-0.866,0
1222420000,-0.003,0.003,-0.000,0.0,0.0,-0.866,0
1222520000,-0.003,0.003,-0.000,0.0,0.0,-0.866,0
1222640000,-0.003,0.004,-0.000,0.0,0.0,-0.866,0
1222740000,-0.003,0.002,-0.000,0.0,0.0,-0.866,0
1222840000,-0.003,0.001,-0.000,0.0,0.0,-0.866,0
1222940000,-0.003,0.001,-0.000,0.0,0.0,-0.850,0
1223040000,-0.003,0.001,-0.000,0.0,0.0,-0.869,0
1223140000,-0.003,0.000,-0.000,0.0,0.0,-0.868,0
1223240000,-0.003,5.460e-05,3.874e-06,0.0,0.0,-0.867,0
1223340000,-0.002,-0.000,0.000,0.0,0.0,-0.813,0
1223440000,-0.001,-0.001,0.000,0.0,0.0,-0.761,0
1223540000,0.000,-0.001,0.000,0.0,0.0,-0.779,0
1223660000,0.001,-0.002,0.000,0.0,0.0,-0.749,0
1223760000,0.002,-0.000,0.000,0.0,0.0,-0.763,0
1223860000,0.003,-0.000,0.000,0.0,0.0,-0.738,0
1223960000,0.004,-0.000,0.000,0.0,0.0,-0.772,0
1224060000,0.004,-0.000,0.000,0.0,0.0,-0.781,0
1224160000,0.004,-0.001,0.000,0.0,0.0,-0.798,0
1224260000,0.004,-0.001,0.000,0.0,0.0,-0.796,0
1224360000,0.003,-0.001,0.000,0.0,0.0,-0.821,0
1224460000,0.002,-0.001,0.000,0.0,0.0,-0.868,0
1224560000,0.000,-0.001,0.000,0.0,0.0,-0.895,0
1224660000,-0.001,-0.000,0.001,0.0,0.0,-0.873,0
1224760000,-0.002,0.000,0.001,0.0,0.0,-0.871,0
1224860000,-0.003,0.001,0.001,0.0,0.0,-0.865,0
1224960000,-0.004,0.001,0.000,0.0,0.0,-0.863,0
1225060000,-0.003,0.001,0.000,0.0,0.0,-0.861,0
1225160000,-0.003,0.001,6.973e-05,0.0,0.0,-0.860,0
1225260000,-0.002,0.000,-0.000,0.0,0.0,-0.860,0
1225360000,-0.001,-7.493e-05,-0.000,0.0,0.0,-0.860,0
1225460000,-0.000,0.000,-0.000,0.0,0.0,-0.827,0
1225560000,0.001,0.000,-0.000,0.0,0.0,-0.767,0
1225660000,0.002,0.000,-0.000,0.0,0.0,-0.797,0
1225760000,0.003,0.000,-0.000,0.0,0.0,-0.798,0
1225860000,0.003,-0.000,-0.000,0.0,0.0,-0.811,0
1225960000,0.003,-0.001,-0.000,0.0,0.0,-0.858,0
1226060000,0.002,-0.001,-9.000e-05,0.0,0.0,-0.839,0
1226160000,0.003,-0.000,-2.682e-06,0.0,0.0,-0.858,0
1226260000,0.003,-0.000,9.745e-05,0.0,0.0,-0.869,0
1226360000,0.004,7.209e-05,0.000,0.0,0.0,-0.818,0
1226460000,0.005,-0.000,0.000,0.0,0.0,-0.837,0
1226560000,0.004,-0.000,0.000,0.0,0.0,-0.873,0
1226660000,0.004,-0.000,0.000,0.0,0.0,-0.871,0
1226760000,0.004,-0.000,0.000,0.0,0.0,-0.870,0
1226860000,0.004,-0.000,0.000,0.0,0.0,-0.869,0
1226960000,0.003,-0.000,0.000,0.0,0.0,-0.868,0
1227060000,0.003,-0.000,0.000,0.0,0.0,-0.867,0
1227160000,0.003,-0.001,0.000,0.0,0.0,-0.866,0
1227260000,0.003,-0.001,0.000,0.0,0.0,-0.866,0
1227360000,0.003,-0.001,0.000,0.0,0.0,-0.866,0
1227460000,0.003,-0.000,0.000,0.0,0.0,-0.865,0
1227560000,0.004,-0.001,0.000,0.0,0.0,-0.865,0
1227660000,0.005,-0.001,0.001,0.0,0.0,-0.865,0
1227760000,0.005,-0.001,0.001,0.0,0.0,-0.865,0
1227860000,0.004,-0.001,0.000,0.0,0.0,-0.865,0
1227960000,0.003,-0.001,0.000,0.0,0.0,-0.865,0
1228060000,0.002,-0.000,0.000,0.0,0.0,-0.865,0
1228160000,0.001,-0.000,0.000,0.0,0.0,-0.865,0
1228260000,0.001,-0.000,0.000,0.0,0.0,-0.865,0
1228360000,0.000,-0.000,0.000,0.0,0.0,-0.865,0
1228460000,-0.000,0.000,0.000,0.0,0.0,-0.865,0
1228564000,-0.001,0.000,0.000,0.0,0.0,-0.865,0
1228680000,-0.003,-0.000,0.000,0.0,0.0,-0.865,0
1228780000,-0.003,-0.001,-3.635e-05,0.0,0.0,-0.865,0
1228880000,-0.004,-0.000,-0.000,0.0,0.0,-0.865,0
1228980000,-0.004,-0.000,-0.000,0.0,0.0,-0.865,0
1229080000,-0.005,-0.001,-0.001,0.0,0.0,-0.865,0
1229180000,-0.005,-0.001,-0.001,0.0,0.0,-0.865,0
1229280000,-0.005,-0.000,-0.001,0.0,0.0,-0.865,0
1229380000,-0.005,0.001,-0.001,0.0,0.0,-0.865,0
1229480000,-0.004,0.002,-0.001,0.0,0.0,-0.865,0
1229580000,-0.004,0.002,-0.000,0.0,0.0,-0.865,0
1229680000,-0.004,0.003,0.000,0.0,0.0,-0.865,0
1229800000,-0.003,0.002,0.001,0.0,0.0,-0.865,0
1229900000,-0.003,0.001,0.001,0.0,0.0,-0.865,0
1230000000,-0.003,0.001,0.001,0.0,0.0,-0.865,0
1230100000,-0.003,-0.000,0.000,0.0,0.0,-0.865,0
1230200000,-0.002,-0.000,-4.231e-05,0.0,0.0,-0.865,0
1230300000,-0.001,-0.001,-0.000,0.0,0.0,-0.864,0
1230400000,-0.000,-0.001,-0.000,0.0,0.0,-0.864,0
1230500000,0.000,-0.002,-0.000,0.0,0.0,-0.864,0
1230600000,0.002,-0.001,-0.000,0.0,0.0,-0.864,0
1230700000,0.002,-0.001,-0.000,0.0,0.0,-0.864,0
1230800000,0.003,-0.001,-0.000,0.0,0.0,-0.864,0
1230900000,0.004,-0.000,-0.000,0.0,0.0,-0.864,0
1231000000,0.004,0.000,-0.000,0.0,0.0,-0.865,0
1231100000,0.004,-4.317e-05,-9.953e-05,0.0,0.0,-0.865,0
1231200000,0.004,-0.000,2.443e-05,0.0,0.0,-0.865,0
1231300000,0.003,-0.000,9.328e-05,0.0,0.0,-0.865,0
1231400000,0.002,-0.001,0.000,0.0,0.0,-0.865,0
1231500000,0.001,-0.000,0.000,0.0,0.0,-0.865,0
1231600000,0.000,0.000,0.000,0.0,0.0,-0.865,0
1231700000,-0.000,0.000,5.006e-05,0.0,0.0,-0.865,0
1231800000,-0.000,0.000,9.834e-05,0.0,0.0,-0.865,0
1231900000,-0.001,-6.500e-06,0.000,0.0,0.0,-0.865,0
1232000000,-0.001,0.000,0.000,0.0,0.0,-0.865,0
1232100000,-0.000,0.000,0.000,0.0,0.0,-0.864,0
1232200000,-0.000,-7.655e-06,0.000,0.0,0.0,-0.864,0
1232300000,0.000,-0.000,0.001,0.0,0.0,-0.864,0
1232400000,0.001,-0.000,0.001,0.0,0.0,-0.864,0
1232500000,0.001,-0.000,0.001,0.0,0.0,-0.864,0
1232600000,0.002,-2.552e-05,0.001,0.0,0.0,-0.864,0
1232700000,0.002,0.000,0.001,0.0,0.0,-0.864,0
1232800000,0.002,-0.000,0.001,0.0,0.0,-0.864,0
1232900000,0.003,-0.000,0.001,0.0,0.0,-0.864,0
1233000000,0.003,0.000,0.000,0.0,0.0,-0.864,0
1233100000,0.003,-0.001,0.000,0.0,0.0,-0.864,0
1233200000,0.002,0.000,0.000,0.0,0.0,-0.865,0
1233300000,0.002,0.001,0.000,0.0,0.0,-0.865,0
1233400000,0.001,0.001,0.000,0.0,0.0,-0.865,0
1233500000,0.000,0.001,0.000,0.0,0.0,-0.865,0
1233600000,-0.000,0.001,3.963e-05,0.0,0.0,-0.865,0
1233700000,-0.002,0.001,-0.000,0.0,0.0,-0.865,0
1233800000,-0.003,0.001,-0.000,0.0,0.0,-0.865,0
1233900000,-0.004,0.002,-0.000,0.0,0.0,-0.864,0
1234000000,-0.005,0.001,-0.000,0.0,0.0,-0.864,0
1234100000,-0.005,0.001,-0.000,0.0,0.0,-0.864,0
1234200000,-0.005,0.001,-0.000,0.0,0.0,-0.864,0
1234300000,-0.005,0.001,-0.000,0.0,0.0,-0.864,0
1234400000,-0.005,0.000,-0.000,0.0,0.0,-0.865,0
1234500000,-0.004,-0.000,-0.000,0.0,0.0,-0.865,0
1234600000,-0.004,-0.001,-0.000,0.0,0.0,-0.865,0
1234700000,-0.003,0.000,-0.000,0.0,0.0,-0.865,0
1234800000,-0.003,5.144e-05,-9.119e-05,0.0,0.0,-0.865,0
1234900000,-0.003,-0.001,3.397e-05,0.0,0.0,-0.865,0
1235000000,-0.003,-0.001,0.000,0.0,0.0,-0.865,0
1235100000,-0.002,-0.001,0.000,0.0,0.0,-0.866,0
1235200000,-0.001,-0.001,0.000,0.0,0.0,-0.866,0
1235300000,-0.025,-0.008,4.112e-05,0.0,0.0,-0.866,0
1235400000,-0.025,-0.012,0.000,0.0,0.0,-0.866,0
1235500000,-0.023,-0.005,0.000,0.0,0.0,-0.866,0
1235600000,-0.020,-0.002,0.000,0.0,0.0,-0.866,0
1235720000,-0.016,-0.001,0.000,0.0,0.0,-0.866,0
1235820000,-0.012,-0.000,0.000,0.0,0.0,-0.865,0
1235920000,-0.009,-0.000,0.000,0.0,0.0,-0.865,0
1236020000,-0.006,-0.000,0.000,0.0,0.0,-0.864,0
1236120000,-0.004,-9.388e-05,4.678e-05,0.0,0.0,-0.864,0
1236220000,-0.002,3.087e-07,-0.000,0.0,0.0,-0.864,0
1236320000,-0.000,5.084e-05,-0.000,0.0,0.0,-0.864,0
1236420000,0.000,0.000,-0.000,0.0,0.0,-0.864,0
1236520000,0.001,0.000,-0.001,0.0,0.0,-0.864,0
1236620000,0.001,0.000,-0.001,0.0,0.0,-0.864,0
1236720000,0.002,0.000,-0.002,0.0,0.0,-0.863,0
1236840000,0.002,0.000,-0.001,0.0,0.0,-0.864,0
1236940000,0.002,-6.142e-05,-0.000,0.0,0.0,-0.864,0
1237040000,0.002,-0.000,5.513e-05,0.0,0.0,-0.864,0
1237140000,0.002,-7.532e-05,-0.000,0.0,0.0,-0.864,0
1237240000,0.001,7.063e-05,-0.001,0.0,0.0,-0.864,0
1237340000,0.001,0.000,-0.003,0.0,0.0,-0.864,0
1237440000,0.001,0.000,-0.005,0.0,0.0,-0.864,0
1237540000,0.000,0.000,-0.005,0.0,0.0,-0.864,0
1237640000,0.000,0.000,-0.004,0.0,0.0,-0.864,0
1237740000,0.000,3.986e-05,-0.003,0.0,0.0,-0.865,0
1237840000,0.000,-3.936e-05,-0.001,0.0,0.0,-0.865,0
1237940000,-1.854e-05,-0.000,0.000,0.0,0.0,-0.865,0
1238040000,-0.000,-0.000,0.001,0.0,0.0,-0.865,0
1238140000,-0.000,-0.000,0.002,0.0,0.0,-0.865,0
1238240000,-0.000,-0.000,0.002,0.0,0.0,-0.865,0
1238340000,-0.000,-0.000,0.003,0.0,0.0,-0.865,0
1238440000,-0.000,-0.000,0.003,0.0,0.0,-0.865,0
1238540000,-0.000,-0.000,0.002,0.0,0.0,-0.865,0
1238640000,-0.000,-0.000,0.002,0.0,0.0,-0.865,0
1238740000,-0.000,-0.000,0.002,0.0,0.0,-0.865,0
1238840000,-0.000,-0.000,0.002,0.0,0.0,-0.865,0
1238940000,-0.000,-0.000,0.002,0.0,0.0,-0.865,0
1239040000,-0.000,-0.000,0.001,0.0,0.0,-0.865,0
1239140000,-0.000,-0.000,0.001,0.0,0.0,-0.864,0
1239240000,-0.000,-0.000,0.000,0.0,0.0,-0.864,0
1239340000,-0.070,-3.522e-05,-0.000,0.0,0.0,-0.865,0
1239440000,-0.286,0.000,-0.001,0.0,0.0,-0.872,0
1239540000,-0.602,0.000,-0.002,0.0,0.0,-0.894,0
1239640000,-0.788,0.004,-0.002,0.0,0.0,-0.902,0
1239740000,-0.705,0.002,-0.002,0.0,0.0,-0.874,0
1239840000,-0.606,0.001,-0.002,0.0,0.0,-0.863,0
1239940000,-0.500,0.000,-0.002,0.0,0.0,-0.859,0
1240040000,-0.396,0.000,-0.001,0.0,0.0,-0.861,0
1240140000,-0.297,-0.000,-0.000,0.0,0.0,-0.867,0
1240240000,-0.208,0.000,-0.000,0.0,0.0,-0.875,0
1240340000,-0.132,0.002,-0.004,0.0,0.0,-0.885,0
1240440000,-0.070,0.007,-0.013,0.0,0.0,-0.893,0
1240540000,-0.020,0.013,-0.025,0.0,0.0,-0.902,0
1240640000,0.015,0.009,-0.025,0.0,0.0,-0.908,0
1240740000,0.040,0.004,-0.019,0.0,0.0,-0.913,0
1240840000,0.936,-0.007,-0.014,0.0,0.0,-0.857,0
1240940000,0.876,-0.000,-0.011,0.0,0.0,-0.898,0
1241040000,0.799,0.001,-0.008,0.0,0.0,-0.916,0
1241140000,0.697,0.002,-0.006,0.0,0.0,-0.919,0
1241240000,0.584,0.002,-0.005,0.0,0.0,-0.913,0
1241340000,0.469,0.001,-0.003,0.0,0.0,-0.903,0
1241440000,0.359,0.001,-0.002,0.0,0.0,-0.893,0
1241540000,0.260,0.000,-0.001,0.0,0.0,-0.883,0
1241640000,0.174,2.877e-05,-0.000,0.0,0.0,-0.875,0
1241740000,0.101,-0.000,6.794e-05,0.0,0.0,-0.869,0
1241840000,0.043,-0.000,0.000,0.0,0.0,-0.865,0
1241940000,-0.002,-0.000,-0.000,0.0,0.0,-0.863,0
1242040000,-0.035,-0.000,-0.000,0.0,0.0,-0.861,0
1242140000,0.136,-0.000,-0.000,0.0,0.0,-0.864,0
1242240000,0.779,0.000,-9.447e-05,0.0,0.0,-0.930,0
1242340000,0.719,0.002,-0.000,0.0,0.0,-0.886,0
1242440000,0.634,0.001,-0.000,0.0,0.0,-0.865,0
1242540000,0.537,0.000,-0.001,0.0,0.0,-0.855,0
1242640000,0.436,0.000,-0.001,0.0,0.0,-0.854,0
1242740000,0.338,1.281e-05,-0.001,0.0,0.0,-0.858,0
1242840000,0.247,-4.339e-05,-0.000,0.0,0.0,-0.864,0
1242940000,0.167,-0.000,-0.000,0.0,0.0,-0.873,0
1243040000,0.099,-0.000,-2.086e-06,0.0,0.0,-0.881,0
1243140000,0.044,-0.000,0.000,0.0,0.0,-0.891,0
1243240000,0.001,-0.000,0.000,0.0,0.0,-0.899,0
1243344000,-0.029,-0.000,0.000,0.0,0.0,-0.906,0
1243460000,-0.213,-0.003,0.001,0.0,0.0,-0.884,0
1243560000,-0.912,-0.002,0.001,0.0,0.0,-0.867,0
1243660000,-0.865,-0.002,0.001,0.0,0.0,-0.901,0
1243760000,-0.781,-0.001,0.001,0.0,0.0,-0.914,0
1243860000,-0.675,-0.001,0.001,0.0,0.0,-0.915,0
1243960000,-0.561,-0.000,0.000,0.0,0.0,-0.909,0
1244060000,-0.446,-0.000,0.000,0.0,0.0,-0.898,0
1244160000,-0.339,0.000,0.001,0.0,0.0,-0.889,0
1244260000,-0.242,0.000,0.001,0.0,0.0,-0.880,0
1244360000,-0.158,0.000,0.001,0.0,0.0,-0.873,0
1244460000,-0.089,0.000,0.002,0.0,0.0,-0.868,0
1244560000,-0.033,0.000,0.002,0.0,0.0,-0.865,0
1244660000,0.009,0.000,0.002,0.0,0.0,-0.864,0
1244760000,0.038,0.000,0.002,0.0,0.0,-0.863,0
1244860000,0.059,0.000,0.002,0.0,0.0,-0.863,0
1244960000,0.071,5.409e-05,0.001,0.0,0.0,-0.863,0
1245060000,0.076,-0.000,0.000,0.0,0.0,-0.863,0
1245160000,0.051,-0.000,-0.000,0.0,0.0,-0.863,0
1245260000,-0.781,0.000,-0.000,0.0,0.0,-0.928,0
1245360000,-0.733,0.002,0.000,0.0,0.0,-0.885,0
1245460000,-0.655,0.000,0.000,0.0,0.0,-0.866,0
1245560000,-0.563,0.000,0.000,0.0,0.0,-0.857,0
1245660000,-0.463,7.125e-05,0.001,0.0,0.0,-0.856,0
1245760000,-0.365,9.933e-05,0.000,0.0,0.0,-0.861,0
1245860000,-0.272,0.000,0.000,0.0,0.0,-0.868,0
1245960000,-0.189,0.000,0.000,0.0,0.0,-0.877,0
1246060000,-0.117,0.000,-6.020e-05,0.0,0.0,-0.886,0
1246160000,-0.059,0.000,-0.000,0.0,0.0,-0.896,0
1246260000,-0.013,0.000,-0.000,0.0,0.0,-0.904,0
1246360000,0.020,0.000,-0.001,0.0,0.0,-0.911,0
1246460000,0.043,-6.365e-05,-0.001,0.0,0.0,-0.917,0
1246560000,0.057,8.219e-05,-0.001,0.0,0.0,-0.921,0
1246660000,0.064,2.735e-05,-0.001,0.0,0.0,-0.923,0
1246760000,0.917,-0.003,-0.001,0.0,0.0,-0.865,0
1246860000,0.871,-0.002,-0.002,0.0,0.0,-0.902,0
1246964000,0.786,-0.001,-0.002,0.0,0.0,-0.920,0
1247064000,0.679,-0.000,-0.002,0.0,0.0,-0.921,0
1247180000,0.539,-0.000,-0.001,0.0,0.0,-0.912,0
1247280000,0.424,-6.654e-05,-0.001,0.0,0.0,-0.900,0
1247380000,0.317,-7.504e-05,-0.000,0.0,0.0,-0.889,0
1247480000,0.221,-8.879e-05,0.000,0.0,0.0,-0.880,0
1247580000,0.139,-6.873e-05,0.000,0.0,0.0,-0.873,0
1247680000,0.072,-0.000,0.001,0.0,0.0,-0.867,0
1247780000,0.018,-0.000,0.001,0.0,0.0,-0.864,0
1247880000,-0.020,-2.848e-05,0.001,0.0,0.0,-0.862,0
1247980000,-0.051,0.000,0.001,0.0,0.0,-0.861,0
1248080000,-0.065,0.000,0.001,0.0,0.0,-0.860,0
1248180000,0.109,0.000,0.000,0.0,0.0,-0.864,0
1248300000,0.713,0.000,-4.202e-05,0.0,0.0,-0.925,0
1248400000,0.732,0.002,-0.001,0.0,0.0,-0.895,0
1248500000,0.661,0.001,-0.001,0.0,0.0,-0.869,0
1248600000,0.567,0.000,-0.002,0.0,0.0,-0.857,0
1248700000,0.469,0.001,-0.002,0.0,0.0,-0.854,0
1248800000,0.371,0.000,-0.001,0.0,0.0,-0.856,0
1248900000,0.278,0.000,-0.001,0.0,0.0,-0.862,0
1249000000,0.194,0.000,-0.000,0.0,0.0,-0.870,0
1249100000,0.122,0.000,-0.000,0.0,0.0,-0.878,0
1249200000,0.062,0.000,7.331e-05,0.0,0.0,-0.887,0
1249300000,0.015,2.527e-05,0.000,0.0,0.0,-0.895,0
1249400000,-0.019,-5.215e-05,0.000,0.0,0.0,-0.902,0
1249500000,-0.440,-0.003,0.001,0.0,0.0,-0.846,0
1249600000,-0.910,-0.002,0.001,0.0,0.0,-0.865,0
1249700000,-0.866,-0.001,0.002,0.0,0.0,-0.898,0
1249800000,-0.785,-0.000,0.002,0.0,0.0,-0.914,0
1249900000,-0.681,-7.086e-05,0.003,0.0,0.0,-0.915,0
1250000000,-0.567,0.000,0.002,0.0,0.0,-0.908,0
1250100000,-0.452,0.000,0.002,0.0,0.0,-0.899,0
1250200000,-0.344,0.000,0.001,0.0,0.0,-0.889,0
1250300000,-0.246,0.000,0.001,0.0,0.0,-0.881,0
1250400000,-0.161,0.000,0.000,0.0,0.0,-0.874,0
1250520000,-0.078,7.633e-05,4.440e-05,0.0,0.0,-0.869,0
1250620000,-0.025,-8.440e-05,-0.000,0.0,0.0,-0.867,0
1250720000,0.015,-7.069e-05,-0.000,0.0,0.0,-0.865,0
1250820000,0.043,-5.182e-05,-0.000,0.0,0.0,-0.864,0
1250920000,0.037,0.000,-0.000,0.0,0.0,-0.864,0
1251020000,-0.783,0.002,-0.000,0.0,0.0,-0.939,0
1251120000,-0.733,0.002,0.000,0.0,0.0,-0.892,0
1251220000,-0.655,0.001,0.001,0.0,0.0,-0.869,0
1251320000,-0.560,0.000,0.002,0.0,0.0,-0.858,0
1251420000,-0.460,0.000,0.002,0.0,0.0,-0.857,0
1251520000,-0.361,0.000,0.001,0.0,0.0,-0.860,0
1251620000,-0.268,0.000,0.001,0.0,0.0,-0.867,0
1251720000,-0.185,0.000,0.000,0.0,0.0,-0.876,0
1251820000,-0.114,0.000,0.000,0.0,0.0,-0.885,0
1251920000,-0.056,1.686e-05,-0.000,0.0,0.0,-0.895,0
1252020000,-0.011,-0.000,-0.000,0.0,0.0,-0.903,0
1252120000,0.021,-0.000,-0.000,0.0,0.0,-0.910,0
1252220000,0.044,-0.000,-0.000,0.0,0.0,-0.916,0
1252320000,0.058,-0.000,-0.000,0.0,0.0,-0.920,0
1252420000,0.064,-0.000,-0.000,0.0,0.0,-0.922,0
1252520000,0.065,-0.000,-0.000,0.0,0.0,-0.924,0
1252620000,0.907,-0.003,-0.001,0.0,0.0,-0.873,0
1252720000,0.847,-0.001,-0.002,0.0,0.0,-0.907,0
1252820000,0.755,-0.000,-0.002,0.0,0.0,-0.920,0
1252940000,0.621,-7.134e-05,-0.003,0.0,0.0,-0.918,0
1253040000,0.505,0.000,-0.002,0.0,0.0,-0.908,0
1253140000,0.392,0.000,-0.002,0.0,0.0,-0.897,0
1253240000,0.288,0.000,-0.001,0.0,0.0,-0.886,0
1253340000,0.197,0.000,-0.001,0.0,0.0,-0.878,0
1253460000,0.105,0.000,-0.000,0.0,0.0,-0.870,0
1253580000,0.037,0.000,-0.000,0.0,0.0,-0.865,0
1253680000,0.044,0.000,2.473e-05,0.0,0.0,-0.863,0
1253780000,0.144,3.023e-05,0.000,0.0,0.0,-0.864,0
1253880000,0.789,0.000,6.645e-05,0.0,0.0,-0.928,0
1253980000,0.721,0.002,-0.000,0.0,0.0,-0.885,0
1254080000,0.631,0.000,-0.001,0.0,0.0,-0.862,0
1254180000,0.529,0.000,-0.001,0.0,0.0,-0.854,0
1254280000,0.425,-3.984e-05,-0.001,0.0,0.0,-0.853,0
1254380000,0.325,-0.000,-0.001,0.0,0.0,-0.856,0
1254480000,0.234,-0.000,-0.001,0.0,0.0,-0.864,0
1254580000,0.153,-9.918e-05,-0.000,0.0,0.0,-0.872,0
1254680000,0.086,-5.269e-05,-3.486e-05,0.0,0.0,-0.881,0
1254780000,0.031,-4.714e-05,0.000,0.0,0.0,-0.890,0
1254880000,-0.009,-3.892e-05,0.000,0.0,0.0,-0.898,0
1254980000,-0.039,-0.000,0.000,0.0,0.0,-0.904,0
1255100000,-0.060,-0.000,0.000,0.0,0.0,-0.910,0
1255200000,-0.069,-0.000,0.000,0.0,0.0,-0.914,0
1255300000,-0.150,-0.003,0.001,0.0,0.0,-0.900,0
1255400000,-0.928,-0.002,0.001,0.0,0.0,-0.858,0
1255500000,-0.881,-0.001,0.002,0.0,0.0,-0.895,0
1255600000,-0.798,-0.000,0.003,0.0,0.0,-0.913,0
1255700000,-0.691,0.000,0.003,0.0,0.0,-0.915,0
1255800000,-0.575,0.000,0.003,0.0,0.0,-0.909,0
1255900000,-0.458,0.000,0.002,0.0,0.0,-0.899,0
1256000000,-0.347,0.000,0.002,0.0,0.0,-0.889,0
1256100000,-0.247,0.000,0.001,0.0,0.0,-0.880,0
1256200000,-0.161,0.000,0.001,0.0,0.0,-0.873,0
1256300000,-0.089,0.000,0.000,0.0,0.0,-0.869,0
1256400000,-0.031,0.000,0.000,0.0,0.0,-0.865,0
1256500000,0.012,0.000,0.000,0.0,0.0,-0.863,0
1256600000,0.044,0.000,-8.910e-05,0.0,0.0,-0.862,0
1256700000,0.066,4.044e-05,-0.000,0.0,0.0,-0.862,0
1256800000,0.078,9.410e-06,-0.000,0.0,0.0,-0.862,0
1256900000,0.083,5.438e-06,-0.000,0.0,0.0,-0.862,0
1257000000,0.083,-1.148e-05,-0.000,0.0,0.0,-0.862,0
1257100000,0.078,1.303e-05,-0.000,0.0,0.0,-0.863,0
1257200000,0.071,2.997e-05,-0.000,0.0,0.0,-0.863,0
1257300000,0.062,-5.172e-05,-0.000,0.0,0.0,-0.864,0
1257400000,0.052,-2.242e-05,-0.000,0.0,0.0,-0.865,0
1257500000,0.042,1.842e-05,-0.000,0.0,0.0,-0.865,0
1257600000,0.033,6.800e-06,-0.000,0.0,0.0,-0.865,0
1257700000,0.025,-1.844e-05,-0.000,0.0,0.0,-0.865,0
1257800000,0.017,-4.122e-05,-4.738e-05,0.0,0.0,-0.865,0
1257900000,0.011,-5.633e-05,5.125e-05,0.0,0.0,-0.865,0
1258000000,0.006,-3.261e-05,0.000,0.0,0.0,-0.865,0
1258100000,0.002,4.828e-05,0.000,0.0,0.0,-0.865,0
1258200000,-0.000,0.000,0.000,0.0,0.0,-0.864,0
1258300000,-0.002,0.000,0.000,0.0,0.0,-0.864,0
1258400000,-0.003,0.000,3.337e-05,0.0,0.0,-0.864,0
1258500000,-0.004,0.000,-2.384e-05,0.0,0.0,-0.864,0
1258600000,-0.004,0.000,-5.245e-05,0.0,0.0,-0.864,0
1258700000,-0.004,0.000,-4.708e-05,0.0,0.0,-0.865,0
1258800000,-0.003,0.000,-6.020e-05,0.0,0.0,-0.865,0
1258900000,-0.003,0.000,-8.851e-05,0.0,0.0,-0.865,0
1259000000,-0.003,4.772e-05,-0.000,0.0,0.0,-0.865,0
1259100000,-0.002,-1.029e-05,-0.000,0.0,0.0,-0.865,0
1259200000,-0.002,-6.524e-05,-0.000,0.0,0.0,-0.865,0
1259300000,-0.001,-0.000,-0.000,0.0,0.0,-0.865,0
1259400000,-0.001,-0.000,-0.000,0.0,0.0,-0.865,0
1259500000,-0.000,-5.649e-05,-0.000,0.0,0.0,-0.865,0
1259600000,0.081,0.046,-0.000,0.0,0.0,-0.866,0
1259700000,0.267,0.116,-0.004,0.0,0.0,-0.873,0
1259800000,0.447,0.119,-0.007,0.0,0.0,-0.883,0
1259900000,0.617,0.132,-0.012,0.0,0.0,-0.896,0
1260000000,0.733,0.117,-0.015,0.0,0.0,-0.902,0
1260100000,0.653,0.046,-0.006,0.0,0.0,-0.876,0
1260200000,0.557,0.018,-0.003,0.0,0.0,-0.863,0
1260300000,0.456,0.007,-0.001,0.0,0.0,-0.859,0
1260400000,0.356,0.003,-0.000,0.0,0.0,-0.861,0
1260500000,0.263,0.004,-0.000,0.0,0.0,-0.866,0
1260600000,0.181,1.481e-05,0.000,0.0,0.0,-0.874,0
1260700000,0.111,-0.006,0.002,0.0,0.0,-0.882,0
1260800000,0.054,-0.007,0.004,0.0,0.0,-0.890,0
1260900000,-0.009,-0.013,0.006,0.0,0.0,-0.893,0
1261000000,-0.156,-0.052,0.017,0.0,0.0,-0.885,0
1261100000,-0.268,-0.045,0.020,0.0,0.0,-0.889,0
1261200000,-0.360,-0.034,0.019,0.0,0.0,-0.896,0
1261300000,-0.425,-0.031,0.019,0.0,0.0,-0.901,0
1261400000,-0.486,-0.033,0.019,0.0,0.0,-0.904,0
1261500000,-0.517,-0.032,0.019,0.0,0.0,-0.905,0
1261600000,-0.541,-0.033,0.018,0.0,0.0,-0.903,0
1261700000,-0.538,-0.033,0.017,0.0,0.0,-0.900,0
1261800000,-0.528,-0.038,0.015,0.0,0.0,-0.894,0
1261900000,-0.497,-0.036,0.013,0.0,0.0,-0.888,0
1262000000,-0.468,-0.042,0.011,0.0,0.0,-0.882,0
1262100000,-0.401,-0.021,0.008,0.0,0.0,-0.875,0
1262200000,-0.309,-0.006,0.006,0.0,0.0,-0.869,0
1262300000,-0.216,-0.004,0.003,0.0,0.0,-0.865,0
1262400000,-0.124,-0.001,0.002,0.0,0.0,-0.862,0
1262500000,-0.039,-0.000,0.000,0.0,0.0,-0.861,0
1262600000,0.038,0.000,0.000,0.0,0.0,-0.861,0
1262700000,0.102,-0.000,-0.000,0.0,0.0,-0.862,0
1262800000,0.157,-0.000,-0.000,0.0,0.0,-0.863,0
1262900000,0.195,-0.001,-0.001,0.0,0.0,-0.865,0
1263000000,0.222,0.000,-0.001,0.0,0.0,-0.866,0
1263100000,0.234,-0.000,-0.001,0.0,0.0,-0.866,0
1263200000,0.236,-0.000,-0.001,0.0,0.0,-0.867,0
1263300000,0.226,-0.001,-0.001,0.0,0.0,-0.866,0
1263400000,0.207,-0.001,-0.001,0.0,0.0,-0.866,0
1263500000,0.182,-0.000,-0.001,0.0,0.0,-0.865,0
1263600000,0.151,-0.000,-0.001,0.0,0.0,-0.864,0
1263700000,0.119,-0.001,-0.001,0.0,0.0,-0.864,0
1263800000,0.085,-0.001,-0.001,0.0,0.0,-0.864,0
1263900000,0.052,-0.002,-0.001,0.0,0.0,-0.864,0
1264000000,0.020,-0.002,-0.001,0.0,0.0,-0.864,0
1264100000,-0.007,-0.003,-0.001,0.0,0.0,-0.864,0
1264200000,-0.032,-0.004,-0.000,0.0,0.0,-0.865,0
1264300000,-0.052,-0.003,-0.000,0.0,0.0,-0.865,0
1264400000,-0.069,-0.002,-0.000,0.0,0.0,-0.866,0
1264500000,-0.081,-0.001,-0.000,0.0,0.0,-0.866,0
1264600000,-0.090,-0.000,-0.000,0.0,0.0,-0.866,0
1264700000,-0.092,-0.001,-0.000,0.0,0.0,-0.866,0
1264800000,-0.092,-0.001,-0.000,0.0,0.0,-0.866,0
1264900000,-0.087,-0.001,-0.000,0.0,0.0,-0.866,0
1265000000,-0.079,-0.002,-0.000,0.0,0.0,-0.865,0
1265100000,-0.069,-0.001,-0.000,0.0,0.0,-0.865,0
1265200000,-0.058,-0.002,-0.000,0.0,0.0,-0.864,0
1265300000,-0.046,-0.002,-0.000,0.0,0.0,-0.864,0
1265400000,-0.035,-0.002,-0.000,0.0,0.0,-0.864,0
1265500000,-0.024,-0.003,-0.000,0.0,0.0,-0.864,0
1265600000,-0.014,-0.002,-0.000,0.0,0.0,-0.864,0
1265700000,-0.005,-0.002,-0.000,0.0,0.0,-0.864,0
1265800000,0.001,-0.000,-0.000,0.0,0.0,-0.864,0
1265900000,0.008,-0.000,-0.000,0.0,0.0,-0.865,0
1266000000,0.012,-0.001,-0.000,0.0,0.0,-0.865,0
1266100000,0.016,-0.000,-0.000,0.0,0.0,-0.865,0
1266200000,0.018,0.000,-0.000,0.0,0.0,-0.865,0
1266300000,0.019,0.000,-0.000,0.0,0.0,-0.865,0
1266400000,0.019,-0.001,-0.000,0.0,0.0,-0.865,0
1266500000,0.019,-0.002,-0.000,0.0,0.0,-0.865,0
1266600000,0.018,-0.001,-0.000,0.0,0.0,-0.865,0
1266700000,0.016,-0.001,4.708e-05,0.0,0.0,-0.865,0
1266800000,0.014,-0.001,0.000,0.0,0.0,-0.865,0
1266900000,0.010,-0.000,0.000,0.0,0.0,-0.865,0
1267000000,0.007,-0.001,0.000,0.0,0.0,-0.865,0
1267100000,0.004,-0.000,0.000,0.0,0.0,-0.865,0
1267200000,0.001,-0.000,0.000,0.0,0.0,-0.865,0
1267300000,-0.001,-0.000,0.000,0.0,0.0,-0.865,0
1267400000,-0.002,0.000,0.000,0.0,0.0,-0.865,0
1267500000,-0.003,0.001,5.751e-05,0.0,0.0,-0.865,0
1267600000,-0.005,0.000,-3.755e-05,0.0,0.0,-0.865,0
1267700000,-0.005,0.001,-0.000,0.0,0.0,-0.865,0
1267800000,-0.006,0.000,-0.000,0.0,0.0,-0.865,0
1267900000,-0.007,-0.000,-8.314e-05,0.0,0.0,-0.865,0
1268000000,-0.007,-8.352e-05,-9.715e-05,0.0,0.0,-0.865,0
1268100000,-0.007,0.000,-0.000,0.0,0.0,-0.865,0
1268200000,-0.007,0.001,-0.000,0.0,0.0,-0.865,0
1268300000,-0.007,0.001,-0.000,0.0,0.0,-0.865,0
1268400000,-0.007,0.001,-0.000,0.0,0.0,-0.864,0
1268500000,-0.007,0.000,-0.000,0.0,0.0,-0.864,0
1268600000,-0.007,0.000,-0.000,0.0,0.0,-0.864,0
1268700000,-0.006,-0.000,-0.000,0.0,0.0,-0.864,0
1268800000,-0.005,-0.002,-0.000,0.0,0.0,-0.864,0
1268900000,-0.003,-0.001,-8.881e-05,0.0,0.0,-0.864,0
1269000000,-0.001,-0.001,6.139e-05,0.0,0.0,-0.864,0
1269100000,-0.000,-0.001,0.000,0.0,0.0,-0.864,0
1269200000,0.001,-0.001,0.000,0.0,0.0,-0.864,0
1269300000,0.002,-0.001,0.000,0.0,0.0,-0.864,0
1269400000,0.004,-0.001,0.000,0.0,0.0,-0.864,0
1269500000,0.006,-0.001,0.000,0.0,0.0,-0.864,0
1269600000,0.008,-0.001,0.000,0.0,0.0,-0.864,0
1269700000,0.008,-0.000,0.000,0.0,0.0,-0.864,0
1269800000,0.009,-1.221e-05,0.000,0.0,0.0,-0.864,0
1269900000,0.009,-2.152e-05,0.000,0.0,0.0,-0.864,0
1270000000,0.009,0.000,0.000,0.0,0.0,-0.864,0
1270100000,0.009,0.000,0.000,0.0,0.0,-0.864,0
1270200000,0.008,0.001,0.000,0.0,0.0,-0.864,0
1270300000,0.008,0.000,8.076e-05,0.0,0.0,-0.864,0
1270400000,0.008,-9.562e-05,8.195e-05,0.0,0.0,-0.864,0
1270500000,0.007,0.000,7.987e-05,0.0,0.0,-0.864,0
1270600000,0.005,0.000,9.953e-05,0.0,0.0,-0.864,0
1270700000,0.004,0.000,8.285e-05,0.0,0.0,-0.864,0
1270800000,0.002,0.000,5.483e-05,0.0,0.0,-0.864,0
1270900000,-0.000,0.000,1.221e-05,0.0,0.0,-0.863,0
1271000000,-0.002,0.000,5.364e-06,0.0,0.0,-0.863,0
1271100000,-0.004,0.001,2.980e-06,0.0,0.0,-0.863,0
1271200000,-0.006,0.001,5.960e-07,0.0,0.0,-0.863,0
1271300000,-0.006,0.001,-5.960e-06,0.0,0.0,-0.863,0
1271400000,-0.006,0.000,-3.010e-05,0.0,0.0,-0.863,0
1271500000,-0.006,0.000,-9.298e-05,0.0,0.0,-0.864,0
1271600000,-0.006,-0.000,-0.000,0.0,0.0,-0.864,0
1271700000,-0.005,-0.000,-0.000,0.0,0.0,-0.864,0
1271800000,-0.004,0.000,-0.000,0.0,0.0,-0.864,0
1271900000,-0.003,0.001,-0.000,0.0,0.0,-0.864,0
1272000000,-0.001,0.001,-0.000,0.0,0.0,-0.864,0
1272100000,9.598e-05,0.001,-0.000,0.0,0.0,-0.864,0
1272200000,0.001,0.001,-0.000,0.0,0.0,-0.864,0
1272300000,0.002,0.001,-0.000,0.0,0.0,-0.864,0
1272400000,0.003,0.002,-0.000,0.0,0.0,-0.864,0
1272500000,0.004,0.001,-9.953e-05,0.0,0.0,-0.864,0
1272600000,0.005,0.000,-6.347e-05,0.0,0.0,-0.864,0
1272700000,0.005,0.000,-3.933e-05,0.0,0.0,-0.864,0
1272800000,0.006,-0.000,-2.443e-05,0.0,0.0,-0.864,0
1272900000,0.006,0.000,5.960e-06,0.0,0.0,-0.864,0
1273000000,0.006,-0.000,2.384e-05,0.0,0.0,-0.864,0
1273100000,0.006,-0.001,7.301e-05,0.0,0.0,-0.864,0
1273200000,0.006,-0.002,7.659e-05,0.0,0.0,-0.864,0
1273300000,0.005,-0.002,9.864e-05,0.0,0.0,-0.864,0
1273400000,0.004,-0.001,0.000,0.0,0.0,-0.864,0
1273500000,0.004,-0.000,8.106e-05,0.0,0.0,-0.864,0
1273600000,0.004,0.000,4.559e-05,0.0,0.0,-0.831,0
1273700000,0.005,0.001,8.940e-06,0.0,0.0,-0.803,0
1273800000,0.004,0.001,1.519e-05,0.0,0.0,-0.857,0
1273900000,0.002,0.000,-1.341e-05,0.0,0.0,-0.877,0
1274000000,0.000,0.001,-3.010e-05,0.0,0.0,-0.871,0
1274100000,0.000,0.001,-5.900e-05,0.0,0.0,-0.830,0
1274200000,0.000,0.001,-9.000e-05,0.0,0.0,-0.778,0
1274304000,0.001,0.001,-0.000,0.0,0.0,-0.731,0
1274420000,0.003,0.001,-0.000,0.0,0.0,-0.686,0
1274520000,0.003,0.000,-0.000,0.0,0.0,-0.732,0
1274620000,0.002,0.000,-0.000,0.0,0.0,-0.795,0
1274720000,-0.001,2.309e-07,-0.000,0.0,0.0,-0.850,0
1274820000,-0.005,-0.000,-8.881e-05,0.0,0.0,-0.895,0
1274920000,-0.009,-0.000,-1.430e-05,0.0,0.0,-0.894,0
1275020000,-0.011,0.000,1.430e-05,0.0,0.0,-0.879,0
1275120000,-0.011,-0.000,3.755e-05,0.0,0.0,-0.870,0
1275220000,-0.011,-0.000,5.811e-05,0.0,0.0,-0.865,0
1275320000,-0.010,-0.000,2.026e-05,0.0,0.0,-0.863,0
1275420000,-0.009,0.000,-2.235e-05,0.0,0.0,-0.862,0
1275520000,-0.008,0.000,-5.334e-05,0.0,0.0,-0.861,0
1275620000,-0.007,0.001,-2.205e-05,0.0,0.0,-0.861,0
1275720000,-0.005,0.001,3.278e-05,0.0,0.0,-0.861,0
1275820000,-0.003,0.001,2.831e-05,0.0,0.0,-0.861,0
1275920000,-0.000,-0.000,7.271e-05,0.0,0.0,-0.861,0
1276020000,0.001,-0.001,3.337e-05,0.0,0.0,-0.861,0
1276120000,0.003,-0.000,-3.278e-05,0.0,0.0,-0.862,0
1276220000,0.004,-0.000,-3.993e-05,0.0,0.0,-0.862,0
1276320000,0.004,-0.002,-5.424e-05,0.0,0.0,-0.862,0
1276420000,0.005,-0.002,3.278e-06,0.0,0.0,-0.862,0
1276520000,0.005,-0.002,-4.231e-05,0.0,0.0,-0.862,0
1276620000,0.005,-0.001,-3.308e-05,0.0,0.0,-0.862,0
1276720000,0.005,-0.000,-1.937e-05,0.0,0.0,-0.862,0
1276820000,0.005,0.000,1.162e-05,0.0,0.0,-0.862,0
1276920000,0.005,0.000,5.364e-05,0.0,0.0,-0.863,0
1277020000,0.004,0.001,7.539e-05,0.0,0.0,-0.863,0
1277120000,0.004,0.000,9.030e-05,0.0,0.0,-0.863,0
1277220000,0.003,-0.000,0.000,0.0,0.0,-0.863,0
1277320000,0.001,-0.000,0.000,0.0,0.0,-0.863,0
1277420000,0.000,2.681e-05,7.867e-05,0.0,0.0,-0.863,0
1277520000,-0.000,0.000,1.460e-05,0.0,0.0,-0.864,0
1277620000,-0.001,0.000,-3.516e-05,0.0,0.0,-0.864,0
1277720000,-0.001,0.001,-4.529e-05,0.0,0.0,-0.864,0
1277820000,-0.002,0.001,-7.420e-05,0.0,0.0,-0.865,0
1277920000,-0.002,0.000,-0.000,0.0,0.0,-0.865,0
1278020000,-0.002,0.000,-0.000,0.0,0.0,-0.865,0
1278120000,-0.002,0.000,-0.000,0.0,0.0,-0.865,0
1278220000,-0.002,-7.290e-05,-0.000,0.0,0.0,-0.865,0
1278320000,-0.003,-0.000,-0.000,0.0,0.0,-0.865,0
1278420000,-0.003,0.000,-0.000,0.0,0.0,-0.865,0
1278520000,-0.002,0.000,-0.000,0.0,0.0,-0.865,0
1278620000,-0.002,0.000,-0.000,0.0,0.0,-0.865,0
1278720000,-0.001,0.000,-0.000,0.0,0.0,-0.864,0
1278820000,-0.001,0.000,-0.000,0.0,0.0,-0.864,0
1278920000,-0.000,-0.000,-0.000,0.0,0.0,-0.864,0
1279020000,0.000,-0.001,-0.000,0.0,0.0,-0.863,0
1279120000,0.001,-0.002,-0.000,0.0,0.0,-0.864,0
1279220000,0.002,-0.001,-9.089e-05,0.0,0.0,-0.864,0
1279320000,0.004,-0.000,-7.629e-05,0.0,0.0,-0.864,0
1279420000,0.004,-2.598e-05,-4.291e-05,0.0,0.0,-0.864,0
1279520000,0.004,8.232e-06,-3.188e-05,0.0,0.0,-0.864,0
1279620000,0.004,0.000,-1.430e-05,0.0,0.0,-0.864,0
1279720000,0.004,0.001,1.013e-05,0.0,0.0,-0.864,0
1279820000,0.003,0.000,8.255e-05,0.0,0.0,-0.864,0
1279920000,0.003,0.000,0.000,0.0,0.0,-0.864,0
1280020000,0.002,-0.000,0.000,0.0,0.0,-0.864,0
1280120000,0.001,-0.001,9.208e-05,0.0,0.0,-0.864,0
1280220000,0.000,-0.001,3.129e-05,0.0,0.0,-0.864,0
1280320000,-0.000,-0.002,3.278e-06,0.0,0.0,-0.864,0
1280420000,-0.000,-0.001,-6.914e-05,0.0,0.0,-0.864,0
1280520000,-0.001,-0.001,-0.000,0.0,0.0,-0.864,0
1280620000,-0.001,-0.000,-0.000,0.0,0.0,-0.864,0
1280720000,-0.001,0.000,-0.000,0.0,0.0,-0.864,0
1280820000,-0.002,0.000,-0.000,0.0,0.0,-0.864,0
1280920000,-0.002,0.001,-0.000,0.0,0.0,-0.864,0
1281020000,-0.002,0.001,-0.000,0.0,0.0,-0.864,0
1281120000,-0.002,-7.244e-05,-0.000,0.0,0.0,-0.864,0
1281220000,-0.002,-0.000,-0.000,0.0,0.0,-0.864,0
1281320000,-0.002,-0.001,-0.000,0.0,0.0,-0.864,0
1281420000,-0.002,-0.000,-0.000,0.0,0.0,-0.864,0
1281520000,-0.002,-0.000,-0.000,0.0,0.0,-0.864,0
1281620000,-0.002,-0.000,-0.000,0.0,0.0,-0.880,0
1281720000,-0.002,-0.000,-0.000,0.0,0.0,-0.879,0
1281820000,-0.002,4.582e-06,-0.000,0.0,0.0,-0.872,0
1281920000,-0.002,-0.000,-0.000,0.0,0.0,-0.877,0
1282020000,-0.003,-0.000,-0.000,0.0,0.0,-0.871,0
1282120000,-0.003,0.000,-0.000,0.0,0.0,-0.876,0
1282220000,-0.003,0.000,-0.000,0.0,0.0,-0.870,0
1282320000,-0.002,0.001,-0.000,0.0,0.0,-0.875,0
1282420000,-0.002,0.002,-0.000,0.0,0.0,-0.869,0
1282520000,-0.001,0.003,-0.000,0.0,0.0,-0.875,0
1282640000,3.552e-05,0.002,-0.000,0.0,0.0,-0.874,0
1282740000,0.000,0.002,-5.781e-05,0.0,0.0,-0.868,0
1282840000,0.002,0.002,1.043e-05,0.0,0.0,-0.874,0
1282940000,0.003,0.001,7.092e-05,0.0,0.0,-0.868,0
1283040000,0.004,0.001,0.000,0.0,0.0,-0.874,0
1283140000,0.004,0.002,0.000,0.0,0.0,-0.868,0
1283240000,0.005,0.002,9.804e-05,0.0,0.0,-0.874,0
1283340000,0.006,0.001,8.404e-05,0.0,0.0,-0.868,0
1283440000,0.006,0.000,0.000,0.0,0.0,-0.874,0
1283540000,0.006,0.000,8.404e-05,0.0,0.0,-0.868,0
1283640000,0.006,-0.000,9.685e-05,0.0,0.0,-0.874,0
1283740000,0.005,-0.000,0.000,0.0,0.0,-0.868,0
1283840000,0.005,-0.001,0.000,0.0,0.0,-0.874,0
1283940000,0.004,-0.000,0.000,0.0,0.0,-0.868,0
1284040000,0.002,0.000,8.612e-05,0.0,0.0,-0.874,0
1284140000,0.001,0.000,4.351e-05,0.0,0.0,-0.867,0
1284240000,0.000,-0.000,-1.162e-05,0.0,0.0,-0.873,0
1284340000,-0.001,-0.000,-5.066e-05,0.0,0.0,-0.867,0
1284440000,-0.002,0.000,-5.632e-05,0.0,0.0,-0.873,0
1284540000,-0.003,0.000,-5.513e-05,0.0,0.0,-0.866,0
1284640000,-0.005,0.000,-3.159e-05,0.0,0.0,-0.873,0
1284740000,-0.006,0.000,-4.470e-06,0.0,0.0,-0.867,0
1284840000,-0.007,0.000,1.788e-06,0.0,0.0,-0.874,0
1284940000,-0.007,0.000,6.258e-06,0.0,0.0,-0.868,0
1285040000,-0.008,-0.000,1.102e-05,0.0,0.0,-0.874,0
1285140000,-0.007,-0.001,1.370e-05,0.0,0.0,-0.868,0
1285240000,-0.007,-0.001,-2.175e-05,0.0,0.0,-0.874,0
1285340000,-0.007,-0.001,-5.990e-05,0.0,0.0,-0.868,0
1285440000,-0.007,-0.001,-8.404e-05,0.0,0.0,-0.874,0
1285540000,-0.007,-0.002,-0.000,0.0,0.0,-0.867,0
1285640000,-0.005,-0.001,-0.000,0.0,0.0,-0.874,0
1285740000,-0.004,-0.001,-0.000,0.0,0.0,-0.867,0
1285840000,-0.003,-0.000,-0.000,0.0,0.0,-0.873,0
1285940000,-0.002,-0.000,-8.463e-05,0.0,0.0,-0.866,0
1286040000,-0.000,-0.000,-5.930e-05,0.0,0.0,-0.873,0
1286140000,0.000,-0.000,-5.722e-05,0.0,0.0,-0.866,0
1286240000,0.002,-0.000,-5.722e-05,0.0,0.0,-0.873,0
1286340000,0.003,-0.001,-9.149e-05,0.0,0.0,-0.863,0
1286440000,0.004,2.155e-05,-0.000,0.0,0.0,-0.864,0
1286540000,0.005,0.000,-0.000,0.0,0.0,-0.864,0
1286640000,0.006,-0.000,-0.000,0.0,0.0,-0.864,0
1286740000,0.006,0.000,-0.000,0.0,0.0,-0.865,0
1286840000,0.005,0.001,-9.596e-05,0.0,0.0,-0.865,0
1286940000,0.005,0.001,-9.566e-05,0.0,0.0,-0.865,0
1287040000,0.004,0.002,-0.000,0.0,0.0,-0.865,0
1287140000,0.004,0.002,-0.000,0.0,0.0,-0.865,0
1287240000,0.003,0.001,-0.000,0.0,0.0,-0.865,0
1287340000,0.002,0.000,-0.000,0.0,0.0,-0.865,0
1287440000,0.001,-0.000,-0.000,0.0,0.0,-0.865,0
1287540000,0.001,-0.000,-0.000,0.0,0.0,-0.865,0
1287640000,0.000,-0.000,-0.000,0.0,0.0,-0.865,0
1287740000,-0.000,-0.000,-0.000,0.0,0.0,-0.865,0
1287840000,-0.000,-0.002,-9.983e-05,0.0,0.0,-0.865,0
1287940000,-0.001,-0.002,-8.374e-05,0.0,0.0,-0.865,0
1288040000,-0.001,-0.001,-5.841e-05,0.0,0.0,-0.865,0
1288140000,-0.001,-0.000,-6.169e-05,0.0,0.0,-0.865,0
1288240000,-0.002,0.001,-9.536e-05,0.0,0.0,-0.865,0
1288340000,-0.002,0.001,-0.000,0.0,0.0,-0.865,0
1288440000,-0.002,0.000,-0.000,0.0,0.0,-0.865,0
1288540000,-0.002,0.001,-0.000,0.0,0.0,-0.865,0
1288640000,-0.001,0.002,-0.000,0.0,0.0,-0.865,0
1288740000,-0.002,0.002,-0.000,0.0,0.0,-0.865,0
1288840000,-0.002,0.001,-0.000,0.0,0.0,-0.865,0
1288940000,-0.002,0.002,-0.000,0.0,0.0,-0.865,0
1289040000,-0.002,0.001,-0.000,0.0,0.0,-0.865,0
1289140000,-0.002,0.001,-0.000,0.0,0.0,-0.865,0
1289240000,-0.003,6.588e-06,-0.000,0.0,0.0,-0.865,0
1289340000,-0.003,-0.000,-0.000,0.0,0.0,-0.865,0
1289440000,-0.003,-0.001,-0.000,0.0,0.0,-0.865,0
1289540000,-0.003,-0.001,-0.000,0.0,0.0,-0.864,0
1289640000,-0.003,-0.001,-0.000,0.0,0.0,-0.864,0
1289740000,-0.002,-0.000,-0.000,0.0,0.0,-0.864,0
1289840000,-0.002,0.000,-0.000,0.0,0.0,-0.864,0
1289940000,-0.001,-0.000,-0.000,0.0,0.0,-0.864,0
1290040000,-0.000,-0.000,-0.000,0.0,0.0,-0.864,0
1290140000,0.000,-1.551e-05,-0.000,0.0,0.0,-0.864,0
1290240000,0.001,1.806e-07,-8.136e-05,0.0,0.0,-0.864,0
1290340000,0.002,-0.000,-3.129e-05,0.0,0.0,-0.864,0
1290440000,0.002,-0.001,2.354e-05,0.0,0.0,-0.864,0
1290540000,0.003,-0.001,3.486e-05,0.0,0.0,-0.864,0
1290640000,0.003,-0.001,6.645e-05,0.0,0.0,-0.864,0
1290740000,0.003,-0.001,6.645e-05,0.0,0.0,-0.865,0
1290840000,0.003,-0.000,6.943e-05,0.0,0.0,-0.865,0
1290940000,0.002,0.000,8.791e-05,0.0,0.0,-0.865,0
1291040000,0.001,0.001,8.255e-05,0.0,0.0,-0.865,0
1291140000,0.000,0.002,5.930e-05,0.0,0.0,-0.865,0
1291240000,-0.000,0.001,1.281e-05,0.0,0.0,-0.865,0
1291340000,-0.001,0.000,-4.440e-05,0.0,0.0,-0.865,0
1291440000,-0.002,0.000,-8.404e-05,0.0,0.0,-0.865,0
1291540000,-0.002,-0.000,-8.285e-05,0.0,0.0,-0.865,0
1291640000,-0.003,-0.000,-0.000,0.0,0.0,-0.865,0
1291740000,-0.003,0.000,-0.000,0.0,0.0,-0.865,0
1291840000,-0.004,0.000,-0.000,0.0,0.0,-0.865,0
1291940000,-0.004,0.000,-0.000,0.0,0.0,-0.865,0
1292040000,-0.004,0.000,-0.000,0.0,0.0,-0.864,0
1292140000,-0.004,0.000,-0.000,0.0,0.0,-0.864,0
1292240000,-0.004,4.931e-05,-0.000,0.0,0.0,-0.864,0
1292340000,-0.003,0.000,-0.000,0.0,0.0,-0.864,0
1292440000,-0.002,0.000,-0.000,0.0,0.0,-0.864,0
1292540000,-0.002,0.000,-0.000,0.0,0.0,-0.864,0
1292640000,-0.000,-0.000,-0.000,0.0,0.0,-0.865,0
1292740000,0.000,0.000,-0.000,0.0,0.0,-0.865,0
1292840000,0.000,0.000,-0.000,0.0,0.0,-0.865,0
1292940000,0.002,0.001,-6.288e-05,0.0,0.0,-0.865,0
1293040000,0.003,0.001,-8.046e-06,0.0,0.0,-0.865,0
1293140000,0.004,0.001,8.344e-06,0.0,0.0,-0.865,0
1293240000,0.006,0.001,3.427e-05,0.0,0.0,-0.865,0
1293340000,0.007,0.001,1.698e-05,0.0,0.0,-0.865,0
1293440000,-0.045,-0.015,7.659e-05,0.0,0.0,-0.668,0
1293540000,-0.022,0.012,-7.450e-05,0.0,0.0,-0.658,0
1293640000,-0.020,0.014,-0.000,0.0,0.0,-0.643,0
1293740000,-0.008,0.005,-0.000,0.0,0.0,-0.630,0
1293840000,-0.009,0.005,-0.000,0.0,0.0,-0.617,0
1293940000,-0.010,0.005,-0.000,0.0,0.0,-0.606,0
1294040000,-0.010,0.005,-0.000,0.0,0.0,-0.595,0
1294140000,-0.011,0.005,-0.000,0.0,0.0,-0.584,0
1294260000,-0.011,0.005,-0.000,0.0,0.0,-0.571,0
1294360000,-0.011,0.006,-0.000,0.0,0.0,-0.560,0
1294460000,-0.011,0.005,-0.000,0.0,0.0,-0.550,0
1294560000,-0.011,0.005,-0.000,0.0,0.0,-0.540,0
1294660000,-0.011,0.004,-0.000,0.0,0.0,-0.530,0
1294760000,-0.011,0.003,-0.000,0.0,0.0,-0.521,0
1294860000,-0.012,0.004,-0.000,0.0,0.0,-0.512,0
1294960000,-0.012,0.004,-0.000,0.0,0.0,-0.502,0
1295060000,-0.012,0.004,-0.000,0.0,0.0,-0.493,0
1295160000,-0.011,0.005,-0.000,0.0,0.0,-0.483,0
1295260000,-0.012,0.004,-0.000,0.0,0.0,-0.473,0
1295360000,-0.012,0.003,-0.000,0.0,0.0,-0.463,0
1295460000,-0.012,0.003,-0.000,0.0,0.0,-0.453,0
1295560000,-0.013,0.004,-0.000,0.0,0.0,-0.443,0
1295660000,-0.014,0.005,-0.001,0.0,0.0,-0.434,0
1295760000,-0.038,-0.019,9.149e-05,0.0,0.0,-0.12,0
1295860000,-0.038,-0.018,8.672e-05,0.0,0.0,-0.12,0
1295960000,-0.038,-0.018,8.732e-05,0.0,0.0,-0.12,0
1296060000,-0.038,-0.018,8.791e-05,0.0,0.0,-0.12,0
1296160000,-0.038,-0.018,8.761e-05,0.0,0.0,-0.12,0
1296260000,-0.038,-0.018,8.791e-05,0.0,0.0,-0.12,0
1296360000,-0.038,-0.018,8.970e-05,0.0,0.0,-0.12,0
1296460000,-0.038,-0.018,8.344e-05,0.0,0.0,-0.001,0
1296560000,-0.038,-0.018,8.910e-05,0.0,0.0,-0.001,0
1296660000,-0.038,-0.018,8.791e-05,0.0,0.0,-0.001,0
1296760000,-0.038,-0.018,9.030e-05,0.0,0.0,-0.001,0
1296860000,-0.038,-0.018,8.732e-05,0.0,0.0,-0.001,0
1296960000,-0.038,-0.018,9.119e-05,0.0,0.0,-0.001,0
1297060000,-0.038,-0.018,8.821e-05,0.0,0.0,-0.001,0
1297160000,-0.038,-0.018,9.119e-05,0.0,0.0,-0.001,0
1297260000,-0.038,-0.018,8.493e-05,0.0,0.0,-0.001,0
1297380000,-0.038,-0.019,7.957e-05,0.0,0.0,-0.001,0
1297480000,-0.038,-0.019,8.910e-05,0.0,0.0,-0.001,0
1297580000,-0.038,-0.019,9.208e-05,0.0,0.0,-0.001,0
1297680000,-0.038,-0.019,9.298e-05,0.0,0.0,-0.001,0
1297780000,-0.038,-0.019,9.030e-05,0.0,0.0,-0.001,0
1297880000,-0.038,-0.019,9.506e-05,0.0,0.0,-0.001,0
1297980000,-0.038,-0.019,9.477e-05,0.0,0.0,-0.001,0
1298080000,-0.038,-0.019,9.387e-05,0.0,0.0,-0.001,0
1298180000,-0.038,-0.019,9.387e-05,0.0,0.0,-0.001,0
1298280000,-0.038,-0.019,9.298e-05,0.0,0.0,-0.001,0
1298380000,-0.037,-0.019,9.566e-05,0.0,0.0,-0.001,0
1298480000,-0.037,-0.019,9.179e-05,0.0,0.0,-0.001,0
1298580000,-0.037,-0.019,9.208e-05,0.0,0.0,-0.001,0
1298680000,-0.037,-0.019,8.910e-05,0.0,0.0,-0.001,0
1298784000,-0.037,-0.019,9.149e-05,0.0,0.0,-0.001,0
1298900000,-0.037,-0.019,8.434e-05,0.0,0.0,-0.001,0
1299000000,-0.037,-0.019,9.328e-05,0.0,0.0,-0.001,0
1299100000,-0.037,-0.019,8.732e-05,0.0,0.0,-0.001,0
1299200000,-0.036,-0.019,9.149e-05,0.0,0.0,-0.001,0
1299300000,-0.036,-0.020,8.553e-05,0.0,0.0,-0.001,0
