timestamp,timestamp_sample,q[0],q[1],q[2],q[3],delta_q_reset[0],delta_q_reset[1],delta_q_reset[2],delta_q_reset[3],quat_reset_counter
1204720000,1204720000,0.748,0.006,0.004,0.663,0.999,-4.656e-10,0.0,0.004,3
1204820000,1204820000,0.748,0.006,0.004,0.663,0.999,-4.656e-10,0.0,0.004,3
1204920000,1204920000,0.748,0.006,0.004,0.663,0.999,-4.656e-10,0.0,0.004,3
1205020000,1205020000,0.748,0.006,0.004,0.663,0.999,-4.656e-10,0.0,0.004,3
1205120000,1205120000,0.748,0.006,0.004,0.663,0.999,-4.656e-10,0.0,0.004,3
1205220000,1205220000,0.748,0.006,0.004,0.663,0.999,-4.656e-10,0.0,0.004,3
1205320000,1205320000,0.748,0.006,0.004,0.663,0.999,-4.656e-10,0.0,0.004,3
1205420000,1205420000,0.748,0.006,0.003,0.663,0.999,-4.656e-10,0.0,0.004,3
1205520000,1205520000,0.748,0.006,0.003,0.663,0.999,-4.656e-10,0.0,0.004,3
1205620000,1205620000,0.748,0.006,0.003,0.663,0.999,-4.656e-10,0.0,0.004,3
1205720000,1205720000,0.748,0.006,0.003,0.663,0.999,-4.656e-10,0.0,0.004,3
1205820000,1205820000,0.748,0.006,0.003,0.663,0.999,-4.656e-10,0.0,0.004,3
1205920000,1205920000,0.748,0.006,0.003,0.663,0.999,-4.656e-10,0.0,0.004,3
1206020000,1206020000,0.748,0.006,0.003,0.663,0.999,-4.656e-10,0.0,0.004,3
1206120000,1206120000,0.748,0.006,0.003,0.663,0.999,-4.656e-10,0.0,0.004,3
1206220000,1206220000,0.748,0.006,0.003,0.663,0.999,-4.656e-10,0.0,0.004,3
1206320000,1206320000,0.748,0.006,0.003,0.663,0.999,-4.656e-10,0.0,0.004,3
1206420000,1206420000,0.748,0.006,0.003,0.663,0.999,-4.656e-10,0.0,0.004,3
1206520000,1206520000,0.748,0.006,0.004,0.663,0.999,-4.656e-10,0.0,0.004,3
1206620000,1206620000,0.748,0.006,0.004,0.663,0.999,-4.656e-10,0.0,0.004,3
1206720000,1206720000,0.748,0.006,0.004,0.663,0.999,-4.656e-10,0.0,0.004,3
1206820000,1206820000,0.748,0.006,0.004,0.663,0.999,-4.656e-10,0.0,0.004,3
1206920000,1206920000,0.748,0.006,0.004,0.663,0.999,-4.656e-10,0.0,0.004,3
1207020000,1207020000,0.748,0.006,0.004,0.663,0.999,-4.656e-10,0.0,0.004,3
1207120000,1207120000,0.748,0.006,0.004,0.663,0.999,-4.656e-10,0.0,0.004,3
1207220000,1207220000,0.748,0.006,0.004,0.663,0.999,-4.656e-10,0.0,0.004,3
1207320000,1207320000,0.748,0.006,0.004,0.663,0.999,-4.656e-10,0.0,0.004,3
1207420000,1207420000,0.748,0.006,0.004,0.663,0.999,-4.656e-10,0.0,0.004,3
1207520000,1207520000,0.748,0.006,0.004,0.663,0.999,-4.656e-10,0.0,0.004,3
1207620000,1207620000,0.748,0.005,0.004,0.663,0.999,-4.656e-10,0.0,0.004,3
1207720000,1207720000,0.748,0.005,0.004,0.663,0.999,-4.656e-10,0.0,0.004,3
1207820000,1207820000,0.748,0.005,0.004,0.663,0.999,-4.656e-10,0.0,0.004,3
1207920000,1207920000,0.748,0.005,0.004,0.663,0.999,-4.656e-10,0.0,0.004,3
1208020000,1208020000,0.748,0.005,0.004,0.663,0.999,-4.656e-10,0.0,0.004,3
1208120000,1208116000,0.748,0.005,0.004,0.663,0.999,-4.656e-10,0.0,0.004,3
1208220000,1208220000,0.748,0.005,0.004,0.663,0.999,-4.656e-10,0.0,0.004,3
1208320000,1208320000,0.748,0.005,0.004,0.663,0.999,-4.656e-10,0.0,0.004,3
1208420000,1208420000,0.747,0.005,0.004,0.663,0.999,-4.656e-10,0.0,0.004,3
1208520000,1208520000,0.747,0.005,0.004,0.663,0.999,-4.656e-10,0.0,0.004,3
1208620000,1208620000,0.747,0.005,0.004,0.663,0.999,-4.656e-10,0.0,0.004,3
1208720000,1208720000,0.747,0.005,0.004,0.663,0.999,-4.656e-10,0.0,0.004,3
1208820000,1208820000,0.747,0.005,0.004,0.663,0.999,-4.656e-10,0.0,0.004,3
1208920000,1208920000,0.747,0.005,0.004,0.663,0.999,-4.656e-10,0.0,0.004,3
1209020000,1209020000,0.747,0.005,0.004,0.663,0.999,-4.656e-10,0.0,0.004,3
1209120000,1209116000,0.747,0.005,0.004,0.663,0.999,-4.656e-10,0.0,0.004,3
1209220000,1209220000,0.747,0.005,0.004,0.663,0.999,-4.656e-10,0.0,0.004,3
1209320000,1209320000,0.747,0.005,0.004,0.664,0.999,-4.656e-10,0.0,0.004,3
1209420000,1209420000,0.747,0.005,0.004,0.664,0.999,-4.656e-10,0.0,0.004,3
1209520000,1209520000,0.747,0.005,0.004,0.664,0.999,-4.656e-10,0.0,0.004,3
1209620000,1209620000,0.747,0.005,0.004,0.664,0.999,-4.656e-10,0.0,0.004,3
1209720000,1209720000,0.747,0.005,0.004,0.664,0.999,-4.656e-10,0.0,0.004,3
1209820000,1209820000,0.747,0.005,0.004,0.664,0.999,-4.656e-10,0.0,0.004,3
1209920000,1209920000,0.747,0.005,0.004,0.664,0.999,-4.656e-10,0.0,0.004,3
1210020000,1210020000,0.747,0.005,0.004,0.664,0.999,-4.656e-10,0.0,0.004,3
1210120000,1210120000,0.747,0.005,0.004,0.664,0.999,-4.656e-10,0.0,0.004,3
1210220000,1210220000,0.747,0.005,0.004,0.664,0.999,-4.656e-10,0.0,0.004,3
1210324000,1210320000,0.747,0.005,0.004,0.664,0.999,-4.656e-10,0.0,0.004,3
1210424000,1210424000,0.747,0.005,0.004,0.664,0.999,-4.656e-10,0.0,0.004,3
1210524000,1210524000,0.747,0.005,0.004,0.664,0.999,-4.656e-10,0.0,0.004,3
1210624000,1210624000,0.747,0.005,0.004,0.664,0.999,-4.656e-10,0.0,0.004,3
1210724000,1210724000,0.747,0.005,0.003,0.664,0.999,-4.656e-10,0.0,0.004,3
1210824000,1210824000,0.747,0.005,0.003,0.664,0.999,-4.656e-10,0.0,0.004,3
1210928000,1210924000,0.747,0.005,0.003,0.664,0.999,-4.656e-10,0.0,0.004,3
1211032000,1211028000,0.747,0.005,0.004,0.664,0.999,-4.656e-10,0.0,0.004,3
1211132000,1211132000,0.747,0.005,0.004,0.664,0.999,-4.656e-10,0.0,0.004,3
1211232000,1211232000,0.747,0.005,0.004,0.664,0.999,-4.656e-10,0.0,0.004,3
1211332000,1211332000,0.747,0.005,0.004,0.664,0.999,-4.656e-10,0.0,0.004,3
1211432000,1211432000,0.747,0.005,0.004,0.664,0.999,-4.656e-10,0.0,0.004,3
1211532000,1211532000,0.747,0.004,0.004,0.664,0.999,-4.656e-10,0.0,0.004,3
1211632000,1211632000,0.747,0.004,0.004,0.663,0.999,-4.656e-10,0.0,0.004,3
1211732000,1211732000,0.747,0.004,0.004,0.663,0.999,-4.656e-10,0.0,0.004,3
1211832000,1211832000,0.747,0.004,0.004,0.663,0.999,-4.656e-10,0.0,0.004,3
1211932000,1211932000,0.747,0.004,0.004,0.664,0.999,-4.656e-10,0.0,0.004,3
1212032000,1212032000,0.747,0.004,0.003,0.664,0.999,-4.656e-10,0.0,0.004,3
1212132000,1212132000,0.747,0.004,0.003,0.663,0.999,-4.656e-10,0.0,0.004,3
1212232000,1212232000,0.747,0.004,0.004,0.663,0.999,-4.656e-10,0.0,0.004,3
1212332000,1212332000,0.747,0.004,0.004,0.663,0.999,-4.656e-10,0.0,0.004,3
1212432000,1212432000,0.747,0.004,0.004,0.663,0.999,-4.656e-10,0.0,0.004,3
1212532000,1212532000,0.747,0.004,0.004,0.663,0.999,-4.656e-10,0.0,0.004,3
1212632000,1212632000,0.748,0.004,0.004,0.663,0.999,-4.656e-10,0.0,0.004,3
1212736000,1212732000,0.748,0.004,0.004,0.663,0.999,-4.656e-10,0.0,0.004,3
1212836000,1212836000,0.748,0.004,0.004,0.663,0.999,-4.656e-10,0.0,0.004,3
1212936000,1212936000,0.748,0.003,0.005,0.663,0.999,-4.656e-10,0.0,0.004,3
1213036000,1213036000,0.747,0.003,0.005,0.663,0.999,-4.656e-10,0.0,0.004,3
1213136000,1213136000,0.747,0.003,0.005,0.663,0.999,-4.656e-10,0.0,0.004,3
1213236000,1213236000,0.747,0.003,0.005,0.663,0.999,-4.656e-10,0.0,0.004,3
1213336000,1213336000,0.747,0.003,0.005,0.663,0.999,-4.656e-10,0.0,0.004,3
1213436000,1213436000,0.747,0.003,0.005,0.663,0.999,-4.656e-10,0.0,0.004,3
1213536000,1213536000,0.747,0.003,0.004,0.663,0.999,-4.656e-10,0.0,0.004,3
1213636000,1213636000,0.748,0.003,0.004,0.663,0.999,-4.656e-10,0.0,0.004,3
1213736000,1213736000,0.748,0.003,0.004,0.663,0.999,-4.656e-10,0.0,0.004,3
1213836000,1213836000,0.748,0.003,0.004,0.663,0.999,-4.656e-10,0.0,0.004,3
1213936000,1213936000,0.747,0.003,0.003,0.663,0.999,-4.656e-10,0.0,0.004,3
1214036000,1214036000,0.747,0.003,0.003,0.663,0.999,-4.656e-10,0.0,0.004,3
1214136000,1214136000,0.747,0.003,0.003,0.663,0.999,-4.656e-10,0.0,0.004,3
1214236000,1214236000,0.747,0.003,0.003,0.663,0.999,-4.656e-10,0.0,0.004,3
1214336000,1214336000,0.747,0.004,0.003,0.663,0.999,-4.656e-10,0.0,0.004,3
1214436000,1214436000,0.747,0.004,0.003,0.663,0.999,-4.656e-10,0.0,0.004,3
1214536000,1214536000,0.747,0.004,0.003,0.663,0.999,-4.656e-10,0.0,0.004,3
1214636000,1214636000,0.747,0.004,0.003,0.663,0.999,-4.656e-10,0.0,0.004,3
1214736000,1214736000,0.747,0.004,0.003,0.663,0.999,-4.656e-10,0.0,0.004,3
1214836000,1214836000,0.747,0.004,0.004,0.664,0.999,-4.656e-10,0.0,0.004,3
1214936000,1214936000,0.747,0.005,0.004,0.664,0.999,-4.656e-10,0.0,0.004,3
1215036000,1215036000,0.747,0.005,0.004,0.664,0.999,-4.656e-10,0.0,0.004,3
1215136000,1215136000,0.747,0.005,0.004,0.664,0.999,-4.656e-10,0.0,0.004,3
1215236000,1215236000,0.747,0.005,0.004,0.663,0.999,-4.656e-10,0.0,0.004,3
1215336000,1215336000,0.747,0.006,0.005,0.663,0.999,-4.656e-10,0.0,0.004,3
1215436000,1215436000,0.747,0.006,0.005,0.663,0.999,-4.656e-10,0.0,0.004,3
1215536000,1215536000,0.747,0.006,0.005,0.663,0.999,-4.656e-10,0.0,0.004,3
1215636000,1215636000,0.747,0.006,0.005,0.663,0.999,-4.656e-10,0.0,0.004,3
1215736000,1215736000,0.747,0.006,0.005,0.663,0.999,-4.656e-10,0.0,0.004,3
1215836000,1215836000,0.747,0.006,0.005,0.663,0.999,-4.656e-10,0.0,0.004,3
1215936000,1215936000,0.747,0.006,0.005,0.663,0.999,-4.656e-10,0.0,0.004,3
1216036000,1216036000,0.747,0.006,0.005,0.663,0.999,-4.656e-10,0.0,0.004,3
1216136000,1216136000,0.747,0.006,0.005,0.663,0.999,-4.656e-10,0.0,0.004,3
1216236000,1216236000,0.747,0.006,0.005,0.663,0.999,-4.656e-10,0.0,0.004,3
1216336000,1216336000,0.747,0.006,0.005,0.663,0.999,-4.656e-10,0.0,0.004,3
1216436000,1216436000,0.747,0.006,0.005,0.663,0.999,-4.656e-10,0.0,0.004,3
1216536000,1216536000,0.747,0.006,0.005,0.664,0.999,-4.656e-10,0.0,0.004,3
1216636000,1216636000,0.747,0.006,0.005,0.664,0.999,-4.656e-10,0.0,0.004,3
1216736000,1216736000,0.747,0.006,0.005,0.664,0.999,-4.656e-10,0.0,0.004,3
1216836000,1216836000,0.747,0.005,0.005,0.664,0.999,-4.656e-10,0.0,0.004,3
1216936000,1216936000,0.747,0.005,0.005,0.664,0.999,-4.656e-10,0.0,0.004,3
1217036000,1217036000,0.747,0.005,0.005,0.663,0.999,-4.656e-10,0.0,0.004,3
1217136000,1217136000,0.747,0.005,0.005,0.663,0.999,-4.656e-10,0.0,0.004,3
1217236000,1217236000,0.747,0.005,0.005,0.663,0.999,-4.656e-10,0.0,0.004,3
1217336000,1217336000,0.747,0.005,0.005,0.663,0.999,-4.656e-10,0.0,0.004,3
1217436000,1217436000,0.747,0.005,0.005,0.663,0.999,-4.656e-10,0.0,0.004,3
1217536000,1217536000,0.747,0.005,0.005,0.663,0.999,-4.656e-10,0.0,0.004,3
1217636000,1217636000,0.747,0.005,0.005,0.663,0.999,-4.656e-10,0.0,0.004,3
1217736000,1217736000,0.747,0.005,0.005,0.664,0.999,-4.656e-10,0.0,0.004,3
1217836000,1217836000,0.747,0.005,0.005,0.664,0.999,-4.656e-10,0.0,0.004,3
1217936000,1217936000,0.747,0.005,0.004,0.664,0.999,-4.656e-10,0.0,0.004,3
1218036000,1218036000,0.747,0.005,0.004,0.664,0.999,-4.656e-10,0.0,0.004,3
1218136000,1218136000,0.747,0.005,0.004,0.664,0.999,-4.656e-10,0.0,0.004,3
1218236000,1218236000,0.747,0.005,0.004,0.664,0.999,-4.656e-10,0.0,0.004,3
1218336000,1218336000,0.747,0.005,0.004,0.663,0.999,-4.656e-10,0.0,0.004,3
1218436000,1218436000,0.747,0.005,0.004,0.663,0.999,-4.656e-10,0.0,0.004,3
1218536000,1218536000,0.747,0.005,0.004,0.663,0.999,-4.656e-10,0.0,0.004,3
1218640000,1218636000,0.747,0.005,0.005,0.663,0.999,-4.656e-10,0.0,0.004,3
1218740000,1218740000,0.747,0.005,0.005,0.663,0.999,-4.656e-10,0.0,0.004,3
1218840000,1218840000,0.747,0.005,0.005,0.663,0.999,-4.656e-10,0.0,0.004,3
1218940000,1218940000,0.747,0.005,0.005,0.663,0.999,-4.656e-10,0.0,0.004,3
1219040000,1219040000,0.747,0.006,0.005,0.663,0.999,-4.656e-10,0.0,0.004,3
1219140000,1219140000,0.747,0.006,0.005,0.663,0.999,-4.656e-10,0.0,0.004,3
1219240000,1219240000,0.747,0.006,0.005,0.663,0.999,-4.656e-10,0.0,0.004,3
1219340000,1219340000,0.747,0.006,0.005,0.663,0.999,-4.656e-10,0.0,0.004,3
1219440000,1219440000,0.747,0.006,0.005,0.663,0.999,-4.656e-10,0.0,0.004,3
1219540000,1219540000,0.747,0.005,0.005,0.663,0.999,-4.656e-10,0.0,0.004,3
1219640000,1219640000,0.747,0.005,0.005,0.663,0.999,-4.656e-10,0.0,0.004,3
1219740000,1219740000,0.747,0.005,0.005,0.663,0.999,-4.656e-10,0.0,0.004,3
1219840000,1219840000,0.747,0.005,0.004,0.664,0.999,-4.656e-10,0.0,0.004,3
1219940000,1219940000,0.747,0.005,0.004,0.664,0.999,-4.656e-10,0.0,0.004,3
1220040000,1220040000,0.747,0.005,0.004,0.664,0.999,-4.656e-10,0.0,0.004,3
1220140000,1220140000,0.747,0.005,0.004,0.664,0.999,-4.656e-10,0.0,0.004,3
1220240000,1220240000,0.747,0.005,0.004,0.664,0.999,-4.656e-10,0.0,0.004,3
1220340000,1220340000,0.747,0.005,0.004,0.664,0.999,-4.656e-10,0.0,0.004,3
1220440000,1220440000,0.747,0.005,0.004,0.664,0.999,-4.656e-10,0.0,0.004,3
1220540000,1220540000,0.747,0.005,0.004,0.664,0.999,-4.656e-10,0.0,0.004,3
1220640000,1220640000,0.747,0.005,0.004,0.664,0.999,-4.656e-10,0.0,0.004,3
1220740000,1220740000,0.747,0.005,0.004,0.664,0.999,-4.656e-10,0.0,0.004,3
1220840000,1220840000,0.747,0.005,0.004,0.663,0.999,-4.656e-10,0.0,0.004,3
1220940000,1220940000,0.747,0.005,0.004,0.663,0.999,-4.656e-10,0.0,0.004,3
1221040000,1221040000,0.747,0.005,0.004,0.663,0.999,-4.656e-10,0.0,0.004,3
1221140000,1221140000,0.747,0.005,0.004,0.663,0.999,-4.656e-10,0.0,0.004,3
1221240000,1221240000,0.747,0.006,0.004,0.663,0.999,-4.656e-10,0.0,0.004,3
1221340000,1221340000,0.747,0.006,0.004,0.664,0.999,-4.656e-10,0.0,0.004,3
1221440000,1221440000,0.747,0.006,0.004,0.664,0.999,-4.656e-10,0.0,0.004,3
1221540000,1221540000,0.747,0.006,0.004,0.664,0.999,-4.656e-10,0.0,0.004,3
1221640000,1221640000,0.747,0.006,0.005,0.664,0.999,-4.656e-10,0.0,0.004,3
1221740000,1221740000,0.747,0.006,0.005,0.664,0.999,-4.656e-10,0.0,0.004,3
1221840000,1221840000,0.747,0.006,0.005,0.664,0.999,-4.656e-10,0.0,0.004,3
1221940000,1221940000,0.747,0.006,0.005,0.664,0.999,-4.656e-10,0.0,0.004,3
1222040000,1222040000,0.747,0.006,0.005,0.664,0.999,-4.656e-10,0.0,0.004,3
1222140000,1222140000,0.747,0.006,0.005,0.664,0.999,-4.656e-10,0.0,0.004,3
1222240000,1222240000,0.747,0.006,0.005,0.664,0.999,-4.656e-10,0.0,0.004,3
1222340000,1222340000,0.747,0.006,0.005,0.664,0.999,-4.656e-10,0.0,0.004,3
1222440000,1222440000,0.747,0.006,0.005,0.664,0.999,-4.656e-10,0.0,0.004,3
1222540000,1222540000,0.747,0.005,0.005,0.664,0.999,-4.656e-10,0.0,0.004,3
1222640000,1222640000,0.747,0.005,0.005,0.664,0.999,-4.656e-10,0.0,0.004,3
1222740000,1222740000,0.747,0.005,0.005,0.664,0.999,-4.656e-10,0.0,0.004,3
1222840000,1222840000,0.747,0.005,0.005,0.664,0.999,-4.656e-10,0.0,0.004,3
1222940000,1222940000,0.747,0.005,0.005,0.664,0.999,-4.656e-10,0.0,0.004,3
1223040000,1223040000,0.747,0.005,0.005,0.664,0.999,-4.656e-10,0.0,0.004,3
1223140000,1223140000,0.747,0.004,0.005,0.664,0.999,-4.656e-10,0.0,0.004,3
1223240000,1223240000,0.747,0.004,0.005,0.664,0.999,-4.656e-10,0.0,0.004,3
1223340000,1223340000,0.747,0.004,0.005,0.663,0.999,-4.656e-10,0.0,0.004,3
1223440000,1223440000,0.747,0.004,0.005,0.663,0.999,-4.656e-10,0.0,0.004,3
1223540000,1223540000,0.747,0.004,0.005,0.663,0.999,-4.656e-10,0.0,0.004,3
1223644000,1223640000,0.747,0.004,0.005,0.663,0.999,-4.656e-10,0.0,0.004,3
1223744000,1223744000,0.747,0.004,0.005,0.663,0.999,-4.656e-10,0.0,0.004,3
1223844000,1223844000,0.747,0.004,0.004,0.663,0.999,-4.656e-10,0.0,0.004,3
1223944000,1223944000,0.747,0.004,0.004,0.663,0.999,-4.656e-10,0.0,0.004,3
1224044000,1224044000,0.747,0.004,0.004,0.663,0.999,-4.656e-10,0.0,0.004,3
1224144000,1224144000,0.747,0.005,0.004,0.663,0.999,-4.656e-10,0.0,0.004,3
1224244000,1224244000,0.747,0.005,0.004,0.663,0.999,-4.656e-10,0.0,0.004,3
1224344000,1224344000,0.747,0.005,0.004,0.663,0.999,-4.656e-10,0.0,0.004,3
1224444000,1224444000,0.747,0.005,0.004,0.663,0.999,-4.656e-10,0.0,0.004,3
1224544000,1224544000,0.747,0.005,0.004,0.663,0.999,-4.656e-10,0.0,0.004,3
1224644000,1224644000,0.747,0.005,0.004,0.663,0.999,-4.656e-10,0.0,0.004,3
1224744000,1224744000,0.747,0.005,0.004,0.663,0.999,-4.656e-10,0.0,0.004,3
1224844000,1224844000,0.747,0.005,0.004,0.663,0.999,-4.656e-10,0.0,0.004,3
1224944000,1224944000,0.747,0.005,0.005,0.663,0.999,-4.656e-10,0.0,0.004,3
1225044000,1225044000,0.747,0.005,0.005,0.663,0.999,-4.656e-10,0.0,0.004,3
1225144000,1225144000,0.747,0.005,0.005,0.663,0.999,-4.656e-10,0.0,0.004,3
1225244000,1225244000,0.747,0.005,0.005,0.664,0.999,-4.656e-10,0.0,0.004,3
1225344000,1225344000,0.747,0.005,0.005,0.664,0.999,-4.656e-10,0.0,0.004,3
1225444000,1225444000,0.747,0.005,0.005,0.664,0.999,-4.656e-10,0.0,0.004,3
1225544000,1225544000,0.747,0.005,0.005,0.664,0.999,-4.656e-10,0.0,0.004,3
1225644000,1225644000,0.747,0.005,0.005,0.664,0.999,-4.656e-10,0.0,0.004,3
1225744000,1225744000,0.747,0.005,0.005,0.664,0.999,-4.656e-10,0.0,0.004,3
1225844000,1225844000,0.747,0.005,0.005,0.664,0.999,-4.656e-10,0.0,0.004,3
1225944000,1225944000,0.747,0.005,0.005,0.664,0.999,-4.656e-10,0.0,0.004,3
1226044000,1226044000,0.747,0.005,0.005,0.664,0.999,-4.656e-10,0.0,0.004,3
1226144000,1226144000,0.747,0.005,0.005,0.664,0.999,-4.656e-10,0.0,0.004,3
1226244000,1226244000,0.747,0.005,0.005,0.664,0.999,-4.656e-10,0.0,0.004,3
1226344000,1226344000,0.747,0.005,0.005,0.663,0.999,-4.656e-10,0.0,0.004,3
1226444000,1226444000,0.747,0.005,0.005,0.663,0.999,-4.656e-10,0.0,0.004,3
1226544000,1226544000,0.747,0.005,0.005,0.663,0.999,-4.656e-10,0.0,0.004,3
1226644000,1226644000,0.747,0.005,0.005,0.663,0.999,-4.656e-10,0.0,0.004,3
1226744000,1226744000,0.747,0.005,0.005,0.663,0.999,-4.656e-10,0.0,0.004,3
1226844000,1226844000,0.747,0.005,0.005,0.663,0.999,-4.656e-10,0.0,0.004,3
1226944000,1226944000,0.747,0.005,0.005,0.663,0.999,-4.656e-10,0.0,0.004,3
1227044000,1227044000,0.747,0.006,0.005,0.663,0.999,-4.656e-10,0.0,0.004,3
1227144000,1227144000,0.747,0.006,0.005,0.663,0.999,-4.656e-10,0.0,0.004,3
1227244000,1227244000,0.747,0.006,0.005,0.663,0.999,-4.656e-10,0.0,0.004,3
1227348000,1227344000,0.747,0.006,0.005,0.663,0.999,-4.656e-10,0.0,0.004,3
1227448000,1227448000,0.747,0.006,0.005,0.663,0.999,-4.656e-10,0.0,0.004,3
1227548000,1227548000,0.747,0.006,0.005,0.663,0.999,-4.656e-10,0.0,0.004,3
1227648000,1227648000,0.747,0.006,0.005,0.663,0.999,-4.656e-10,0.0,0.004,3
1227748000,1227748000,0.747,0.006,0.005,0.663,0.999,-4.656e-10,0.0,0.004,3
1227848000,1227848000,0.747,0.007,0.005,0.663,0.999,-4.656e-10,0.0,0.004,3
1227948000,1227948000,0.747,0.007,0.005,0.663,0.999,-4.656e-10,0.0,0.004,3
1228048000,1228048000,0.747,0.007,0.005,0.663,0.999,-4.656e-10,0.0,0.004,3
1228148000,1228148000,0.747,0.007,0.005,0.663,0.999,-4.656e-10,0.0,0.004,3
1228248000,1228248000,0.747,0.007,0.005,0.663,0.999,-4.656e-10,0.0,0.004,3
1228348000,1228348000,0.747,0.007,0.006,0.663,0.999,-4.656e-10,0.0,0.004,3
1228448000,1228448000,0.747,0.007,0.006,0.663,0.999,-4.656e-10,0.0,0.004,3
1228548000,1228548000,0.747,0.007,0.006,0.663,0.999,-4.656e-10,0.0,0.004,3
1228648000,1228648000,0.747,0.008,0.006,0.663,0.999,-4.656e-10,0.0,0.004,3
1228748000,1228748000,0.747,0.008,0.006,0.664,0.999,-4.656e-10,0.0,0.004,3
1228848000,1228848000,0.747,0.008,0.006,0.664,0.999,-4.656e-10,0.0,0.004,3
1228948000,1228948000,0.747,0.007,0.006,0.664,0.999,-4.656e-10,0.0,0.004,3
1229048000,1229048000,0.747,0.007,0.006,0.664,0.999,-4.656e-10,0.0,0.004,3
1229148000,1229148000,0.747,0.007,0.005,0.664,0.999,-4.656e-10,0.0,0.004,3
1229248000,1229248000,0.747,0.007,0.005,0.664,0.999,-4.656e-10,0.0,0.004,3
1229348000,1229348000,0.747,0.007,0.005,0.664,0.999,-4.656e-10,0.0,0.004,3
1229448000,1229448000,0.747,0.007,0.005,0.664,0.999,-4.656e-10,0.0,0.004,3
1229548000,1229548000,0.747,0.007,0.005,0.664,0.999,-4.656e-10,0.0,0.004,3
1229648000,1229648000,0.747,0.006,0.005,0.663,0.999,-4.656e-10,0.0,0.004,3
1229748000,1229748000,0.747,0.006,0.005,0.663,0.999,-4.656e-10,0.0,0.004,3
1229848000,1229848000,0.747,0.006,0.005,0.663,0.999,-4.656e-10,0.0,0.004,3
1229948000,1229948000,0.747,0.005,0.005,0.663,0.999,-4.656e-10,0.0,0.004,3
1230048000,1230048000,0.747,0.005,0.005,0.663,0.999,-4.656e-10,0.0,0.004,3
1230148000,1230148000,0.747,0.005,0.005,0.663,0.999,-4.656e-10,0.0,0.004,3
1230248000,1230248000,0.747,0.005,0.005,0.664,0.999,-4.656e-10,0.0,0.004,3
1230348000,1230348000,0.747,0.005,0.004,0.664,0.999,-4.656e-10,0.0,0.004,3
1230448000,1230448000,0.747,0.005,0.004,0.664,0.999,-4.656e-10,0.0,0.004,3
1230548000,1230548000,0.747,0.005,0.004,0.664,0.999,-4.656e-10,0.0,0.004,3
1230648000,1230648000,0.747,0.005,0.004,0.664,0.999,-4.656e-10,0.0,0.004,3
1230748000,1230748000,0.747,0.005,0.004,0.664,0.999,-4.656e-10,0.0,0.004,3
1230848000,1230848000,0.747,0.005,0.004,0.664,0.999,-4.656e-10,0.0,0.004,3
1230948000,1230948000,0.747,0.005,0.004,0.664,0.999,-4.656e-10,0.0,0.004,3
1231048000,1231048000,0.747,0.005,0.004,0.664,0.999,-4.656e-10,0.0,0.004,3
1231148000,1231148000,0.747,0.005,0.004,0.664,0.999,-4.656e-10,0.0,0.004,3
1231248000,1231248000,0.747,0.005,0.004,0.664,0.999,-4.656e-10,0.0,0.004,3
1231348000,1231348000,0.747,0.005,0.004,0.663,0.999,-4.656e-10,0.0,0.004,3
1231448000,1231448000,0.747,0.005,0.004,0.663,0.999,-4.656e-10,0.0,0.004,3
1231548000,1231548000,0.747,0.005,0.004,0.663,0.999,-4.656e-10,0.0,0.004,3
1231648000,1231648000,0.747,0.005,0.004,0.664,0.999,-4.656e-10,0.0,0.004,3
1231748000,1231748000,0.747,0.005,0.004,0.664,0.999,-4.656e-10,0.0,0.004,3
1231848000,1231848000,0.747,0.005,0.004,0.663,0.999,-4.656e-10,0.0,0.004,3
1231948000,1231948000,0.747,0.005,0.004,0.663,0.999,-4.656e-10,0.0,0.004,3
1232048000,1232048000,0.747,0.005,0.004,0.663,0.999,-4.656e-10,0.0,0.004,3
1232148000,1232148000,0.747,0.005,0.004,0.663,0.999,-4.656e-10,0.0,0.004,3
1232248000,1232248000,0.747,0.005,0.005,0.663,0.999,-4.656e-10,0.0,0.004,3
1232348000,1232348000,0.747,0.005,0.004,0.663,0.999,-4.656e-10,0.0,0.004,3
1232448000,1232448000,0.747,0.005,0.004,0.663,0.999,-4.656e-10,0.0,0.004,3
1232548000,1232548000,0.747,0.005,0.004,0.663,0.999,-4.656e-10,0.0,0.004,3
1232648000,1232648000,0.747,0.005,0.004,0.663,0.999,-4.656e-10,0.0,0.004,3
1232748000,1232748000,0.747,0.005,0.005,0.663,0.999,-4.656e-10,0.0,0.004,3
1232848000,1232848000,0.747,0.005,0.005,0.663,0.999,-4.656e-10,0.0,0.004,3
1232948000,1232948000,0.747,0.005,0.005,0.663,0.999,-4.656e-10,0.0,0.004,3
1233048000,1233048000,0.747,0.005,0.005,0.663,0.999,-4.656e-10,0.0,0.004,3
1233148000,1233148000,0.747,0.005,0.005,0.663,0.999,-4.656e-10,0.0,0.004,3
1233248000,1233248000,0.747,0.005,0.005,0.663,0.999,-4.656e-10,0.0,0.004,3
1233348000,1233348000,0.747,0.005,0.005,0.663,0.999,-4.656e-10,0.0,0.004,3
1233448000,1233448000,0.747,0.005,0.005,0.663,0.999,-4.656e-10,0.0,0.004,3
1233548000,1233548000,0.747,0.005,0.005,0.663,0.999,-4.656e-10,0.0,0.004,3
1233648000,1233648000,0.747,0.005,0.005,0.664,0.999,-4.656e-10,0.0,0.004,3
1233748000,1233748000,0.747,0.005,0.005,0.664,0.999,-4.656e-10,0.0,0.004,3
1233848000,1233848000,0.747,0.005,0.006,0.664,0.999,-4.656e-10,0.0,0.004,3
1233948000,1233948000,0.747,0.005,0.006,0.664,0.999,-4.656e-10,0.0,0.004,3
1234048000,1234048000,0.747,0.005,0.006,0.664,0.999,-4.656e-10,0.0,0.004,3
1234148000,1234148000,0.747,0.005,0.006,0.664,0.999,-4.656e-10,0.0,0.004,3
1234248000,1234248000,0.747,0.005,0.006,0.664,0.999,-4.656e-10,0.0,0.004,3
1234348000,1234348000,0.747,0.005,0.006,0.664,0.999,-4.656e-10,0.0,0.004,3
1234448000,1234448000,0.747,0.004,0.006,0.664,0.999,-4.656e-10,0.0,0.004,3
1234548000,1234548000,0.747,0.004,0.006,0.664,0.999,-4.656e-10,0.0,0.004,3
1234648000,1234648000,0.747,0.004,0.005,0.664,0.999,-4.656e-10,0.0,0.004,3
1234748000,1234748000,0.747,0.004,0.005,0.664,0.999,-4.656e-10,0.0,0.004,3
1234848000,1234848000,0.747,0.004,0.005,0.664,0.999,-4.656e-10,0.0,0.004,3
1234948000,1234948000,0.747,0.004,0.005,0.663,0.999,-4.656e-10,0.0,0.004,3
1235048000,1235048000,0.747,0.004,0.005,0.663,0.999,-4.656e-10,0.0,0.004,3
1235148000,1235144000,0.747,0.004,0.005,0.663,0.999,-4.656e-10,0.0,0.004,3
1235248000,1235248000,0.747,0.004,0.005,0.663,0.999,-4.656e-10,0.0,0.004,3
1235348000,1235348000,0.747,0.004,0.004,0.663,0.999,-4.656e-10,0.0,0.004,3
1235448000,1235448000,0.747,0.004,0.003,0.663,0.999,-4.656e-10,0.0,0.004,3
1235548000,1235548000,0.747,0.004,0.002,0.663,0.999,-4.656e-10,0.0,0.004,3
1235648000,1235648000,0.747,0.003,0.002,0.663,0.999,-4.656e-10,0.0,0.004,3
1235748000,1235748000,0.747,0.003,0.001,0.663,0.999,-4.656e-10,0.0,0.004,3
1235848000,1235848000,0.747,0.002,0.000,0.663,0.999,-4.656e-10,0.0,0.004,3
1235948000,1235948000,0.747,0.002,0.000,0.663,0.999,-4.656e-10,0.0,0.004,3
1236048000,1236048000,0.747,0.001,-0.000,0.663,0.999,-4.656e-10,0.0,0.004,3
1236148000,1236148000,0.747,0.001,-0.000,0.663,0.999,-4.656e-10,0.0,0.004,3
1236248000,1236248000,0.747,0.001,-0.000,0.663,0.999,-4.656e-10,0.0,0.004,3
1236348000,1236348000,0.747,0.000,-0.001,0.663,0.999,-4.656e-10,0.0,0.004,3
1236448000,1236448000,0.747,0.000,-0.001,0.664,0.999,-4.656e-10,0.0,0.004,3
1236548000,1236548000,0.747,0.000,-0.001,0.664,0.999,-4.656e-10,0.0,0.004,3
1236648000,1236648000,0.747,0.000,-0.001,0.664,0.999,-4.656e-10,0.0,0.004,3
1236748000,1236748000,0.747,0.000,-0.001,0.664,0.999,-4.656e-10,0.0,0.004,3
1236848000,1236848000,0.747,0.000,-0.001,0.664,0.999,-4.656e-10,0.0,0.004,3
1236948000,1236948000,0.747,0.000,-0.001,0.664,0.999,-4.656e-10,0.0,0.004,3
1237048000,1237048000,0.747,0.000,-0.001,0.663,0.999,-4.656e-10,0.0,0.004,3
1237148000,1237148000,0.747,0.000,-0.001,0.663,0.999,-4.656e-10,0.0,0.004,3
1237248000,1237248000,0.747,0.000,-0.001,0.664,0.999,-4.656e-10,0.0,0.004,3
1237348000,1237348000,0.747,0.000,-0.001,0.664,0.999,-4.656e-10,0.0,0.004,3
1237448000,1237448000,0.746,0.000,-0.001,0.664,0.999,-4.656e-10,0.0,0.004,3
1237548000,1237548000,0.746,0.000,-0.001,0.664,0.999,-4.656e-10,0.0,0.004,3
1237648000,1237648000,0.747,0.000,-0.001,0.664,0.999,-4.656e-10,0.0,0.004,3
1237748000,1237748000,0.747,0.000,-0.001,0.664,0.999,-4.656e-10,0.0,0.004,3
1237848000,1237848000,0.747,0.000,-0.001,0.664,0.999,-4.656e-10,0.0,0.004,3
1237948000,1237948000,0.747,0.000,-0.001,0.663,0.999,-4.656e-10,0.0,0.004,3
1238048000,1238048000,0.748,0.000,-0.001,0.663,0.999,-4.656e-10,0.0,0.004,3
1238148000,1238148000,0.748,0.000,-0.001,0.663,0.999,-4.656e-10,0.0,0.004,3
1238248000,1238248000,0.748,0.000,-0.001,0.663,0.999,-4.656e-10,0.0,0.004,3
1238348000,1238348000,0.748,0.000,-0.001,0.663,0.999,-4.656e-10,0.0,0.004,3
1238448000,1238448000,0.748,0.000,-0.001,0.663,0.999,-4.656e-10,0.0,0.004,3
1238548000,1238548000,0.748,0.000,-0.001,0.663,0.999,-4.656e-10,0.0,0.004,3
1238648000,1238648000,0.748,0.000,-0.001,0.663,0.999,-4.656e-10,0.0,0.004,3
1238748000,1238748000,0.748,0.000,-0.001,0.663,0.999,-4.656e-10,0.0,0.004,3
1238848000,1238848000,0.748,0.000,-0.001,0.663,0.999,-4.656e-10,0.0,0.004,3
1238948000,1238948000,0.748,0.000,-0.001,0.663,0.999,-4.656e-10,0.0,0.004,3
1239048000,1239048000,0.748,0.000,-0.001,0.663,0.999,-4.656e-10,0.0,0.004,3
1239148000,1239148000,0.748,0.000,-0.001,0.663,0.999,-4.656e-10,0.0,0.004,3
1239248000,1239248000,0.747,0.000,-0.001,0.663,0.999,-4.656e-10,0.0,0.004,3
1239348000,1239348000,0.747,0.000,-0.001,0.663,0.999,-4.656e-10,0.0,0.004,3
1239448000,1239448000,0.747,-0.000,-0.002,0.664,0.999,-4.656e-10,0.0,0.004,3
1239548000,1239548000,0.747,-0.004,-0.005,0.664,0.999,-4.656e-10,0.0,0.004,3
1239648000,1239648000,0.747,-0.015,-0.015,0.664,0.999,-4.656e-10,0.0,0.004,3
1239748000,1239748000,0.746,-0.031,-0.029,0.663,0.999,-4.656e-10,0.0,0.004,3
1239848000,1239848000,0.745,-0.050,-0.045,0.662,0.999,-4.656e-10,0.0,0.004,3
1239948000,1239948000,0.744,-0.070,-0.063,0.661,0.999,-4.656e-10,0.0,0.004,3
1240048000,1240048000,0.742,-0.089,-0.080,0.659,0.999,-4.656e-10,0.0,0.004,3
1240148000,1240148000,0.739,-0.107,-0.096,0.656,0.999,-4.656e-10,0.0,0.004,3
1240248000,1240248000,0.737,-0.124,-0.111,0.654,0.999,-4.656e-10,0.0,0.004,3
1240348000,1240348000,0.734,-0.137,-0.123,0.653,0.999,-4.656e-10,0.0,0.004,3
1240448000,1240448000,0.730,-0.149,-0.133,0.653,0.999,-4.656e-10,0.0,0.004,3
1240548000,1240548000,0.726,-0.157,-0.141,0.653,0.999,-4.656e-10,0.0,0.004,3
1240648000,1240648000,0.723,-0.164,-0.147,0.654,0.999,-4.656e-10,0.0,0.004,3
1240748000,1240748000,0.722,-0.168,-0.151,0.653,0.999,-4.656e-10,0.0,0.004,3
1240848000,1240848000,0.721,-0.168,-0.153,0.653,0.999,-4.656e-10,0.0,0.004,3
1240948000,1240948000,0.723,-0.160,-0.147,0.654,0.999,-4.656e-10,0.0,0.004,3
1241048000,1241048000,0.727,-0.145,-0.133,0.657,0.999,-4.656e-10,0.0,0.004,3
1241148000,1241148000,0.730,-0.126,-0.116,0.660,0.999,-4.656e-10,0.0,0.004,3
1241248000,1241248000,0.733,-0.105,-0.097,0.663,0.999,-4.656e-10,0.0,0.004,3
1241352000,1241348000,0.736,-0.084,-0.078,0.666,0.999,-4.656e-10,0.0,0.004,3
1241452000,1241452000,0.737,-0.063,-0.059,0.669,0.999,-4.656e-10,0.0,0.004,3
1241552000,1241552000,0.738,-0.045,-0.043,0.671,0.999,-4.656e-10,0.0,0.004,3
1241652000,1241652000,0.739,-0.029,-0.028,0.672,0.999,-4.656e-10,0.0,0.004,3
1241752000,1241752000,0.739,-0.016,-0.016,0.672,0.999,-4.656e-10,0.0,0.004,3
1241852000,1241852000,0.739,-0.005,-0.007,0.673,0.999,-4.656e-10,0.0,0.004,3
1241952000,1241952000,0.739,0.002,0.000,0.673,0.999,-4.656e-10,0.0,0.004,3
1242052000,1242052000,0.739,0.008,0.005,0.673,0.999,-4.656e-10,0.0,0.004,3
1242152000,1242152000,0.739,0.012,0.009,0.673,0.999,-4.656e-10,0.0,0.004,3
1242252000,1242252000,0.739,0.018,0.014,0.673,0.999,-4.656e-10,0.0,0.004,3
1242352000,1242352000,0.738,0.030,0.025,0.672,0.999,-4.656e-10,0.0,0.004,3
1242452000,1242452000,0.737,0.046,0.040,0.672,0.999,-4.656e-10,0.0,0.004,3
1242552000,1242552000,0.736,0.064,0.057,0.671,0.999,-4.656e-10,0.0,0.004,3
1242652000,1242652000,0.734,0.083,0.074,0.669,0.999,-4.656e-10,0.0,0.004,3
1242752000,1242752000,0.732,0.101,0.090,0.667,0.999,-4.656e-10,0.0,0.004,3
1242852000,1242852000,0.729,0.117,0.105,0.665,0.999,-4.656e-10,0.0,0.004,3
1242952000,1242952000,0.727,0.131,0.118,0.662,0.999,-4.656e-10,0.0,0.004,3
1243052000,1243052000,0.725,0.143,0.129,0.660,0.999,-4.656e-10,0.0,0.004,3
1243152000,1243152000,0.723,0.153,0.138,0.658,0.999,-4.656e-10,0.0,0.004,3
1243252000,1243252000,0.721,0.161,0.145,0.657,0.999,-4.656e-10,0.0,0.004,3
1243352000,1243352000,0.720,0.166,0.150,0.656,0.999,-4.656e-10,0.0,0.004,3
1243452000,1243452000,0.719,0.169,0.153,0.655,0.999,-4.656e-10,0.0,0.004,3
1243552000,1243552000,0.719,0.169,0.153,0.655,0.999,-4.656e-10,0.0,0.004,3
1243652000,1243652000,0.721,0.161,0.145,0.657,0.999,-4.656e-10,0.0,0.004,3
1243752000,1243752000,0.724,0.146,0.132,0.660,0.999,-4.656e-10,0.0,0.004,3
1243852000,1243852000,0.728,0.127,0.114,0.663,0.999,-4.656e-10,0.0,0.004,3
1243952000,1243952000,0.731,0.106,0.095,0.666,0.999,-4.656e-10,0.0,0.004,3
1244052000,1244052000,0.734,0.085,0.075,0.668,0.999,-4.656e-10,0.0,0.004,3
1244152000,1244152000,0.736,0.065,0.057,0.670,0.999,-4.656e-10,0.0,0.004,3
1244252000,1244252000,0.737,0.047,0.040,0.671,0.999,-4.656e-10,0.0,0.004,3
1244356000,1244352000,0.738,0.031,0.026,0.672,0.999,-4.656e-10,0.0,0.004,3
1244456000,1244456000,0.739,0.017,0.014,0.672,0.999,-4.656e-10,0.0,0.004,3
1244556000,1244556000,0.739,0.007,0.004,0.672,0.999,-4.656e-10,0.0,0.004,3
1244656000,1244656000,0.739,-0.000,-0.002,0.672,0.999,-4.656e-10,0.0,0.004,3
1244756000,1244756000,0.739,-0.006,-0.007,0.672,0.999,-4.656e-10,0.0,0.004,3
1244856000,1244856000,0.739,-0.010,-0.011,0.672,0.999,-4.656e-10,0.0,0.004,3
1244956000,1244952000,0.739,-0.012,-0.013,0.673,0.999,-4.656e-10,0.0,0.004,3
1245056000,1245052000,0.739,-0.013,-0.014,0.673,0.999,-4.656e-10,0.0,0.004,3
1245156000,1245152000,0.739,-0.013,-0.014,0.673,0.999,-4.656e-10,0.0,0.004,3
1245256000,1245252000,0.738,-0.014,-0.015,0.673,0.999,-4.656e-10,0.0,0.004,3
1245356000,1245352000,0.738,-0.023,-0.023,0.673,0.999,-4.656e-10,0.0,0.004,3
1245456000,1245452000,0.738,-0.038,-0.036,0.672,0.999,-4.656e-10,0.0,0.004,3
1245556000,1245552000,0.737,-0.055,-0.051,0.671,0.999,-4.656e-10,0.0,0.004,3
1245656000,1245652000,0.735,-0.073,-0.068,0.669,0.999,-4.656e-10,0.0,0.004,3
1245756000,1245752000,0.733,-0.092,-0.085,0.667,0.999,-4.656e-10,0.0,0.004,3
1245856000,1245852000,0.731,-0.109,-0.100,0.665,0.999,-4.656e-10,0.0,0.004,3
1245956000,1245952000,0.728,-0.124,-0.114,0.663,0.999,-4.656e-10,0.0,0.004,3
1246056000,1246052000,0.726,-0.137,-0.126,0.661,0.999,-4.656e-10,0.0,0.004,3
1246156000,1246152000,0.724,-0.148,-0.136,0.659,0.999,-4.656e-10,0.0,0.004,3
1246256000,1246252000,0.722,-0.156,-0.143,0.657,0.999,-4.656e-10,0.0,0.004,3
1246356000,1246352000,0.720,-0.162,-0.149,0.656,0.999,-4.656e-10,0.0,0.004,3
1246456000,1246452000,0.719,-0.167,-0.153,0.655,0.999,-4.656e-10,0.0,0.004,3
1246556000,1246552000,0.719,-0.169,-0.155,0.655,0.999,-4.656e-10,0.0,0.004,3
1246656000,1246652000,0.718,-0.171,-0.156,0.655,0.999,-4.656e-10,0.0,0.004,3
1246756000,1246752000,0.719,-0.170,-0.156,0.655,0.999,-4.656e-10,0.0,0.004,3
1246856000,1246852000,0.721,-0.161,-0.148,0.657,0.999,-4.656e-10,0.0,0.004,3
1246956000,1246952000,0.724,-0.146,-0.134,0.660,0.999,-4.656e-10,0.0,0.004,3
1247056000,1247052000,0.727,-0.126,-0.116,0.663,0.999,-4.656e-10,0.0,0.004,3
1247156000,1247152000,0.731,-0.104,-0.097,0.666,0.999,-4.656e-10,0.0,0.004,3
1247256000,1247252000,0.734,-0.083,-0.077,0.669,0.999,-4.656e-10,0.0,0.004,3
1247356000,1247352000,0.736,-0.063,-0.059,0.670,0.999,-4.656e-10,0.0,0.004,3
1247456000,1247452000,0.737,-0.044,-0.042,0.672,0.999,-4.656e-10,0.0,0.004,3
1247556000,1247552000,0.738,-0.029,-0.028,0.672,0.999,-4.656e-10,0.0,0.004,3
1247656000,1247652000,0.739,-0.015,-0.016,0.672,0.999,-4.656e-10,0.0,0.004,3
1247756000,1247752000,0.739,-0.005,-0.006,0.673,0.999,-4.656e-10,0.0,0.004,3
1247856000,1247852000,0.739,0.002,0.000,0.673,0.999,-4.656e-10,0.0,0.004,3
1247956000,1247952000,0.739,0.008,0.005,0.673,0.999,-4.656e-10,0.0,0.004,3
1248056000,1248052000,0.739,0.012,0.009,0.673,0.999,-4.656e-10,0.0,0.004,3
1248156000,1248152000,0.739,0.014,0.011,0.673,0.999,-4.656e-10,0.0,0.004,3
1248256000,1248252000,0.739,0.016,0.013,0.673,0.999,-4.656e-10,0.0,0.004,3
1248356000,1248352000,0.738,0.021,0.017,0.673,0.999,-4.656e-10,0.0,0.004,3
1248456000,1248452000,0.738,0.033,0.028,0.673,0.999,-4.656e-10,0.0,0.004,3
1248556000,1248552000,0.737,0.049,0.043,0.672,0.999,-4.656e-10,0.0,0.004,3
1248656000,1248652000,0.735,0.066,0.059,0.671,0.999,-4.656e-10,0.0,0.004,3
1248756000,1248752000,0.734,0.085,0.076,0.669,0.999,-4.656e-10,0.0,0.004,3
1248856000,1248852000,0.731,0.102,0.092,0.667,0.999,-4.656e-10,0.0,0.004,3
1248956000,1248948000,0.729,0.118,0.106,0.665,0.999,-4.656e-10,0.0,0.004,3
1249056000,1249052000,0.727,0.133,0.119,0.662,0.999,-4.656e-10,0.0,0.004,3
1249156000,1249152000,0.724,0.144,0.130,0.660,0.999,-4.656e-10,0.0,0.004,3
1249256000,1249252000,0.723,0.154,0.139,0.658,0.999,-4.656e-10,0.0,0.004,3
1249356000,1249352000,0.721,0.161,0.146,0.657,0.999,-4.656e-10,0.0,0.004,3
1249456000,1249452000,0.720,0.166,0.150,0.656,0.999,-4.656e-10,0.0,0.004,3
1249556000,1249552000,0.719,0.169,0.153,0.655,0.999,-4.656e-10,0.0,0.004,3
1249656000,1249652000,0.720,0.165,0.149,0.656,0.999,-4.656e-10,0.0,0.004,3
1249756000,1249752000,0.723,0.153,0.137,0.658,0.999,-4.656e-10,0.0,0.004,3
1249856000,1249852000,0.727,0.135,0.121,0.661,0.999,-4.656e-10,0.0,0.004,3
1249956000,1249952000,0.730,0.115,0.102,0.664,0.999,-4.656e-10,0.0,0.004,3
1250056000,1250052000,0.733,0.093,0.083,0.667,0.999,-4.656e-10,0.0,0.004,3
1250156000,1250152000,0.735,0.073,0.064,0.669,0.999,-4.656e-10,0.0,0.004,3
1250256000,1250252000,0.737,0.054,0.047,0.671,0.999,-4.656e-10,0.0,0.004,3
1250356000,1250352000,0.738,0.037,0.032,0.672,0.999,-4.656e-10,0.0,0.004,3
1250456000,1250452000,0.738,0.023,0.019,0.673,0.999,-4.656e-10,0.0,0.004,3
1250556000,1250552000,0.739,0.011,0.008,0.673,0.999,-4.656e-10,0.0,0.004,3
1250656000,1250652000,0.739,0.002,0.000,0.673,0.999,-4.656e-10,0.0,0.004,3
1250756000,1250752000,0.739,-0.004,-0.005,0.673,0.999,-4.656e-10,0.0,0.004,3
1250856000,1250852000,0.739,-0.009,-0.010,0.673,0.999,-4.656e-10,0.0,0.004,3
1250956000,1250952000,0.739,-0.012,-0.012,0.673,0.999,-4.656e-10,0.0,0.004,3
1251056000,1251052000,0.739,-0.017,-0.017,0.673,0.999,-4.656e-10,0.0,0.004,3
1251156000,1251152000,0.738,-0.028,-0.028,0.672,0.999,-4.656e-10,0.0,0.004,3
1251256000,1251252000,0.738,-0.044,-0.042,0.671,0.999,-4.656e-10,0.0,0.004,3
1251356000,1251352000,0.736,-0.063,-0.059,0.670,0.999,-4.656e-10,0.0,0.004,3
1251456000,1251452000,0.735,-0.081,-0.075,0.668,0.999,-4.656e-10,0.0,0.004,3
1251556000,1251552000,0.732,-0.099,-0.092,0.666,0.999,-4.656e-10,0.0,0.004,3
1251656000,1251652000,0.730,-0.116,-0.107,0.664,0.999,-4.656e-10,0.0,0.004,3
1251756000,1251752000,0.727,-0.130,-0.120,0.662,0.999,-4.656e-10,0.0,0.004,3
1251856000,1251852000,0.725,-0.142,-0.131,0.660,0.999,-4.656e-10,0.0,0.004,3
1251956000,1251952000,0.723,-0.152,-0.140,0.658,0.999,-4.656e-10,0.0,0.004,3
1252056000,1252052000,0.721,-0.159,-0.146,0.657,0.999,-4.656e-10,0.0,0.004,3
1252156000,1252152000,0.720,-0.165,-0.151,0.656,0.999,-4.656e-10,0.0,0.004,3
1252256000,1252252000,0.719,-0.168,-0.154,0.655,0.999,-4.656e-10,0.0,0.004,3
1252356000,1252352000,0.719,-0.170,-0.156,0.655,0.999,-4.656e-10,0.0,0.004,3
1252456000,1252452000,0.719,-0.171,-0.157,0.654,0.999,-4.656e-10,0.0,0.004,3
1252556000,1252552000,0.719,-0.171,-0.156,0.654,0.999,-4.656e-10,0.0,0.004,3
1252656000,1252652000,0.720,-0.164,-0.151,0.656,0.999,-4.656e-10,0.0,0.004,3
1252756000,1252752000,0.723,-0.151,-0.139,0.659,0.999,-4.656e-10,0.0,0.004,3
1252856000,1252852000,0.726,-0.132,-0.122,0.662,0.999,-4.656e-10,0.0,0.004,3
1252956000,1252952000,0.730,-0.111,-0.103,0.665,0.999,-4.656e-10,0.0,0.004,3
1253056000,1253052000,0.733,-0.089,-0.083,0.668,0.999,-4.656e-10,0.0,0.004,3
1253156000,1253152000,0.735,-0.069,-0.065,0.670,0.999,-4.656e-10,0.0,0.004,3
1253256000,1253252000,0.737,-0.050,-0.048,0.672,0.999,-4.656e-10,0.0,0.004,3
1253356000,1253352000,0.738,-0.034,-0.032,0.672,0.999,-4.656e-10,0.0,0.004,3
1253456000,1253452000,0.738,-0.020,-0.020,0.673,0.999,-4.656e-10,0.0,0.004,3
1253556000,1253552000,0.739,-0.008,-0.009,0.673,0.999,-4.656e-10,0.0,0.004,3
1253656000,1253652000,0.739,7.742e-06,-0.001,0.673,0.999,-4.656e-10,0.0,0.004,3
1253756000,1253752000,0.739,0.006,0.004,0.673,0.999,-4.656e-10,0.0,0.004,3
1253856000,1253852000,0.739,0.013,0.010,0.673,0.999,-4.656e-10,0.0,0.004,3
1253956000,1253952000,0.738,0.024,0.020,0.673,0.999,-4.656e-10,0.0,0.004,3
1254056000,1254052000,0.737,0.040,0.035,0.672,0.999,-4.656e-10,0.0,0.004,3
1254156000,1254152000,0.736,0.059,0.052,0.671,0.999,-4.656e-10,0.0,0.004,3
1254256000,1254252000,0.734,0.078,0.069,0.670,0.999,-4.656e-10,0.0,0.004,3
1254356000,1254352000,0.732,0.097,0.087,0.668,0.999,-4.656e-10,0.0,0.004,3
1254456000,1254452000,0.730,0.114,0.102,0.665,0.999,-4.656e-10,0.0,0.004,3
1254556000,1254552000,0.727,0.129,0.116,0.663,0.999,-4.656e-10,0.0,0.004,3
1254656000,1254652000,0.725,0.142,0.128,0.661,0.999,-4.656e-10,0.0,0.004,3
1254756000,1254752000,0.723,0.152,0.137,0.659,0.999,-4.656e-10,0.0,0.004,3
1254856000,1254852000,0.721,0.160,0.145,0.657,0.999,-4.656e-10,0.0,0.004,3
1254956000,1254952000,0.720,0.166,0.150,0.656,0.999,-4.656e-10,0.0,0.004,3
1255056000,1255052000,0.719,0.170,0.154,0.655,0.999,-4.656e-10,0.0,0.004,3
1255156000,1255152000,0.718,0.172,0.156,0.654,0.999,-4.656e-10,0.0,0.004,3
1255256000,1255252000,0.718,0.173,0.156,0.654,0.999,-4.656e-10,0.0,0.004,3
1255356000,1255352000,0.718,0.173,0.156,0.654,0.999,-4.656e-10,0.0,0.004,3
1255456000,1255452000,0.720,0.168,0.151,0.655,0.999,-4.656e-10,0.0,0.004,3
1255556000,1255552000,0.723,0.155,0.140,0.658,0.999,-4.656e-10,0.0,0.004,3
1255656000,1255652000,0.726,0.137,0.123,0.661,0.999,-4.656e-10,0.0,0.004,3
1255756000,1255752000,0.730,0.116,0.104,0.664,0.999,-4.656e-10,0.0,0.004,3
1255856000,1255852000,0.733,0.095,0.084,0.667,0.999,-4.656e-10,0.0,0.004,3
1255956000,1255952000,0.736,0.074,0.065,0.669,0.999,-4.656e-10,0.0,0.004,3
1256056000,1256052000,0.737,0.054,0.047,0.671,0.999,-4.656e-10,0.0,0.004,3
1256156000,1256152000,0.738,0.037,0.032,0.672,0.999,-4.656e-10,0.0,0.004,3
1256256000,1256252000,0.739,0.023,0.019,0.672,0.999,-4.656e-10,0.0,0.004,3
1256356000,1256352000,0.739,0.011,0.008,0.673,0.999,-4.656e-10,0.0,0.004,3
1256456000,1256452000,0.739,0.001,-0.000,0.673,0.999,-4.656e-10,0.0,0.004,3
1256556000,1256552000,0.739,-0.004,-0.006,0.673,0.999,-4.656e-10,0.0,0.004,3
1256656000,1256652000,0.739,-0.009,-0.010,0.673,0.999,-4.656e-10,0.0,0.004,3
1256756000,1256752000,0.739,-0.012,-0.013,0.673,0.999,-4.656e-10,0.0,0.004,3
1256856000,1256852000,0.739,-0.014,-0.014,0.673,0.999,-4.656e-10,0.0,0.004,3
1256956000,1256952000,0.739,-0.014,-0.015,0.673,0.999,-4.656e-10,0.0,0.004,3
1257056000,1257052000,0.739,-0.014,-0.014,0.673,0.999,-4.656e-10,0.0,0.004,3
1257156000,1257152000,0.739,-0.012,-0.013,0.673,0.999,-4.656e-10,0.0,0.004,3
1257256000,1257252000,0.739,-0.011,-0.012,0.673,0.999,-4.656e-10,0.0,0.004,3
1257356000,1257352000,0.739,-0.009,-0.010,0.673,0.999,-4.656e-10,0.0,0.004,3
1257456000,1257452000,0.739,-0.007,-0.008,0.673,0.999,-4.656e-10,0.0,0.004,3
1257556000,1257552000,0.739,-0.005,-0.007,0.673,0.999,-4.656e-10,0.0,0.004,3
1257656000,1257652000,0.739,-0.004,-0.005,0.673,0.999,-4.656e-10,0.0,0.004,3
1257756000,1257752000,0.739,-0.002,-0.004,0.673,0.999,-4.656e-10,0.0,0.004,3
1257856000,1257852000,0.739,-0.001,-0.003,0.673,0.999,-4.656e-10,0.0,0.004,3
1257956000,1257952000,0.739,-0.000,-0.002,0.673,0.999,-4.656e-10,0.0,0.004,3
1258056000,1258052000,0.739,0.000,-0.001,0.673,0.999,-4.656e-10,0.0,0.004,3
1258156000,1258152000,0.739,0.000,-0.001,0.673,0.999,-4.656e-10,0.0,0.004,3
1258256000,1258252000,0.739,0.001,-0.000,0.673,0.999,-4.656e-10,0.0,0.004,3
1258356000,1258352000,0.739,0.001,-0.000,0.673,0.999,-4.656e-10,0.0,0.004,3
1258456000,1258452000,0.739,0.001,-0.000,0.673,0.999,-4.656e-10,0.0,0.004,3
1258556000,1258552000,0.739,0.001,-0.000,0.673,0.999,-4.656e-10,0.0,0.004,3
1258656000,1258652000,0.739,0.001,-0.000,0.673,0.999,-4.656e-10,0.0,0.004,3
1258756000,1258752000,0.739,0.001,-0.000,0.673,0.999,-4.656e-10,0.0,0.004,3
1258856000,1258852000,0.739,0.001,-0.000,0.673,0.999,-4.656e-10,0.0,0.004,3
1258956000,1258952000,0.739,0.001,-0.000,0.673,0.999,-4.656e-10,0.0,0.004,3
1259056000,1259052000,0.739,0.001,-0.000,0.673,0.999,-4.656e-10,0.0,0.004,3
1259156000,1259152000,0.739,0.001,-0.000,0.673,0.999,-4.656e-10,0.0,0.004,3
1259256000,1259252000,0.739,0.001,-0.000,0.673,0.999,-4.656e-10,0.0,0.004,3
1259356000,1259352000,0.739,0.001,-0.000,0.673,0.999,-4.656e-10,0.0,0.004,3
1259456000,1259452000,0.739,0.001,-0.000,0.673,0.999,-4.656e-10,0.0,0.004,3
1259556000,1259552000,0.739,0.001,-0.000,0.673,0.999,-4.656e-10,0.0,0.004,3
1259656000,1259652000,0.739,-0.000,0.000,0.673,0.999,-4.656e-10,0.0,0.004,3
1259756000,1259752000,0.739,-0.003,0.008,0.673,0.999,-4.656e-10,0.0,0.004,3
1259856000,1259852000,0.739,-0.004,0.019,0.673,0.999,-4.656e-10,0.0,0.004,3
1259956000,1259952000,0.739,-0.002,0.034,0.672,0.999,-4.656e-10,0.0,0.004,3
1260056000,1260052000,0.739,0.005,0.053,0.671,0.999,-4.656e-10,0.0,0.004,3
1260156000,1260152000,0.738,0.019,0.072,0.669,0.999,-4.656e-10,0.0,0.004,3
1260256000,1260252000,0.738,0.036,0.090,0.667,0.999,-4.656e-10,0.0,0.004,3
1260356000,1260352000,0.737,0.054,0.108,0.664,0.999,-4.656e-10,0.0,0.004,3
1260456000,1260452000,0.735,0.072,0.124,0.661,0.999,-4.656e-10,0.0,0.004,3
1260556000,1260552000,0.733,0.087,0.139,0.658,0.999,-4.656e-10,0.0,0.004,3
1260656000,1260652000,0.732,0.101,0.152,0.656,0.999,-4.656e-10,0.0,0.004,3
1260756000,1260752000,0.730,0.113,0.162,0.653,0.999,-4.656e-10,0.0,0.004,3
1260856000,1260852000,0.729,0.122,0.170,0.651,0.999,-4.656e-10,0.0,0.004,3
1260956000,1260952000,0.728,0.130,0.175,0.649,0.999,-4.656e-10,0.0,0.004,3
1261056000,1261052000,0.727,0.136,0.176,0.648,0.999,-4.656e-10,0.0,0.004,3
1261156000,1261152000,0.727,0.140,0.174,0.648,0.999,-4.656e-10,0.0,0.004,3
1261256000,1261252000,0.728,0.139,0.169,0.649,0.999,-4.656e-10,0.0,0.004,3
1261356000,1261352000,0.729,0.135,0.162,0.650,0.999,-4.656e-10,0.0,0.004,3
1261456000,1261452000,0.730,0.127,0.152,0.653,0.999,-4.656e-10,0.0,0.004,3
1261556000,1261552000,0.732,0.117,0.139,0.656,0.999,-4.656e-10,0.0,0.004,3
1261656000,1261652000,0.734,0.105,0.124,0.659,0.999,-4.656e-10,0.0,0.004,3
1261756000,1261752000,0.735,0.091,0.108,0.662,0.999,-4.656e-10,0.0,0.004,3
1261856000,1261852000,0.737,0.076,0.090,0.664,0.999,-4.656e-10,0.0,0.004,3
1261956000,1261952000,0.738,0.060,0.072,0.667,0.999,-4.656e-10,0.0,0.004,3
1262056000,1262052000,0.739,0.044,0.054,0.669,0.999,-4.656e-10,0.0,0.004,3
1262156000,1262152000,0.739,0.029,0.036,0.671,0.999,-4.656e-10,0.0,0.004,3
1262256000,1262252000,0.739,0.013,0.021,0.672,0.999,-4.656e-10,0.0,0.004,3
1262356000,1262352000,0.739,-0.001,0.007,0.672,0.999,-4.656e-10,0.0,0.004,3
1262456000,1262452000,0.739,-0.013,-0.003,0.673,0.999,-4.656e-10,0.0,0.004,3
1262556000,1262552000,0.738,-0.023,-0.012,0.673,0.999,-4.656e-10,0.0,0.004,3
1262656000,1262652000,0.738,-0.030,-0.019,0.673,0.999,-4.656e-10,0.0,0.004,3
1262756000,1262752000,0.738,-0.035,-0.023,0.673,0.999,-4.656e-10,0.0,0.004,3
1262856000,1262852000,0.738,-0.037,-0.025,0.673,0.999,-4.656e-10,0.0,0.004,3
1262956000,1262952000,0.738,-0.037,-0.025,0.673,0.999,-4.656e-10,0.0,0.004,3
1263056000,1263052000,0.738,-0.035,-0.023,0.673,0.999,-4.656e-10,0.0,0.004,3
1263156000,1263152000,0.738,-0.031,-0.020,0.673,0.999,-4.656e-10,0.0,0.004,3
1263256000,1263252000,0.738,-0.025,-0.015,0.673,0.999,-4.656e-10,0.0,0.004,3
1263356000,1263352000,0.738,-0.019,-0.010,0.673,0.999,-4.656e-10,0.0,0.004,3
1263456000,1263452000,0.738,-0.013,-0.004,0.673,0.999,-4.656e-10,0.0,0.004,3
1263556000,1263552000,0.738,-0.006,0.001,0.673,0.999,-4.656e-10,0.0,0.004,3
1263656000,1263652000,0.739,0.000,0.007,0.673,0.999,-4.656e-10,0.0,0.004,3
1263756000,1263752000,0.738,0.006,0.012,0.673,0.999,-4.656e-10,0.0,0.004,3
1263856000,1263852000,0.738,0.012,0.017,0.673,0.999,-4.656e-10,0.0,0.004,3
1263956000,1263952000,0.738,0.017,0.021,0.673,0.999,-4.656e-10,0.0,0.004,3
1264056000,1264052000,0.738,0.021,0.025,0.673,0.999,-4.656e-10,0.0,0.004,3
1264156000,1264152000,0.738,0.024,0.027,0.673,0.999,-4.656e-10,0.0,0.004,3
1264256000,1264252000,0.738,0.026,0.028,0.672,0.999,-4.656e-10,0.0,0.004,3
1264356000,1264352000,0.738,0.027,0.029,0.672,0.999,-4.656e-10,0.0,0.004,3
1264456000,1264452000,0.738,0.027,0.029,0.672,0.999,-4.656e-10,0.0,0.004,3
1264556000,1264552000,0.738,0.026,0.028,0.672,0.999,-4.656e-10,0.0,0.004,3
1264656000,1264652000,0.738,0.025,0.027,0.672,0.999,-4.656e-10,0.0,0.004,3
1264756000,1264752000,0.738,0.023,0.025,0.673,0.999,-4.656e-10,0.0,0.004,3
1264856000,1264852000,0.738,0.021,0.023,0.673,0.999,-4.656e-10,0.0,0.004,3
1264956000,1264952000,0.738,0.018,0.020,0.673,0.999,-4.656e-10,0.0,0.004,3
1265056000,1265052000,0.739,0.016,0.017,0.673,0.999,-4.656e-10,0.0,0.004,3
1265156000,1265152000,0.739,0.013,0.015,0.673,0.999,-4.656e-10,0.0,0.004,3
1265256000,1265252000,0.739,0.010,0.012,0.673,0.999,-4.656e-10,0.0,0.004,3
1265356000,1265352000,0.739,0.008,0.010,0.673,0.999,-4.656e-10,0.0,0.004,3
1265456000,1265452000,0.739,0.006,0.008,0.673,0.999,-4.656e-10,0.0,0.004,3
1265556000,1265552000,0.739,0.004,0.006,0.673,0.999,-4.656e-10,0.0,0.004,3
1265656000,1265652000,0.739,0.003,0.004,0.673,0.999,-4.656e-10,0.0,0.004,3
1265756000,1265752000,0.739,0.002,0.003,0.673,0.999,-4.656e-10,0.0,0.004,3
1265856000,1265852000,0.739,0.001,0.002,0.673,0.999,-4.656e-10,0.0,0.004,3
1265956000,1265952000,0.739,0.000,0.001,0.673,0.999,-4.656e-10,0.0,0.004,3
1266056000,1266052000,0.739,0.000,0.001,0.673,0.999,-4.656e-10,0.0,0.004,3
1266156000,1266152000,0.739,0.000,0.001,0.673,0.999,-4.656e-10,0.0,0.004,3
1266256000,1266252000,0.739,0.000,0.001,0.673,0.999,-4.656e-10,0.0,0.004,3
1266356000,1266352000,0.739,0.000,0.001,0.673,0.999,-4.656e-10,0.0,0.004,3
1266456000,1266452000,0.739,0.001,0.001,0.673,0.999,-4.656e-10,0.0,0.004,3
1266556000,1266552000,0.739,0.001,0.002,0.673,0.999,-4.656e-10,0.0,0.004,3
1266656000,1266652000,0.739,0.002,0.002,0.673,0.999,-4.656e-10,0.0,0.004,3
1266756000,1266752000,0.739,0.003,0.003,0.673,0.999,-4.656e-10,0.0,0.004,3
1266856000,1266852000,0.739,0.003,0.003,0.673,0.999,-4.656e-10,0.0,0.004,3
1266956000,1266952000,0.739,0.004,0.004,0.673,0.999,-4.656e-10,0.0,0.004,3
1267056000,1267052000,0.739,0.004,0.004,0.673,0.999,-4.656e-10,0.0,0.004,3
1267156000,1267152000,0.739,0.005,0.004,0.673,0.999,-4.656e-10,0.0,0.004,3
1267256000,1267252000,0.739,0.005,0.005,0.673,0.999,-4.656e-10,0.0,0.004,3
1267356000,1267352000,0.739,0.005,0.005,0.673,0.999,-4.656e-10,0.0,0.004,3
1267456000,1267452000,0.739,0.005,0.005,0.673,0.999,-4.656e-10,0.0,0.004,3
1267556000,1267552000,0.739,0.005,0.005,0.673,0.999,-4.656e-10,0.0,0.004,3
1267656000,1267652000,0.739,0.005,0.005,0.673,0.999,-4.656e-10,0.0,0.004,3
1267756000,1267752000,0.739,0.005,0.005,0.673,0.999,-4.656e-10,0.0,0.004,3
1267856000,1267852000,0.739,0.005,0.005,0.673,0.999,-4.656e-10,0.0,0.004,3
1267956000,1267952000,0.739,0.005,0.005,0.673,0.999,-4.656e-10,0.0,0.004,3
1268056000,1268052000,0.739,0.005,0.005,0.673,0.999,-4.656e-10,0.0,0.004,3
1268156000,1268152000,0.739,0.005,0.005,0.673,0.999,-4.656e-10,0.0,0.004,3
1268256000,1268252000,0.739,0.005,0.005,0.673,0.999,-4.656e-10,0.0,0.004,3
1268356000,1268352000,0.739,0.004,0.005,0.673,0.999,-4.656e-10,0.0,0.004,3
1268456000,1268452000,0.739,0.004,0.005,0.673,0.999,-4.656e-10,0.0,0.004,3
1268556000,1268552000,0.739,0.004,0.005,0.673,0.999,-4.656e-10,0.0,0.004,3
1268656000,1268652000,0.739,0.004,0.004,0.673,0.999,-4.656e-10,0.0,0.004,3
1268756000,1268752000,0.739,0.004,0.004,0.673,0.999,-4.656e-10,0.0,0.004,3
1268856000,1268852000,0.739,0.004,0.004,0.673,0.999,-4.656e-10,0.0,0.004,3
1268956000,1268952000,0.739,0.003,0.004,0.673,0.999,-4.656e-10,0.0,0.004,3
1269056000,1269052000,0.739,0.003,0.004,0.673,0.999,-4.656e-10,0.0,0.004,3
1269156000,1269152000,0.739,0.003,0.004,0.673,0.999,-4.656e-10,0.0,0.004,3
1269256000,1269252000,0.739,0.003,0.003,0.673,0.999,-4.656e-10,0.0,0.004,3
1269356000,1269352000,0.739,0.003,0.003,0.673,0.999,-4.656e-10,0.0,0.004,3
1269456000,1269452000,0.739,0.003,0.003,0.673,0.999,-4.656e-10,0.0,0.004,3
1269556000,1269552000,0.739,0.003,0.003,0.673,0.999,-4.656e-10,0.0,0.004,3
1269656000,1269652000,0.739,0.003,0.003,0.673,0.999,-4.656e-10,0.0,0.004,3
1269756000,1269752000,0.739,0.004,0.003,0.673,0.999,-4.656e-10,0.0,0.004,3
1269856000,1269852000,0.739,0.004,0.004,0.673,0.999,-4.656e-10,0.0,0.004,3
1269956000,1269952000,0.739,0.004,0.004,0.673,0.999,-4.656e-10,0.0,0.004,3
1270056000,1270052000,0.739,0.004,0.004,0.673,0.999,-4.656e-10,0.0,0.004,3
1270156000,1270152000,0.739,0.005,0.004,0.673,0.999,-4.656e-10,0.0,0.004,3
1270256000,1270252000,0.739,0.005,0.005,0.673,0.999,-4.656e-10,0.0,0.004,3
1270356000,1270352000,0.739,0.005,0.005,0.673,0.999,-4.656e-10,0.0,0.004,3
1270456000,1270452000,0.739,0.005,0.005,0.673,0.999,-4.656e-10,0.0,0.004,3
1270556000,1270552000,0.739,0.005,0.006,0.673,0.999,-4.656e-10,0.0,0.004,3
1270656000,1270652000,0.739,0.006,0.006,0.673,0.999,-4.656e-10,0.0,0.004,3
1270756000,1270752000,0.739,0.006,0.006,0.673,0.999,-4.656e-10,0.0,0.004,3
1270856000,1270852000,0.739,0.006,0.006,0.673,0.999,-4.656e-10,0.0,0.004,3
1270956000,1270952000,0.739,0.006,0.007,0.673,0.999,-4.656e-10,0.0,0.004,3
1271056000,1271052000,0.739,0.006,0.007,0.673,0.999,-4.656e-10,0.0,0.004,3
1271156000,1271152000,0.739,0.006,0.007,0.673,0.999,-4.656e-10,0.0,0.004,3
1271256000,1271252000,0.739,0.006,0.007,0.673,0.999,-4.656e-10,0.0,0.004,3
1271356000,1271352000,0.739,0.006,0.007,0.673,0.999,-4.656e-10,0.0,0.004,3
1271456000,1271452000,0.739,0.006,0.007,0.673,0.999,-4.656e-10,0.0,0.004,3
1271556000,1271552000,0.739,0.006,0.007,0.673,0.999,-4.656e-10,0.0,0.004,3
1271656000,1271652000,0.739,0.006,0.007,0.673,0.999,-4.656e-10,0.0,0.004,3
1271756000,1271752000,0.739,0.006,0.007,0.673,0.999,-4.656e-10,0.0,0.004,3
1271856000,1271852000,0.739,0.006,0.007,0.673,0.999,-4.656e-10,0.0,0.004,3
1271956000,1271952000,0.739,0.005,0.007,0.673,0.999,-4.656e-10,0.0,0.004,3
1272056000,1272052000,0.739,0.005,0.007,0.673,0.999,-4.656e-10,0.0,0.004,3
1272156000,1272152000,0.739,0.005,0.007,0.673,0.999,-4.656e-10,0.0,0.004,3
1272256000,1272252000,0.739,0.005,0.007,0.673,0.999,-4.656e-10,0.0,0.004,3
1272356000,1272352000,0.739,0.005,0.007,0.673,0.999,-4.656e-10,0.0,0.004,3
1272456000,1272452000,0.739,0.004,0.007,0.673,0.999,-4.656e-10,0.0,0.004,3
1272556000,1272552000,0.739,0.004,0.007,0.673,0.999,-4.656e-10,0.0,0.004,3
1272656000,1272652000,0.739,0.004,0.007,0.673,0.999,-4.656e-10,0.0,0.004,3
1272756000,1272752000,0.739,0.005,0.007,0.673,0.999,-4.656e-10,0.0,0.004,3
1272856000,1272852000,0.739,0.005,0.007,0.673,0.999,-4.656e-10,0.0,0.004,3
1272956000,1272952000,0.739,0.005,0.007,0.673,0.999,-4.656e-10,0.0,0.004,3
1273056000,1273052000,0.739,0.005,0.008,0.673,0.999,-4.656e-10,0.0,0.004,3
1273156000,1273152000,0.739,0.005,0.008,0.673,0.999,-4.656e-10,0.0,0.004,3
1273256000,1273252000,0.739,0.005,0.008,0.673,0.999,-4.656e-10,0.0,0.004,3
1273356000,1273352000,0.739,0.006,0.008,0.673,0.999,-4.656e-10,0.0,0.004,3
1273456000,1273452000,0.739,0.006,0.008,0.673,0.999,-4.656e-10,0.0,0.004,3
1273556000,1273552000,0.739,0.006,0.008,0.673,0.999,-4.656e-10,0.0,0.004,3
1273656000,1273652000,0.739,0.006,0.008,0.673,0.999,-4.656e-10,0.0,0.004,3
1273756000,1273752000,0.739,0.006,0.008,0.673,0.999,-4.656e-10,0.0,0.004,3
1273856000,1273852000,0.739,0.006,0.009,0.673,0.999,-4.656e-10,0.0,0.004,3
1273956000,1273952000,0.739,0.007,0.009,0.673,0.999,-4.656e-10,0.0,0.004,3
1274056000,1274052000,0.739,0.007,0.009,0.673,0.999,-4.656e-10,0.0,0.004,3
1274156000,1274152000,0.739,0.007,0.009,0.673,0.999,-4.656e-10,0.0,0.004,3
1274256000,1274252000,0.739,0.007,0.009,0.673,0.999,-4.656e-10,0.0,0.004,3
1274356000,1274352000,0.739,0.007,0.010,0.673,0.999,-4.656e-10,0.0,0.004,3
1274456000,1274452000,0.739,0.007,0.010,0.673,0.999,-4.656e-10,0.0,0.004,3
1274556000,1274552000,0.739,0.007,0.010,0.673,0.999,-4.656e-10,0.0,0.004,3
1274656000,1274652000,0.739,0.007,0.010,0.673,0.999,-4.656e-10,0.0,0.004,3
1274756000,1274752000,0.739,0.007,0.010,0.673,0.999,-4.656e-10,0.0,0.004,3
1274856000,1274852000,0.739,0.007,0.010,0.673,0.999,-4.656e-10,0.0,0.004,3
1274956000,1274952000,0.739,0.007,0.010,0.673,0.999,-4.656e-10,0.0,0.004,3
1275056000,1275052000,0.739,0.007,0.010,0.673,0.999,-4.656e-10,0.0,0.004,3
1275156000,1275152000,0.739,0.007,0.010,0.673,0.999,-4.656e-10,0.0,0.004,3
1275256000,1275252000,0.739,0.007,0.010,0.673,0.999,-4.656e-10,0.0,0.004,3
1275356000,1275352000,0.739,0.007,0.009,0.673,0.999,-4.656e-10,0.0,0.004,3
1275456000,1275452000,0.739,0.006,0.009,0.673,0.999,-4.656e-10,0.0,0.004,3
1275556000,1275552000,0.739,0.006,0.009,0.673,0.999,-4.656e-10,0.0,0.004,3
1275656000,1275652000,0.739,0.006,0.009,0.673,0.999,-4.656e-10,0.0,0.004,3
1275756000,1275752000,0.739,0.005,0.008,0.673,0.999,-4.656e-10,0.0,0.004,3
1275856000,1275852000,0.739,0.005,0.008,0.673,0.999,-4.656e-10,0.0,0.004,3
1275956000,1275952000,0.739,0.005,0.008,0.673,0.999,-4.656e-10,0.0,0.004,3
1276056000,1276052000,0.739,0.005,0.008,0.673,0.999,-4.656e-10,0.0,0.004,3
1276156000,1276152000,0.739,0.005,0.008,0.673,0.999,-4.656e-10,0.0,0.004,3
1276256000,1276252000,0.739,0.004,0.008,0.673,0.999,-4.656e-10,0.0,0.004,3
1276356000,1276352000,0.739,0.005,0.008,0.673,0.999,-4.656e-10,0.0,0.004,3
1276456000,1276452000,0.739,0.005,0.008,0.673,0.999,-4.656e-10,0.0,0.004,3
1276556000,1276552000,0.739,0.005,0.007,0.673,0.999,-4.656e-10,0.0,0.004,3
1276656000,1276652000,0.739,0.005,0.007,0.673,0.999,-4.656e-10,0.0,0.004,3
1276756000,1276752000,0.739,0.005,0.008,0.673,0.999,-4.656e-10,0.0,0.004,3
1276856000,1276852000,0.739,0.005,0.008,0.673,0.999,-4.656e-10,0.0,0.004,3
1276956000,1276952000,0.739,0.005,0.008,0.673,0.999,-4.656e-10,0.0,0.004,3
1277056000,1277052000,0.739,0.005,0.008,0.673,0.999,-4.656e-10,0.0,0.004,3
1277156000,1277152000,0.739,0.006,0.008,0.673,0.999,-4.656e-10,0.0,0.004,3
1277256000,1277252000,0.739,0.006,0.008,0.673,0.999,-4.656e-10,0.0,0.004,3
1277356000,1277352000,0.739,0.006,0.008,0.673,0.999,-4.656e-10,0.0,0.004,3
1277456000,1277452000,0.739,0.006,0.008,0.673,0.999,-4.656e-10,0.0,0.004,3
1277556000,1277552000,0.739,0.006,0.009,0.673,0.999,-4.656e-10,0.0,0.004,3
1277656000,1277652000,0.739,0.006,0.009,0.673,0.999,-4.656e-10,0.0,0.004,3
1277756000,1277752000,0.739,0.006,0.009,0.673,0.999,-4.656e-10,0.0,0.004,3
1277856000,1277852000,0.739,0.006,0.009,0.673,0.999,-4.656e-10,0.0,0.004,3
1277956000,1277952000,0.739,0.006,0.009,0.673,0.999,-4.656e-10,0.0,0.004,3
1278056000,1278052000,0.739,0.006,0.009,0.673,0.999,-4.656e-10,0.0,0.004,3
1278156000,1278152000,0.739,0.006,0.009,0.673,0.999,-4.656e-10,0.0,0.004,3
1278256000,1278252000,0.739,0.006,0.009,0.673,0.999,-4.656e-10,0.0,0.004,3
1278356000,1278352000,0.739,0.006,0.009,0.673,0.999,-4.656e-10,0.0,0.004,3
1278456000,1278452000,0.739,0.006,0.009,0.673,0.999,-4.656e-10,0.0,0.004,3
1278556000,1278552000,0.739,0.006,0.009,0.673,0.999,-4.656e-10,0.0,0.004,3
1278656000,1278652000,0.739,0.006,0.009,0.673,0.999,-4.656e-10,0.0,0.004,3
1278756000,1278752000,0.739,0.006,0.009,0.673,0.999,-4.656e-10,0.0,0.004,3
1278856000,1278852000,0.739,0.005,0.009,0.673,0.999,-4.656e-10,0.0,0.004,3
1278956000,1278952000,0.739,0.005,0.009,0.673,0.999,-4.656e-10,0.0,0.004,3
1279056000,1279052000,0.739,0.005,0.008,0.673,0.999,-4.656e-10,0.0,0.004,3
1279156000,1279152000,0.739,0.005,0.008,0.673,0.999,-4.656e-10,0.0,0.004,3
1279256000,1279252000,0.739,0.005,0.008,0.673,0.999,-4.656e-10,0.0,0.004,3
1279356000,1279352000,0.739,0.005,0.008,0.673,0.999,-4.656e-10,0.0,0.004,3
1279456000,1279452000,0.739,0.005,0.008,0.673,0.999,-4.656e-10,0.0,0.004,3
1279556000,1279552000,0.739,0.005,0.008,0.673,0.999,-4.656e-10,0.0,0.004,3
1279656000,1279652000,0.739,0.006,0.008,0.673,0.999,-4.656e-10,0.0,0.004,3
1279756000,1279752000,0.739,0.006,0.008,0.673,0.999,-4.656e-10,0.0,0.004,3
1279856000,1279852000,0.739,0.006,0.008,0.673,0.999,-4.656e-10,0.0,0.004,3
1279956000,1279952000,0.739,0.006,0.009,0.673,0.999,-4.656e-10,0.0,0.004,3
1280056000,1280052000,0.739,0.006,0.009,0.673,0.999,-4.656e-10,0.0,0.004,3
1280156000,1280152000,0.739,0.006,0.009,0.673,0.999,-4.656e-10,0.0,0.004,3
1280256000,1280252000,0.739,0.006,0.009,0.673,0.999,-4.656e-10,0.0,0.004,3
1280356000,1280352000,0.739,0.006,0.009,0.673,0.999,-4.656e-10,0.0,0.004,3
1280456000,1280452000,0.739,0.006,0.008,0.673,0.999,-4.656e-10,0.0,0.004,3
1280556000,1280552000,0.739,0.006,0.008,0.673,0.999,-4.656e-10,0.0,0.004,3
1280656000,1280652000,0.739,0.006,0.008,0.673,0.999,-4.656e-10,0.0,0.004,3
1280756000,1280752000,0.739,0.006,0.008,0.673,0.999,-4.656e-10,0.0,0.004,3
1280856000,1280852000,0.739,0.006,0.008,0.673,0.999,-4.656e-10,0.0,0.004,3
1280956000,1280952000,0.739,0.006,0.008,0.673,0.999,-4.656e-10,0.0,0.004,3
1281056000,1281052000,0.739,0.006,0.008,0.673,0.999,-4.656e-10,0.0,0.004,3
1281156000,1281152000,0.739,0.006,0.008,0.673,0.999,-4.656e-10,0.0,0.004,3
1281256000,1281252000,0.739,0.006,0.008,0.673,0.999,-4.656e-10,0.0,0.004,3
1281356000,1281352000,0.739,0.006,0.008,0.673,0.999,-4.656e-10,0.0,0.004,3
1281456000,1281452000,0.739,0.006,0.008,0.673,0.999,-4.656e-10,0.0,0.004,3
1281556000,1281552000,0.739,0.006,0.008,0.673,0.999,-4.656e-10,0.0,0.004,3
1281656000,1281652000,0.739,0.006,0.008,0.673,0.999,-4.656e-10,0.0,0.004,3
1281756000,1281752000,0.739,0.006,0.008,0.673,0.999,-4.656e-10,0.0,0.004,3
1281856000,1281852000,0.739,0.006,0.008,0.673,0.999,-4.656e-10,0.0,0.004,3
1281956000,1281952000,0.739,0.006,0.008,0.673,0.999,-4.656e-10,0.0,0.004,3
1282056000,1282052000,0.739,0.006,0.008,0.673,0.999,-4.656e-10,0.0,0.004,3
1282156000,1282152000,0.739,0.006,0.008,0.673,0.999,-4.656e-10,0.0,0.004,3
1282256000,1282252000,0.739,0.006,0.008,0.673,0.999,-4.656e-10,0.0,0.004,3
1282356000,1282352000,0.739,0.006,0.008,0.673,0.999,-4.656e-10,0.0,0.004,3
1282456000,1282452000,0.739,0.005,0.008,0.673,0.999,-4.656e-10,0.0,0.004,3
1282556000,1282552000,0.739,0.005,0.008,0.673,0.999,-4.656e-10,0.0,0.004,3
1282656000,1282652000,0.739,0.005,0.008,0.673,0.999,-4.656e-10,0.0,0.004,3
1282756000,1282752000,0.739,0.005,0.008,0.673,0.999,-4.656e-10,0.0,0.004,3
1282856000,1282852000,0.739,0.005,0.008,0.673,0.999,-4.656e-10,0.0,0.004,3
1282956000,1282952000,0.739,0.005,0.008,0.673,0.999,-4.656e-10,0.0,0.004,3
1283056000,1283052000,0.739,0.005,0.008,0.673,0.999,-4.656e-10,0.0,0.004,3
1283156000,1283152000,0.739,0.004,0.008,0.673,0.999,-4.656e-10,0.0,0.004,3
1283256000,1283252000,0.739,0.004,0.008,0.673,0.999,-4.656e-10,0.0,0.004,3
1283356000,1283352000,0.739,0.004,0.008,0.673,0.999,-4.656e-10,0.0,0.004,3
1283456000,1283452000,0.739,0.004,0.008,0.673,0.999,-4.656e-10,0.0,0.004,3
1283556000,1283552000,0.739,0.004,0.008,0.673,0.999,-4.656e-10,0.0,0.004,3
1283656000,1283652000,0.739,0.005,0.008,0.673,0.999,-4.656e-10,0.0,0.004,3
1283756000,1283752000,0.739,0.005,0.009,0.673,0.999,-4.656e-10,0.0,0.004,3
1283856000,1283852000,0.739,0.005,0.009,0.673,0.999,-4.656e-10,0.0,0.004,3
1283956000,1283952000,0.739,0.005,0.009,0.673,0.999,-4.656e-10,0.0,0.004,3
1284056000,1284052000,0.739,0.005,0.009,0.673,0.999,-4.656e-10,0.0,0.004,3
