timestamp,timestamp_sample,q[0],q[1],q[2],q[3],delta_q_reset[0],delta_q_reset[1],delta_q_reset[2],delta_q_reset[3],quat_reset_counter
126976000,126976000,0.672,0.003,-0.000,0.740,0.669,1.455e-12,-1.807e-10,0.743,1
127076000,127072000,0.672,0.003,-0.000,0.740,0.669,1.455e-12,-1.807e-10,0.743,1
127176000,127176000,0.672,0.003,-0.000,0.740,0.669,1.455e-12,-1.807e-10,0.743,1
127276000,127276000,0.672,0.003,-0.000,0.740,0.669,1.455e-12,-1.807e-10,0.743,1
127376000,127376000,0.672,0.003,-0.000,0.739,0.669,1.455e-12,-1.807e-10,0.743,1
127476000,127476000,0.672,0.003,-0.000,0.740,0.669,1.455e-12,-1.807e-10,0.743,1
127576000,127576000,0.672,0.003,-0.000,0.740,0.669,1.455e-12,-1.807e-10,0.743,1
127676000,127676000,0.672,0.003,-0.000,0.740,0.669,1.455e-12,-1.807e-10,0.743,1
127776000,127776000,0.672,0.003,-0.000,0.740,0.669,1.455e-12,-1.807e-10,0.743,1
127876000,127876000,0.672,0.003,-0.000,0.740,0.669,1.455e-12,-1.807e-10,0.743,1
127976000,127976000,0.672,0.003,-0.000,0.740,0.669,1.455e-12,-1.807e-10,0.743,1
128076000,128076000,0.672,0.003,-0.000,0.740,0.669,1.455e-12,-1.807e-10,0.743,1
128176000,128176000,0.672,0.003,-0.000,0.740,0.669,1.455e-12,-1.807e-10,0.743,1
128276000,128276000,0.672,0.003,-0.000,0.740,0.669,1.455e-12,-1.807e-10,0.743,1
128376000,128376000,0.672,0.003,-0.000,0.739,0.669,1.455e-12,-1.807e-10,0.743,1
128476000,128476000,0.672,0.003,-0.000,0.739,0.669,1.455e-12,-1.807e-10,0.743,1
128576000,128576000,0.672,0.003,-0.000,0.739,0.669,1.455e-12,-1.807e-10,0.743,1
128676000,128676000,0.673,0.003,-0.000,0.739,0.669,1.455e-12,-1.807e-10,0.743,1
128776000,128776000,0.673,0.003,-0.000,0.739,0.669,1.455e-12,-1.807e-10,0.743,1
128876000,128876000,0.673,0.003,-0.000,0.739,0.669,1.455e-12,-1.807e-10,0.743,1
128976000,128976000,0.673,0.003,-0.000,0.739,0.669,1.455e-12,-1.807e-10,0.743,1
129076000,129076000,0.673,0.003,-0.000,0.739,0.669,1.455e-12,-1.807e-10,0.743,1
129176000,129176000,0.673,0.003,-0.000,0.739,0.669,1.455e-12,-1.807e-10,0.743,1
129276000,129276000,0.673,0.003,-0.000,0.739,0.669,1.455e-12,-1.807e-10,0.743,1
129376000,129376000,0.673,0.003,-0.000,0.739,0.669,1.455e-12,-1.807e-10,0.743,1
129476000,129476000,0.673,0.003,-0.000,0.739,0.669,1.455e-12,-1.807e-10,0.743,1
129576000,129576000,0.673,0.003,-0.000,0.739,0.669,1.455e-12,-1.807e-10,0.743,1
129676000,129672000,0.673,0.003,-0.000,0.739,0.669,1.455e-12,-1.807e-10,0.743,1
129776000,129776000,0.673,0.003,-0.000,0.739,0.669,1.455e-12,-1.807e-10,0.743,1
129876000,129876000,0.673,0.003,-0.000,0.739,0.669,1.455e-12,-1.807e-10,0.743,1
129976000,129976000,0.673,0.003,-0.000,0.739,0.669,1.455e-12,-1.807e-10,0.743,1
130076000,130076000,0.673,0.003,-0.000,0.739,0.669,1.455e-12,-1.807e-10,0.743,1
130176000,130176000,0.673,0.003,-0.000,0.739,0.669,1.455e-12,-1.807e-10,0.743,1
130276000,130276000,0.673,0.003,-0.000,0.739,0.669,1.455e-12,-1.807e-10,0.743,1
130376000,130376000,0.673,0.003,-0.000,0.739,0.669,1.455e-12,-1.807e-10,0.743,1
130476000,130476000,0.673,0.003,-0.000,0.739,0.669,1.455e-12,-1.807e-10,0.743,1
130576000,130576000,0.673,0.003,-0.000,0.739,0.669,1.455e-12,-1.807e-10,0.743,1
130676000,130676000,0.673,0.004,-0.000,0.739,0.669,1.455e-12,-1.807e-10,0.743,1
130776000,130776000,0.673,0.004,-0.000,0.739,0.669,1.455e-12,-1.807e-10,0.743,1
130876000,130876000,0.673,0.004,-0.000,0.739,0.669,1.455e-12,-1.807e-10,0.743,1
130976000,130976000,0.673,0.004,-0.000,0.739,0.669,1.455e-12,-1.807e-10,0.743,1
131076000,131076000,0.673,0.004,-0.000,0.739,0.669,1.455e-12,-1.807e-10,0.743,1
131176000,131176000,0.673,0.004,-0.000,0.739,0.669,1.455e-12,-1.807e-10,0.743,1
131276000,131276000,0.673,0.004,-0.000,0.739,0.669,1.455e-12,-1.807e-10,0.743,1
131376000,131376000,0.673,0.003,-0.000,0.739,0.669,1.455e-12,-1.807e-10,0.743,1
131476000,131476000,0.673,0.002,0.000,0.739,0.669,1.455e-12,-1.807e-10,0.743,1
131576000,131576000,0.672,0.001,0.001,0.739,0.669,1.455e-12,-1.807e-10,0.743,1
131676000,131676000,0.672,0.001,0.001,0.739,0.669,1.455e-12,-1.807e-10,0.743,1
131776000,131776000,0.672,0.001,0.001,0.739,0.669,1.455e-12,-1.807e-10,0.743,1
131876000,131876000,0.672,0.000,0.000,0.739,0.669,1.455e-12,-1.807e-10,0.743,1
131976000,131976000,0.672,0.000,0.000,0.740,0.669,1.455e-12,-1.807e-10,0.743,1
132076000,132076000,0.672,0.000,0.000,0.740,0.669,1.455e-12,-1.807e-10,0.743,1
132176000,132176000,0.672,0.000,0.000,0.740,0.669,1.455e-12,-1.807e-10,0.743,1
132276000,132276000,0.672,0.000,0.000,0.740,0.669,1.455e-12,-1.807e-10,0.743,1
132376000,132376000,0.672,0.000,0.000,0.740,0.669,1.455e-12,-1.807e-10,0.743,1
132476000,132476000,0.672,0.000,0.000,0.740,0.669,1.455e-12,-1.807e-10,0.743,1
132576000,132576000,0.672,0.000,0.000,0.740,0.669,1.455e-12,-1.807e-10,0.743,1
132676000,132676000,0.672,2.895e-05,0.000,0.740,0.669,1.455e-12,-1.807e-10,0.743,1
132776000,132776000,0.672,-6.126e-05,3.047e-05,0.740,0.669,1.455e-12,-1.807e-10,0.743,1
132876000,132876000,0.672,-0.000,-5.154e-05,0.740,0.669,1.455e-12,-1.807e-10,0.743,1
132976000,132976000,0.672,-0.000,-0.000,0.739,0.669,1.455e-12,-1.807e-10,0.743,1
133076000,133076000,0.672,-0.000,-0.000,0.739,0.669,1.455e-12,-1.807e-10,0.743,1
133176000,133176000,0.672,-0.000,-0.000,0.739,0.669,1.455e-12,-1.807e-10,0.743,1
133276000,133276000,0.673,-0.000,-0.000,0.739,0.669,1.455e-12,-1.807e-10,0.743,1
133376000,133376000,0.673,-0.000,-0.000,0.739,0.669,1.455e-12,-1.807e-10,0.743,1
133476000,133476000,0.673,-0.000,-0.000,0.739,0.669,1.455e-12,-1.807e-10,0.743,1
133576000,133576000,0.673,-9.151e-05,-0.000,0.739,0.669,1.455e-12,-1.807e-10,0.743,1
133676000,133676000,0.673,-4.852e-05,-6.998e-05,0.739,0.669,1.455e-12,-1.807e-10,0.743,1
133776000,133776000,0.673,-1.280e-06,-4.047e-05,0.739,0.669,1.455e-12,-1.807e-10,0.743,1
133876000,133876000,0.673,2.419e-05,-4.400e-06,0.739,0.669,1.455e-12,-1.807e-10,0.743,1
133976000,133976000,0.673,3.694e-05,3.561e-05,0.739,1.0,-1.818e-12,1.818e-12,-1.761e-05,2
134076000,134076000,0.673,4.668e-05,6.976e-05,0.739,1.0,-1.818e-12,1.818e-12,-1.761e-05,2
134176000,134176000,0.672,5.680e-05,9.067e-05,0.739,1.0,-1.818e-12,1.818e-12,-1.761e-05,2
134276000,134276000,0.672,6.044e-05,9.486e-05,0.739,1.0,-1.818e-12,1.818e-12,-1.761e-05,2
134376000,134376000,0.672,7.421e-05,9.502e-05,0.739,1.0,-1.818e-12,1.818e-12,-1.761e-05,2
134476000,134476000,0.672,9.668e-05,0.000,0.739,1.0,-1.818e-12,1.818e-12,-1.761e-05,2
134576000,134576000,0.672,0.000,0.000,0.739,1.0,-1.818e-12,1.818e-12,-1.761e-05,2
134676000,134676000,0.672,0.000,0.000,0.739,1.0,-1.818e-12,1.818e-12,-1.761e-05,2
134776000,134776000,0.673,0.000,0.000,0.739,1.0,-1.818e-12,1.818e-12,-1.761e-05,2
134876000,134876000,0.673,0.000,0.000,0.739,1.0,-1.818e-12,1.818e-12,-1.761e-05,2
134976000,134976000,0.673,0.000,0.000,0.739,1.0,-1.818e-12,1.818e-12,-1.761e-05,2
135076000,135076000,0.673,0.000,0.000,0.739,1.0,-1.818e-12,1.818e-12,-1.761e-05,2
135176000,135176000,0.673,7.525e-05,0.000,0.739,1.0,-1.818e-12,1.818e-12,-1.761e-05,2
135276000,135276000,0.672,5.325e-05,7.244e-05,0.739,1.0,-1.818e-12,1.818e-12,-1.761e-05,2
135376000,135376000,0.672,2.547e-05,3.816e-05,0.740,1.0,-1.818e-12,1.818e-12,-1.761e-05,2
135476000,135476000,0.672,-9.957e-06,1.485e-05,0.739,1.0,-1.818e-12,1.818e-12,-1.761e-05,2
135576000,135576000,0.672,-4.190e-05,2.119e-06,0.739,1.0,-1.818e-12,1.818e-12,-1.761e-05,2
135676000,135676000,0.672,-7.153e-05,-1.687e-05,0.739,1.0,-1.818e-12,1.818e-12,-1.761e-05,2
135776000,135776000,0.672,-8.218e-05,-3.912e-05,0.739,1.0,-1.818e-12,1.818e-12,-1.761e-05,2
135876000,135876000,0.672,-8.577e-05,-6.693e-05,0.740,1.0,-1.818e-12,1.818e-12,-1.761e-05,2
135976000,135976000,0.672,-7.852e-05,-8.376e-05,0.740,1.0,-1.818e-12,1.818e-12,-1.761e-05,2
136076000,136076000,0.671,-6.406e-05,-0.000,0.740,1.0,-1.818e-12,1.818e-12,-1.761e-05,2
136176000,136176000,0.671,-5.246e-05,-0.000,0.740,1.0,-1.818e-12,1.818e-12,-1.761e-05,2
136276000,136276000,0.671,-5.816e-05,-0.000,0.740,1.0,-1.818e-12,1.818e-12,-1.761e-05,2
136376000,136376000,0.671,-5.295e-05,-9.324e-05,0.740,1.0,-1.818e-12,1.818e-12,-1.761e-05,2
136476000,136476000,0.672,-4.920e-05,-6.768e-05,0.740,1.0,-1.818e-12,1.818e-12,-1.761e-05,2
136576000,136576000,0.672,-3.602e-05,-4.623e-05,0.739,1.0,-1.818e-12,1.818e-12,-1.761e-05,2
136676000,136676000,0.673,-3.171e-05,-2.088e-05,0.739,1.0,-1.818e-12,1.818e-12,-1.761e-05,2
136776000,136776000,0.674,-1.359e-05,2.445e-05,0.738,1.0,-1.818e-12,1.818e-12,-1.761e-05,2
136876000,136876000,0.674,1.743e-05,6.046e-05,0.738,1.0,-1.818e-12,1.818e-12,-1.761e-05,2
136976000,136976000,0.674,5.263e-05,0.000,0.737,1.0,-1.818e-12,1.818e-12,-1.761e-05,2
137076000,137076000,0.675,9.269e-05,0.000,0.737,1.0,-1.818e-12,1.818e-12,-1.761e-05,2
137176000,137176000,0.675,0.000,0.000,0.737,1.0,-1.818e-12,1.818e-12,-1.761e-05,2
137276000,137276000,0.675,0.000,0.000,0.737,1.0,-1.818e-12,1.818e-12,-1.761e-05,2
137376000,137376000,0.675,0.000,0.000,0.737,1.0,-1.818e-12,1.818e-12,-1.761e-05,2
137476000,137476000,0.675,0.000,0.000,0.737,1.0,-1.818e-12,1.818e-12,-1.761e-05,2
137576000,137576000,0.675,0.000,0.000,0.737,1.0,-1.818e-12,1.818e-12,-1.761e-05,2
137676000,137676000,0.674,0.000,0.000,0.738,1.0,-1.818e-12,1.818e-12,-1.761e-05,2
137776000,137776000,0.674,0.000,0.000,0.738,1.0,-1.818e-12,1.818e-12,-1.761e-05,2
137876000,137876000,0.673,0.000,0.000,0.738,1.0,-1.818e-12,1.818e-12,-1.761e-05,2
137976000,137976000,0.673,0.000,0.000,0.739,1.0,-1.818e-12,1.818e-12,-1.761e-05,2
138076000,138076000,0.673,0.000,0.000,0.739,1.0,-1.818e-12,1.818e-12,-1.761e-05,2
138176000,138176000,0.672,0.000,0.000,0.739,1.0,-1.818e-12,1.818e-12,-1.761e-05,2
138276000,138276000,0.672,0.000,0.000,0.739,1.0,-1.818e-12,1.818e-12,-1.761e-05,2
138376000,138376000,0.672,0.000,8.692e-05,0.740,1.0,-1.818e-12,1.818e-12,-1.761e-05,2
138476000,138476000,0.672,6.303e-05,4.809e-05,0.740,1.0,-1.818e-12,1.818e-12,-1.761e-05,2
138576000,138576000,0.672,3.978e-05,1.617e-05,0.740,1.0,-1.818e-12,1.818e-12,-1.761e-05,2
138676000,138676000,0.671,3.592e-05,6.334e-06,0.740,1.0,-1.818e-12,1.818e-12,-1.761e-05,2
138776000,138776000,0.671,4.934e-05,1.010e-05,0.740,1.0,-1.818e-12,1.818e-12,-1.761e-05,2
138876000,138876000,0.671,6.948e-05,1.938e-05,0.740,1.0,-1.818e-12,1.818e-12,-1.761e-05,2
138976000,138972000,0.672,8.650e-05,4.206e-05,0.740,1.0,-1.818e-12,1.818e-12,-1.761e-05,2
139076000,139072000,0.672,9.985e-05,6.379e-05,0.740,1.0,-1.818e-12,1.818e-12,-1.761e-05,2
139176000,139172000,0.672,0.000,7.399e-05,0.740,1.0,-1.818e-12,1.818e-12,-1.761e-05,2
139276000,139272000,0.672,0.000,6.154e-05,0.740,1.0,-1.818e-12,1.818e-12,-1.761e-05,2
139376000,139372000,0.672,9.660e-05,4.334e-05,0.740,1.0,-1.818e-12,1.818e-12,-1.761e-05,2
139476000,139472000,0.672,8.225e-05,3.065e-05,0.740,1.0,-1.818e-12,1.818e-12,-1.761e-05,2
139576000,139572000,0.672,6.679e-05,1.208e-05,0.740,1.0,-1.818e-12,1.818e-12,-1.761e-05,2
139676000,139672000,0.672,4.823e-05,-6.295e-06,0.740,1.0,-1.818e-12,1.818e-12,-1.761e-05,2
139776000,139772000,0.672,2.152e-05,-2.532e-05,0.740,1.0,-1.818e-12,1.818e-12,-1.761e-05,2
139876000,139872000,0.672,-1.194e-05,-5.169e-05,0.740,1.0,-1.818e-12,1.818e-12,-1.761e-05,2
139976000,139972000,0.672,-6.217e-05,-8.448e-05,0.740,1.0,-1.818e-12,1.818e-12,-1.761e-05,2
140076000,140072000,0.672,-0.000,-0.000,0.740,1.0,-1.818e-12,1.818e-12,-1.761e-05,2
140176000,140172000,0.672,-0.000,-0.000,0.740,1.0,-1.818e-12,1.818e-12,-1.761e-05,2
140276000,140272000,0.672,-0.000,-0.000,0.740,1.0,-1.818e-12,1.818e-12,-1.761e-05,2
140376000,140372000,0.672,-0.000,-0.000,0.740,1.0,-1.818e-12,1.818e-12,-1.761e-05,2
140476000,140472000,0.672,-0.000,-0.000,0.740,1.0,-1.818e-12,1.818e-12,-1.761e-05,2
140576000,140572000,0.672,-0.000,-0.000,0.740,1.0,-1.818e-12,1.818e-12,-1.761e-05,2
140676000,140672000,0.672,-0.000,-0.000,0.740,1.0,-1.818e-12,1.818e-12,-1.761e-05,2
140776000,140772000,0.672,-0.000,-0.000,0.740,1.0,-1.818e-12,1.818e-12,-1.761e-05,2
140876000,140872000,0.672,-0.000,-0.000,0.740,1.0,-1.818e-12,1.818e-12,-1.761e-05,2
140976000,140972000,0.672,-0.000,-0.000,0.740,1.0,-1.818e-12,1.818e-12,-1.761e-05,2
141076000,141072000,0.672,-0.000,-0.000,0.740,1.0,-1.818e-12,1.818e-12,-1.761e-05,2
141176000,141172000,0.672,-0.000,-0.000,0.740,1.0,-1.818e-12,1.818e-12,-1.761e-05,2
141276000,141272000,0.672,-0.000,-0.000,0.740,1.0,-1.818e-12,1.818e-12,-1.761e-05,2
141376000,141372000,0.672,-0.000,-0.000,0.740,1.0,-1.818e-12,1.818e-12,-1.761e-05,2
141476000,141472000,0.672,-0.000,-0.000,0.740,1.0,-1.818e-12,1.818e-12,-1.761e-05,2
141576000,141572000,0.672,-8.983e-05,-0.000,0.740,1.0,-1.818e-12,1.818e-12,-1.761e-05,2
141676000,141672000,0.672,0.000,0.000,0.740,1.0,-1.818e-12,1.818e-12,-1.761e-05,2
141776000,141772000,0.672,0.001,0.002,0.740,1.0,-1.818e-12,1.818e-12,-1.761e-05,2
141876000,141872000,0.672,0.004,0.004,0.740,1.0,-1.818e-12,1.818e-12,-1.761e-05,2
141976000,141972000,0.672,0.007,0.008,0.740,1.0,-1.818e-12,1.818e-12,-1.761e-05,2
142076000,142072000,0.672,0.011,0.012,0.740,1.0,-1.818e-12,1.818e-12,-1.761e-05,2
142176000,142172000,0.672,0.016,0.017,0.739,1.0,-1.818e-12,1.818e-12,-1.761e-05,2
142276000,142272000,0.672,0.020,0.022,0.739,1.0,-1.818e-12,1.818e-12,-1.761e-05,2
142376000,142372000,0.672,0.025,0.027,0.739,1.0,-1.818e-12,1.818e-12,-1.761e-05,2
142476000,142472000,0.672,0.029,0.032,0.738,1.0,-1.818e-12,1.818e-12,-1.761e-05,2
142576000,142572000,0.673,0.033,0.036,0.737,1.0,-1.818e-12,1.818e-12,-1.761e-05,2
142676000,142672000,0.674,0.037,0.040,0.735,1.0,-1.818e-12,1.818e-12,-1.761e-05,2
142780000,142772000,0.676,0.040,0.044,0.733,1.0,-1.818e-12,1.818e-12,-1.761e-05,2
142880000,142876000,0.678,0.043,0.047,0.731,1.0,-1.818e-12,1.818e-12,-1.761e-05,2
142980000,142976000,0.681,0.046,0.050,0.728,1.0,-1.818e-12,1.818e-12,-1.761e-05,2
143080000,143076000,0.685,0.048,0.052,0.724,1.0,-1.818e-12,1.818e-12,-1.761e-05,2
143180000,143176000,0.690,0.050,0.053,0.719,1.0,-1.818e-12,1.818e-12,-1.761e-05,2
143280000,143276000,0.695,0.052,0.054,0.714,1.0,-1.818e-12,1.818e-12,-1.761e-05,2
143380000,143376000,0.700,0.053,0.054,0.709,1.0,-1.818e-12,1.818e-12,-1.761e-05,2
143480000,143476000,0.703,0.054,0.054,0.705,1.0,-1.818e-12,1.818e-12,-1.761e-05,2
143580000,143576000,0.707,0.054,0.054,0.702,1.0,-1.818e-12,1.818e-12,-1.761e-05,2
143680000,143676000,0.709,0.052,0.052,0.700,1.0,-1.818e-12,1.818e-12,-1.761e-05,2
143784000,143776000,0.712,0.049,0.048,0.698,1.0,-1.818e-12,1.818e-12,-1.761e-05,2
143884000,143880000,0.713,0.045,0.044,0.697,1.0,-1.818e-12,1.818e-12,-1.761e-05,2
143984000,143980000,0.714,0.040,0.039,0.697,1.0,-1.818e-12,1.818e-12,-1.761e-05,2
144084000,144080000,0.715,0.034,0.034,0.697,1.0,-1.818e-12,1.818e-12,-1.761e-05,2
144184000,144180000,0.715,0.029,0.028,0.697,1.0,-1.818e-12,1.818e-12,-1.761e-05,2
144284000,144280000,0.716,0.023,0.022,0.697,1.0,-1.818e-12,1.818e-12,-1.761e-05,2
144384000,144380000,0.716,0.017,0.017,0.697,1.0,-1.818e-12,1.818e-12,-1.761e-05,2
144484000,144480000,0.716,0.012,0.012,0.697,1.0,-1.818e-12,1.818e-12,-1.761e-05,2
144584000,144580000,0.716,0.007,0.007,0.697,1.0,-1.818e-12,1.818e-12,-1.761e-05,2
144688000,144680000,0.716,0.002,0.002,0.697,1.0,-1.818e-12,1.818e-12,-1.761e-05,2
144788000,144784000,0.715,-0.001,-0.001,0.698,1.0,-1.818e-12,1.818e-12,-1.761e-05,2
144888000,144884000,0.714,-0.004,-0.004,0.699,1.0,-1.818e-12,1.818e-12,-1.761e-05,2
144988000,144980000,0.713,-0.007,-0.007,0.700,1.0,-1.818e-12,1.818e-12,-1.761e-05,2
145088000,145084000,0.712,-0.009,-0.009,0.701,1.0,-1.818e-12,1.818e-12,-1.761e-05,2
145188000,145184000,0.711,-0.011,-0.010,0.702,1.0,-1.818e-12,1.818e-12,-1.761e-05,2
145288000,145284000,0.710,-0.012,-0.012,0.703,1.0,-1.818e-12,1.818e-12,-1.761e-05,2
145388000,145384000,0.710,-0.012,-0.012,0.703,1.0,-1.818e-12,1.818e-12,-1.761e-05,2
145488000,145484000,0.709,-0.012,-0.012,0.704,1.0,-1.818e-12,1.818e-12,-1.761e-05,2
145588000,145584000,0.709,-0.009,-0.010,0.704,1.0,-1.818e-12,1.818e-12,-1.761e-05,2
145688000,145684000,0.709,-0.004,-0.005,0.704,1.0,-1.818e-12,1.818e-12,-1.761e-05,2
145788000,145784000,0.709,0.002,0.001,0.704,1.0,-1.818e-12,1.818e-12,-1.761e-05,2
145888000,145884000,0.709,0.011,0.009,0.704,1.0,-1.818e-12,1.818e-12,-1.761e-05,2
145988000,145984000,0.709,0.021,0.019,0.704,1.0,-1.818e-12,1.818e-12,-1.761e-05,2
146088000,146084000,0.709,0.031,0.029,0.703,1.0,-1.818e-12,1.818e-12,-1.761e-05,2
146188000,146184000,0.709,0.042,0.040,0.702,1.0,-1.818e-12,1.818e-12,-1.761e-05,2
146288000,146284000,0.709,0.052,0.050,0.700,1.0,-1.818e-12,1.818e-12,-1.761e-05,2
146388000,146384000,0.709,0.062,0.061,0.699,1.0,-1.818e-12,1.818e-12,-1.761e-05,2
146488000,146484000,0.709,0.071,0.070,0.697,1.0,-1.818e-12,1.818e-12,-1.761e-05,2
146588000,146584000,0.709,0.080,0.079,0.695,1.0,-1.818e-12,1.818e-12,-1.761e-05,2
146688000,146684000,0.709,0.088,0.086,0.693,1.0,-1.818e-12,1.818e-12,-1.761e-05,2
146788000,146784000,0.709,0.094,0.093,0.691,1.0,-1.818e-12,1.818e-12,-1.761e-05,2
146888000,146884000,0.710,0.100,0.098,0.689,1.0,-1.818e-12,1.818e-12,-1.761e-05,2
146988000,146984000,0.710,0.104,0.102,0.688,1.0,-1.818e-12,1.818e-12,-1.761e-05,2
147088000,147084000,0.710,0.107,0.105,0.687,1.0,-1.818e-12,1.818e-12,-1.761e-05,2
147188000,147184000,0.710,0.110,0.108,0.686,1.0,-1.818e-12,1.818e-12,-1.761e-05,2
147288000,147284000,0.711,0.111,0.109,0.685,1.0,-1.818e-12,1.818e-12,-1.761e-05,2
147388000,147384000,0.712,0.112,0.109,0.684,1.0,-1.818e-12,1.818e-12,-1.761e-05,2
147488000,147484000,0.713,0.111,0.107,0.683,1.0,-1.818e-12,1.818e-12,-1.761e-05,2
147588000,147584000,0.714,0.107,0.103,0.683,1.0,-1.818e-12,1.818e-12,-1.761e-05,2
147688000,147684000,0.716,0.100,0.096,0.683,1.0,-1.818e-12,1.818e-12,-1.761e-05,2
147788000,147784000,0.718,0.091,0.087,0.683,1.0,-1.818e-12,1.818e-12,-1.761e-05,2
147888000,147884000,0.720,0.081,0.077,0.684,1.0,-1.818e-12,1.818e-12,-1.761e-05,2
147988000,147984000,0.721,0.069,0.066,0.685,1.0,-1.818e-12,1.818e-12,-1.761e-05,2
148088000,148084000,0.722,0.057,0.055,0.686,1.0,-1.818e-12,1.818e-12,-1.761e-05,2
148188000,148184000,0.722,0.045,0.044,0.688,1.0,-1.818e-12,1.818e-12,-1.761e-05,2
148288000,148284000,0.722,0.034,0.033,0.689,1.0,-1.818e-12,1.818e-12,-1.761e-05,2
148388000,148384000,0.722,0.023,0.022,0.690,1.0,-1.818e-12,1.818e-12,-1.761e-05,2
148488000,148484000,0.721,0.013,0.012,0.692,1.0,-1.818e-12,1.818e-12,-1.761e-05,2
148588000,148584000,0.721,0.004,0.004,0.692,1.0,-1.818e-12,1.818e-12,-1.761e-05,2
148688000,148684000,0.720,-0.003,-0.003,0.693,1.0,-1.818e-12,1.818e-12,-1.761e-05,2
148788000,148784000,0.720,-0.010,-0.010,0.693,1.0,-1.818e-12,1.818e-12,-1.761e-05,2
148888000,148884000,0.719,-0.015,-0.015,0.693,1.0,-1.818e-12,1.818e-12,-1.761e-05,2
148988000,148984000,0.719,-0.020,-0.019,0.693,1.0,-1.818e-12,1.818e-12,-1.761e-05,2
149088000,149084000,0.719,-0.023,-0.022,0.693,1.0,-1.818e-12,1.818e-12,-1.761e-05,2
149188000,149184000,0.719,-0.025,-0.024,0.693,1.0,-1.818e-12,1.818e-12,-1.761e-05,2
149288000,149284000,0.719,-0.026,-0.025,0.693,1.0,-1.818e-12,1.818e-12,-1.761e-05,2
149388000,149384000,0.719,-0.025,-0.025,0.694,1.0,-1.818e-12,1.818e-12,-1.761e-05,2
149488000,149484000,0.719,-0.021,-0.022,0.693,1.0,-1.818e-12,1.818e-12,-1.761e-05,2
149588000,149584000,0.720,-0.012,-0.014,0.693,1.0,-1.818e-12,1.818e-12,-1.761e-05,2
149688000,149684000,0.720,-0.001,-0.004,0.693,1.0,-1.818e-12,1.818e-12,-1.761e-05,2
149788000,149784000,0.721,0.011,0.009,0.692,1.0,-1.818e-12,1.818e-12,-1.761e-05,2
149888000,149884000,0.721,0.027,0.024,0.691,1.0,-1.818e-12,1.818e-12,-1.761e-05,2
149988000,149984000,0.720,0.043,0.039,0.690,1.0,-1.818e-12,1.818e-12,-1.761e-05,2
150088000,150084000,0.719,0.059,0.055,0.689,1.0,-1.818e-12,1.818e-12,-1.761e-05,2
150188000,150184000,0.718,0.076,0.071,0.687,1.0,-1.818e-12,1.818e-12,-1.761e-05,2
150288000,150284000,0.716,0.091,0.086,0.686,1.0,-1.818e-12,1.818e-12,-1.761e-05,2
150388000,150384000,0.714,0.106,0.100,0.683,1.0,-1.818e-12,1.818e-12,-1.761e-05,2
150488000,150484000,0.712,0.119,0.113,0.681,1.0,-1.818e-12,1.818e-12,-1.761e-05,2
150588000,150584000,0.711,0.131,0.124,0.678,1.0,-1.818e-12,1.818e-12,-1.761e-05,2
150688000,150684000,0.710,0.141,0.134,0.676,1.0,-1.818e-12,1.818e-12,-1.761e-05,2
150788000,150784000,0.709,0.149,0.142,0.673,1.0,-1.818e-12,1.818e-12,-1.761e-05,2
150888000,150884000,0.709,0.155,0.148,0.671,1.0,-1.818e-12,1.818e-12,-1.761e-05,2
150988000,150984000,0.708,0.160,0.153,0.669,1.0,-1.818e-12,1.818e-12,-1.761e-05,2
151088000,151084000,0.708,0.163,0.156,0.668,1.0,-1.818e-12,1.818e-12,-1.761e-05,2
151188000,151184000,0.708,0.165,0.157,0.667,1.0,-1.818e-12,1.818e-12,-1.761e-05,2
151288000,151284000,0.709,0.165,0.157,0.667,1.0,-1.818e-12,1.818e-12,-1.761e-05,2
151388000,151384000,0.710,0.162,0.153,0.667,1.0,-1.818e-12,1.818e-12,-1.761e-05,2
151488000,151484000,0.711,0.154,0.145,0.669,1.0,-1.818e-12,1.818e-12,-1.761e-05,2
151588000,151584000,0.714,0.142,0.134,0.672,1.0,-1.818e-12,1.818e-12,-1.761e-05,2
151688000,151684000,0.716,0.128,0.120,0.674,1.0,-1.818e-12,1.818e-12,-1.761e-05,2
151788000,151784000,0.718,0.111,0.105,0.678,1.0,-1.818e-12,1.818e-12,-1.761e-05,2
151888000,151884000,0.721,0.094,0.089,0.680,1.0,-1.818e-12,1.818e-12,-1.761e-05,2
151988000,151984000,0.723,0.076,0.072,0.682,1.0,-1.818e-12,1.818e-12,-1.761e-05,2
152088000,152084000,0.724,0.058,0.055,0.684,1.0,-1.818e-12,1.818e-12,-1.761e-05,2
152188000,152184000,0.725,0.041,0.040,0.686,1.0,-1.818e-12,1.818e-12,-1.761e-05,2
152292000,152284000,0.725,0.026,0.025,0.687,1.0,-1.818e-12,1.818e-12,-1.761e-05,2
152392000,152388000,0.725,0.011,0.011,0.688,1.0,-1.818e-12,1.818e-12,-1.761e-05,2
152492000,152488000,0.725,-0.000,-0.000,0.688,1.0,-1.818e-12,1.818e-12,-1.761e-05,2
152592000,152588000,0.725,-0.011,-0.011,0.688,1.0,-1.818e-12,1.818e-12,-1.761e-05,2
152696000,152692000,0.725,-0.020,-0.019,0.688,1.0,-1.818e-12,1.818e-12,-1.761e-05,2
152796000,152792000,0.724,-0.027,-0.026,0.687,1.0,-1.818e-12,1.818e-12,-1.761e-05,2
152896000,152892000,0.724,-0.032,-0.031,0.687,1.0,-1.818e-12,1.818e-12,-1.761e-05,2
152996000,152992000,0.724,-0.036,-0.034,0.687,1.0,-1.818e-12,1.818e-12,-1.761e-05,2
153096000,153092000,0.724,-0.038,-0.036,0.687,1.0,-1.818e-12,1.818e-12,-1.761e-05,2
153196000,153192000,0.724,-0.038,-0.037,0.686,1.0,-1.818e-12,1.818e-12,-1.761e-05,2
153296000,153292000,0.725,-0.035,-0.034,0.686,1.0,-1.818e-12,1.818e-12,-1.761e-05,2
153396000,153392000,0.725,-0.026,-0.025,0.686,1.0,-1.818e-12,1.818e-12,-1.761e-05,2
153496000,153492000,0.726,-0.012,-0.013,0.687,1.0,-1.818e-12,1.818e-12,-1.761e-05,2
153596000,153592000,0.726,0.003,0.002,0.687,1.0,-1.818e-12,1.818e-12,-1.761e-05,2
153696000,153692000,0.725,0.022,0.020,0.687,1.0,-1.818e-12,1.818e-12,-1.761e-05,2
153796000,153792000,0.724,0.042,0.038,0.686,1.0,-1.818e-12,1.818e-12,-1.761e-05,2
153896000,153892000,0.723,0.063,0.058,0.685,1.0,-1.818e-12,1.818e-12,-1.761e-05,2
153996000,153992000,0.720,0.083,0.077,0.683,1.0,-1.818e-12,1.818e-12,-1.761e-05,2
154096000,154088000,0.718,0.102,0.095,0.681,1.0,-1.818e-12,1.818e-12,-1.761e-05,2
154196000,154192000,0.715,0.121,0.113,0.678,1.0,-1.818e-12,1.818e-12,-1.761e-05,2
154296000,154292000,0.712,0.138,0.129,0.675,1.0,-1.818e-12,1.818e-12,-1.761e-05,2
154396000,154392000,0.709,0.153,0.143,0.672,1.0,-1.818e-12,1.818e-12,-1.761e-05,2
154496000,154492000,0.707,0.165,0.155,0.669,1.0,-1.818e-12,1.818e-12,-1.761e-05,2
154596000,154592000,0.705,0.176,0.165,0.666,1.0,-1.818e-12,1.818e-12,-1.761e-05,2
154696000,154692000,0.704,0.184,0.173,0.663,1.0,-1.818e-12,1.818e-12,-1.761e-05,2
154796000,154792000,0.703,0.190,0.179,0.660,1.0,-1.818e-12,1.818e-12,-1.761e-05,2
154896000,154892000,0.702,0.194,0.183,0.659,1.0,-1.818e-12,1.818e-12,-1.761e-05,2
154996000,154992000,0.702,0.196,0.185,0.658,1.0,-1.818e-12,1.818e-12,-1.761e-05,2
155096000,155092000,0.701,0.197,0.186,0.658,1.0,-1.818e-12,1.818e-12,-1.761e-05,2
155196000,155192000,0.701,0.195,0.184,0.659,1.0,-1.818e-12,1.818e-12,-1.761e-05,2
155296000,155292000,0.702,0.190,0.179,0.661,1.0,-1.818e-12,1.818e-12,-1.761e-05,2
155396000,155392000,0.705,0.179,0.169,0.664,1.0,-1.818e-12,1.818e-12,-1.761e-05,2
155496000,155492000,0.708,0.164,0.155,0.668,1.0,-1.818e-12,1.818e-12,-1.761e-05,2
155596000,155592000,0.712,0.146,0.138,0.672,1.0,-1.818e-12,1.818e-12,-1.761e-05,2
155696000,155692000,0.715,0.126,0.119,0.676,1.0,-1.818e-12,1.818e-12,-1.761e-05,2
155796000,155792000,0.718,0.105,0.099,0.680,1.0,-1.818e-12,1.818e-12,-1.761e-05,2
155896000,155892000,0.721,0.084,0.079,0.682,1.0,-1.818e-12,1.818e-12,-1.761e-05,2
155996000,155992000,0.723,0.063,0.060,0.685,1.0,-1.818e-12,1.818e-12,-1.761e-05,2
156096000,156092000,0.724,0.043,0.041,0.686,1.0,-1.818e-12,1.818e-12,-1.761e-05,2
156196000,156188000,0.725,0.026,0.025,0.687,1.0,-1.818e-12,1.818e-12,-1.761e-05,2
156296000,156292000,0.725,0.009,0.008,0.687,1.0,-1.818e-12,1.818e-12,-1.761e-05,2
156396000,156392000,0.726,-0.004,-0.004,0.687,1.0,-1.818e-12,1.818e-12,-1.761e-05,2
156496000,156492000,0.725,-0.017,-0.016,0.687,1.0,-1.818e-12,1.818e-12,-1.761e-05,2
156596000,156592000,0.725,-0.027,-0.025,0.687,1.0,-1.818e-12,1.818e-12,-1.761e-05,2
156696000,156692000,0.725,-0.034,-0.033,0.686,1.0,-1.818e-12,1.818e-12,-1.761e-05,2
156796000,156792000,0.724,-0.040,-0.038,0.686,1.0,-1.818e-12,1.818e-12,-1.761e-05,2
156896000,156892000,0.724,-0.044,-0.042,0.686,1.0,-1.818e-12,1.818e-12,-1.761e-05,2
156996000,156992000,0.724,-0.046,-0.044,0.685,1.0,-1.818e-12,1.818e-12,-1.761e-05,2
157096000,157092000,0.724,-0.046,-0.044,0.685,1.0,-1.818e-12,1.818e-12,-1.761e-05,2
157196000,157192000,0.725,-0.043,-0.041,0.685,1.0,-1.818e-12,1.818e-12,-1.761e-05,2
157296000,157292000,0.725,-0.034,-0.033,0.686,1.0,-1.818e-12,1.818e-12,-1.761e-05,2
157396000,157392000,0.726,-0.021,-0.021,0.686,1.0,-1.818e-12,1.818e-12,-1.761e-05,2
157496000,157492000,0.726,-0.004,-0.005,0.687,1.0,-1.818e-12,1.818e-12,-1.761e-05,2
157596000,157592000,0.726,0.015,0.013,0.687,1.0,-1.818e-12,1.818e-12,-1.761e-05,2
157696000,157692000,0.725,0.035,0.032,0.686,1.0,-1.818e-12,1.818e-12,-1.761e-05,2
157796000,157792000,0.724,0.057,0.052,0.685,1.0,-1.818e-12,1.818e-12,-1.761e-05,2
157896000,157892000,0.722,0.078,0.072,0.683,1.0,-1.818e-12,1.818e-12,-1.761e-05,2
157996000,157992000,0.719,0.099,0.092,0.681,1.0,-1.818e-12,1.818e-12,-1.761e-05,2
158096000,158092000,0.716,0.118,0.110,0.678,1.0,-1.818e-12,1.818e-12,-1.761e-05,2
158200000,158192000,0.713,0.135,0.127,0.675,1.0,-1.818e-12,1.818e-12,-1.761e-05,2
158300000,158296000,0.710,0.152,0.142,0.672,1.0,-1.818e-12,1.818e-12,-1.761e-05,2
158400000,158396000,0.707,0.165,0.155,0.669,1.0,-1.818e-12,1.818e-12,-1.761e-05,2
158500000,158496000,0.705,0.176,0.166,0.666,1.0,-1.818e-12,1.818e-12,-1.761e-05,2
158600000,158596000,0.703,0.185,0.174,0.663,1.0,-1.818e-12,1.818e-12,-1.761e-05,2
158700000,158696000,0.702,0.191,0.180,0.661,1.0,-1.818e-12,1.818e-12,-1.761e-05,2
158800000,158796000,0.701,0.195,0.184,0.660,1.0,-1.818e-12,1.818e-12,-1.761e-05,2
158900000,158896000,0.700,0.198,0.186,0.659,1.0,-1.818e-12,1.818e-12,-1.761e-05,2
159000000,158996000,0.700,0.198,0.187,0.659,1.0,-1.818e-12,1.818e-12,-1.761e-05,2
159100000,159096000,0.701,0.196,0.185,0.659,1.0,-1.818e-12,1.818e-12,-1.761e-05,2
159200000,159196000,0.703,0.188,0.177,0.661,1.0,-1.818e-12,1.818e-12,-1.761e-05,2
159300000,159296000,0.706,0.176,0.166,0.664,1.0,-1.818e-12,1.818e-12,-1.761e-05,2
159400000,159396000,0.710,0.160,0.151,0.668,1.0,-1.818e-12,1.818e-12,-1.761e-05,2
159500000,159496000,0.714,0.141,0.133,0.672,1.0,-1.818e-12,1.818e-12,-1.761e-05,2
159600000,159596000,0.717,0.120,0.114,0.676,1.0,-1.818e-12,1.818e-12,-1.761e-05,2
159700000,159696000,0.720,0.099,0.093,0.679,1.0,-1.818e-12,1.818e-12,-1.761e-05,2
159800000,159796000,0.723,0.078,0.073,0.682,1.0,-1.818e-12,1.818e-12,-1.761e-05,2
159900000,159896000,0.724,0.057,0.054,0.684,1.0,-1.818e-12,1.818e-12,-1.761e-05,2
160000000,159996000,0.726,0.038,0.036,0.685,1.0,-1.818e-12,1.818e-12,-1.761e-05,2
160100000,160096000,0.726,0.020,0.019,0.686,1.0,-1.818e-12,1.818e-12,-1.761e-05,2
160200000,160196000,0.726,0.004,0.004,0.686,1.0,-1.818e-12,1.818e-12,-1.761e-05,2
160300000,160296000,0.726,-0.009,-0.008,0.686,1.0,-1.818e-12,1.818e-12,-1.761e-05,2
160400000,160396000,0.726,-0.020,-0.019,0.686,1.0,-1.818e-12,1.818e-12,-1.761e-05,2
160500000,160496000,0.726,-0.030,-0.028,0.686,1.0,-1.818e-12,1.818e-12,-1.761e-05,2
160600000,160596000,0.725,-0.037,-0.035,0.686,1.0,-1.818e-12,1.818e-12,-1.761e-05,2
160700000,160696000,0.725,-0.042,-0.040,0.685,1.0,-1.818e-12,1.818e-12,-1.761e-05,2
160800000,160796000,0.725,-0.045,-0.043,0.685,1.0,-1.818e-12,1.818e-12,-1.761e-05,2
160900000,160896000,0.725,-0.047,-0.044,0.685,1.0,-1.818e-12,1.818e-12,-1.761e-05,2
161000000,160996000,0.725,-0.046,-0.044,0.685,1.0,-1.818e-12,1.818e-12,-1.761e-05,2
161100000,161096000,0.725,-0.045,-0.043,0.685,1.0,-1.818e-12,1.818e-12,-1.761e-05,2
161200000,161196000,0.725,-0.043,-0.041,0.685,1.0,-1.818e-12,1.818e-12,-1.761e-05,2
161300000,161296000,0.725,-0.039,-0.038,0.685,1.0,-1.818e-12,1.818e-12,-1.761e-05,2
161400000,161396000,0.725,-0.036,-0.034,0.685,1.0,-1.818e-12,1.818e-12,-1.761e-05,2
161500000,161496000,0.726,-0.031,-0.030,0.686,1.0,-1.818e-12,1.818e-12,-1.761e-05,2
161600000,161596000,0.726,-0.027,-0.026,0.686,1.0,-1.818e-12,1.818e-12,-1.761e-05,2
161700000,161696000,0.726,-0.022,-0.022,0.686,1.0,-1.818e-12,1.818e-12,-1.761e-05,2
161800000,161796000,0.726,-0.018,-0.017,0.686,1.0,-1.818e-12,1.818e-12,-1.761e-05,2
161900000,161896000,0.726,-0.013,-0.013,0.686,1.0,-1.818e-12,1.818e-12,-1.761e-05,2
162000000,161996000,0.726,-0.009,-0.009,0.687,1.0,-1.818e-12,1.818e-12,-1.761e-05,2
162100000,162096000,0.726,-0.005,-0.005,0.687,1.0,-1.818e-12,1.818e-12,-1.761e-05,2
162200000,162196000,0.726,-0.002,-0.002,0.687,1.0,-1.818e-12,1.818e-12,-1.761e-05,2
162300000,162296000,0.726,0.000,0.000,0.687,1.0,-1.818e-12,1.818e-12,-1.761e-05,2
162400000,162396000,0.726,0.003,0.002,0.687,1.0,-1.818e-12,1.818e-12,-1.761e-05,2
162500000,162496000,0.726,0.005,0.005,0.687,1.0,-1.818e-12,1.818e-12,-1.761e-05,2
162600000,162596000,0.726,0.007,0.006,0.687,1.0,-1.818e-12,1.818e-12,-1.761e-05,2
162700000,162696000,0.726,0.008,0.008,0.686,1.0,-1.818e-12,1.818e-12,-1.761e-05,2
162800000,162796000,0.726,0.009,0.008,0.686,1.0,-1.818e-12,1.818e-12,-1.761e-05,2
162900000,162896000,0.726,0.010,0.009,0.686,1.0,-1.818e-12,1.818e-12,-1.761e-05,2
163000000,162996000,0.726,0.010,0.009,0.686,1.0,-1.818e-12,1.818e-12,-1.761e-05,2
163100000,163096000,0.726,0.010,0.009,0.686,1.0,-1.818e-12,1.818e-12,-1.761e-05,2
163200000,163196000,0.726,0.009,0.008,0.686,1.0,-1.818e-12,1.818e-12,-1.761e-05,2
163300000,163296000,0.726,0.008,0.008,0.686,1.0,-1.818e-12,1.818e-12,-1.761e-05,2
163400000,163396000,0.726,0.008,0.007,0.686,1.0,-1.818e-12,1.818e-12,-1.761e-05,2
163500000,163496000,0.727,0.007,0.006,0.686,1.0,-1.818e-12,1.818e-12,-1.761e-05,2
163600000,163596000,0.727,0.006,0.005,0.686,1.0,-1.818e-12,1.818e-12,-1.761e-05,2
163700000,163696000,0.727,0.005,0.004,0.686,1.0,-1.818e-12,1.818e-12,-1.761e-05,2
163800000,163796000,0.727,0.004,0.003,0.686,1.0,-1.818e-12,1.818e-12,-1.761e-05,2
163900000,163896000,0.727,0.003,0.003,0.686,1.0,-1.818e-12,1.818e-12,-1.761e-05,2
164000000,163996000,0.727,0.002,0.002,0.686,1.0,-1.818e-12,1.818e-12,-1.761e-05,2
164100000,164096000,0.727,0.001,0.001,0.686,1.0,-1.818e-12,1.818e-12,-1.761e-05,2
164200000,164196000,0.727,0.000,0.000,0.686,1.0,-1.818e-12,1.818e-12,-1.761e-05,2
164300000,164296000,0.727,0.000,0.000,0.686,1.0,-1.818e-12,1.818e-12,-1.761e-05,2
164400000,164396000,0.727,-0.000,-0.000,0.686,1.0,-1.818e-12,1.818e-12,-1.761e-05,2
164500000,164496000,0.727,-0.000,-0.000,0.686,1.0,-1.818e-12,1.818e-12,-1.761e-05,2
164600000,164596000,0.727,-0.000,-0.000,0.686,1.0,-1.818e-12,1.818e-12,-1.761e-05,2
164700000,164696000,0.727,-0.001,-0.001,0.686,1.0,-1.818e-12,1.818e-12,-1.761e-05,2
164800000,164796000,0.727,-0.001,-0.001,0.686,1.0,-1.818e-12,1.818e-12,-1.761e-05,2
164900000,164896000,0.727,-0.001,-0.001,0.686,1.0,-1.818e-12,1.818e-12,-1.761e-05,2
165000000,164996000,0.727,-0.001,-0.001,0.686,1.0,-1.818e-12,1.818e-12,-1.761e-05,2
165100000,165096000,0.727,-0.001,-0.001,0.686,1.0,-1.818e-12,1.818e-12,-1.761e-05,2
165200000,165196000,0.727,-0.001,-0.001,0.686,1.0,-1.818e-12,1.818e-12,-1.761e-05,2
165300000,165296000,0.727,-0.001,-0.001,0.686,1.0,-1.818e-12,1.818e-12,-1.761e-05,2
165400000,165396000,0.727,-0.001,-0.001,0.686,1.0,-1.818e-12,1.818e-12,-1.761e-05,2
165500000,165496000,0.727,-0.001,-0.001,0.686,1.0,-1.818e-12,1.818e-12,-1.761e-05,2
165600000,165596000,0.727,-0.001,-0.001,0.686,1.0,-1.818e-12,1.818e-12,-1.761e-05,2
165700000,165696000,0.727,-0.001,-0.001,0.686,1.0,-1.818e-12,1.818e-12,-1.761e-05,2
165800000,165796000,0.727,-0.001,-0.001,0.686,1.0,-1.818e-12,1.818e-12,-1.761e-05,2
165900000,165896000,0.727,-0.001,-0.001,0.686,1.0,-1.818e-12,1.818e-12,-1.761e-05,2
166000000,165996000,0.727,-0.000,-0.000,0.686,1.0,-1.818e-12,1.818e-12,-1.761e-05,2
166104000,166096000,0.727,-0.000,-0.000,0.686,1.0,-1.818e-12,1.818e-12,-1.761e-05,2
166204000,166200000,0.727,-0.000,-0.000,0.686,1.0,-1.818e-12,1.818e-12,-1.761e-05,2
166304000,166300000,0.727,-0.000,-0.000,0.686,1.0,-1.818e-12,1.818e-12,-1.761e-05,2
166404000,166400000,0.727,-0.000,-0.000,0.686,1.0,-1.818e-12,1.818e-12,-1.761e-05,2
166504000,166500000,0.727,-0.000,-0.000,0.686,1.0,-1.818e-12,1.818e-12,-1.761e-05,2
166604000,166600000,0.727,-0.000,-0.000,0.686,1.0,-1.818e-12,1.818e-12,-1.761e-05,2
166704000,166700000,0.727,-0.000,-0.000,0.686,1.0,-1.818e-12,1.818e-12,-1.761e-05,2
166804000,166800000,0.727,-0.000,-0.000,0.686,1.0,-1.818e-12,1.818e-12,-1.761e-05,2
166904000,166896000,0.727,-0.000,-0.000,0.685,1.0,-1.818e-12,1.818e-12,-1.761e-05,2
167004000,167000000,0.727,-0.000,-0.000,0.685,1.0,-1.818e-12,1.818e-12,-1.761e-05,2
167104000,167100000,0.727,-9.228e-05,-7.665e-05,0.685,1.0,-1.818e-12,1.818e-12,-1.761e-05,2
167204000,167200000,0.727,-3.703e-05,-2.691e-05,0.685,1.0,-1.818e-12,1.818e-12,-1.761e-05,2
167304000,167296000,0.727,1.375e-05,2.227e-05,0.685,1.0,-1.818e-12,1.818e-12,-1.761e-05,2
167408000,167396000,0.727,7.257e-05,6.455e-05,0.686,1.0,-1.818e-12,1.818e-12,-1.761e-05,2
167508000,167500000,0.727,0.000,0.000,0.686,1.0,-1.818e-12,1.818e-12,-1.761e-05,2
167608000,167600000,0.727,0.000,0.000,0.686,1.0,-1.818e-12,1.818e-12,-1.761e-05,2
167708000,167700000,0.727,0.000,0.000,0.686,1.0,-1.818e-12,1.818e-12,-1.761e-05,2
167808000,167800000,0.727,0.000,0.000,0.686,1.0,-1.818e-12,1.818e-12,-1.761e-05,2
167908000,167900000,0.727,0.000,0.000,0.686,1.0,-1.818e-12,1.818e-12,-1.761e-05,2
168008000,168000000,0.727,0.000,0.000,0.686,1.0,-1.818e-12,1.818e-12,-1.761e-05,2
168108000,168100000,0.727,0.000,0.000,0.686,1.0,-1.818e-12,1.818e-12,-1.761e-05,2
168208000,168200000,0.727,0.000,0.000,0.686,1.0,-1.818e-12,1.818e-12,-1.761e-05,2
168308000,168300000,0.727,0.000,0.000,0.686,1.0,-1.818e-12,1.818e-12,-1.761e-05,2
168408000,168400000,0.727,0.000,0.000,0.686,1.0,-1.818e-12,1.818e-12,-1.761e-05,2
168508000,168500000,0.727,0.000,0.000,0.686,1.0,-1.818e-12,1.818e-12,-1.761e-05,2
168608000,168600000,0.727,0.000,0.000,0.686,1.0,-1.818e-12,1.818e-12,-1.761e-05,2
168708000,168700000,0.727,0.000,0.000,0.686,1.0,-1.818e-12,1.818e-12,-1.761e-05,2
168808000,168800000,0.727,0.000,0.000,0.686,1.0,-1.818e-12,1.818e-12,-1.761e-05,2
168908000,168900000,0.727,0.000,0.000,0.686,1.0,-1.818e-12,1.818e-12,-1.761e-05,2
169008000,169000000,0.727,0.000,0.000,0.686,1.0,-1.818e-12,1.818e-12,-1.761e-05,2
169108000,169100000,0.727,0.000,0.000,0.686,1.0,-1.818e-12,1.818e-12,-1.761e-05,2
169208000,169200000,0.727,0.000,0.000,0.686,1.0,-1.818e-12,1.818e-12,-1.761e-05,2
169308000,169300000,0.727,0.000,0.000,0.686,1.0,-1.818e-12,1.818e-12,-1.761e-05,2
169408000,169400000,0.727,0.000,0.000,0.686,1.0,-1.818e-12,1.818e-12,-1.761e-05,2
169508000,169500000,0.727,0.000,0.000,0.686,1.0,-1.818e-12,1.818e-12,-1.761e-05,2
169608000,169600000,0.727,0.000,0.000,0.686,1.0,-1.818e-12,1.818e-12,-1.761e-05,2
169708000,169700000,0.727,0.000,0.000,0.686,1.0,-1.818e-12,1.818e-12,-1.761e-05,2
169808000,169800000,0.727,0.000,0.000,0.686,1.0,-1.818e-12,1.818e-12,-1.761e-05,2
169908000,169900000,0.727,0.000,0.000,0.686,1.0,-1.818e-12,1.818e-12,-1.761e-05,2
170008000,170000000,0.727,0.000,0.000,0.686,1.0,-1.818e-12,1.818e-12,-1.761e-05,2
170108000,170100000,0.727,0.000,0.000,0.686,1.0,-1.818e-12,1.818e-12,-1.761e-05,2
170208000,170200000,0.727,0.000,0.000,0.686,1.0,-1.818e-12,1.818e-12,-1.761e-05,2
170308000,170300000,0.727,0.000,0.000,0.686,1.0,-1.818e-12,1.818e-12,-1.761e-05,2
170408000,170400000,0.727,0.000,0.000,0.686,1.0,-1.818e-12,1.818e-12,-1.761e-05,2
170508000,170500000,0.727,0.000,0.000,0.686,1.0,-1.818e-12,1.818e-12,-1.761e-05,2
170608000,170600000,0.727,0.000,0.000,0.686,1.0,-1.818e-12,1.818e-12,-1.761e-05,2
170708000,170700000,0.727,0.000,0.000,0.686,1.0,-1.818e-12,1.818e-12,-1.761e-05,2
170808000,170800000,0.727,0.000,0.000,0.686,1.0,-1.818e-12,1.818e-12,-1.761e-05,2
170908000,170900000,0.727,0.000,0.000,0.686,1.0,-1.818e-12,1.818e-12,-1.761e-05,2
171012000,171000000,0.727,0.000,0.000,0.686,1.0,-1.818e-12,1.818e-12,-1.761e-05,2
171112000,171104000,0.727,0.000,0.000,0.686,1.0,-1.818e-12,1.818e-12,-1.761e-05,2
171212000,171204000,0.727,0.000,0.000,0.686,1.0,-1.818e-12,1.818e-12,-1.761e-05,2
171312000,171304000,0.727,0.000,0.000,0.686,1.0,-1.818e-12,1.818e-12,-1.761e-05,2
171412000,171404000,0.727,0.000,0.000,0.686,1.0,-1.818e-12,1.818e-12,-1.761e-05,2
171512000,171504000,0.727,0.000,0.000,0.686,1.0,-1.818e-12,1.818e-12,-1.761e-05,2
171612000,171604000,0.727,0.000,0.000,0.686,1.0,-1.818e-12,1.818e-12,-1.761e-05,2
171712000,171704000,0.727,0.007,-0.011,0.685,1.0,-1.818e-12,1.818e-12,-1.761e-05,2
171812000,171804000,0.728,0.012,-0.029,0.684,1.0,-1.818e-12,1.818e-12,-1.761e-05,2
171912000,171904000,0.728,0.006,-0.044,0.683,1.0,-1.818e-12,1.818e-12,-1.761e-05,2
172012000,172004000,0.728,-0.004,-0.057,0.682,1.0,-1.818e-12,1.818e-12,-1.761e-05,2
172112000,172104000,0.728,-0.019,-0.071,0.681,1.0,-1.818e-12,1.818e-12,-1.761e-05,2
172212000,172204000,0.727,-0.035,-0.086,0.679,1.0,-1.818e-12,1.818e-12,-1.761e-05,2
172312000,172304000,0.726,-0.052,-0.101,0.677,1.0,-1.818e-12,1.818e-12,-1.761e-05,2
172412000,172404000,0.724,-0.068,-0.117,0.675,1.0,-1.818e-12,1.818e-12,-1.761e-05,2
172512000,172504000,0.722,-0.084,-0.131,0.672,1.0,-1.818e-12,1.818e-12,-1.761e-05,2
172612000,172604000,0.720,-0.099,-0.145,0.670,1.0,-1.818e-12,1.818e-12,-1.761e-05,2
172712000,172704000,0.718,-0.113,-0.158,0.667,1.0,-1.818e-12,1.818e-12,-1.761e-05,2
172812000,172804000,0.716,-0.125,-0.169,0.664,1.0,-1.818e-12,1.818e-12,-1.761e-05,2
172912000,172904000,0.715,-0.135,-0.179,0.661,1.0,-1.818e-12,1.818e-12,-1.761e-05,2
173012000,173004000,0.713,-0.143,-0.188,0.659,1.0,-1.818e-12,1.818e-12,-1.761e-05,2
173112000,173104000,0.712,-0.149,-0.194,0.657,1.0,-1.818e-12,1.818e-12,-1.761e-05,2
173212000,173204000,0.711,-0.154,-0.199,0.656,1.0,-1.818e-12,1.818e-12,-1.761e-05,2
173312000,173304000,0.710,-0.157,-0.203,0.655,1.0,-1.818e-12,1.818e-12,-1.761e-05,2
173412000,173404000,0.709,-0.158,-0.205,0.654,1.0,-1.818e-12,1.818e-12,-1.761e-05,2
173512000,173504000,0.709,-0.158,-0.207,0.654,1.0,-1.818e-12,1.818e-12,-1.761e-05,2
173612000,173604000,0.709,-0.157,-0.207,0.654,1.0,-1.818e-12,1.818e-12,-1.761e-05,2
173712000,173704000,0.710,-0.154,-0.206,0.655,1.0,-1.818e-12,1.818e-12,-1.761e-05,2
173812000,173804000,0.710,-0.151,-0.204,0.655,1.0,-1.818e-12,1.818e-12,-1.761e-05,2
173912000,173904000,0.711,-0.148,-0.202,0.656,1.0,-1.818e-12,1.818e-12,-1.761e-05,2
174012000,174004000,0.712,-0.144,-0.199,0.657,1.0,-1.818e-12,1.818e-12,-1.761e-05,2
174112000,174104000,0.712,-0.140,-0.196,0.658,1.0,-1.818e-12,1.818e-12,-1.761e-05,2
174212000,174204000,0.713,-0.136,-0.194,0.659,1.0,-1.818e-12,1.818e-12,-1.761e-05,2
174312000,174304000,0.714,-0.132,-0.191,0.660,1.0,-1.818e-12,1.818e-12,-1.761e-05,2
174412000,174404000,0.715,-0.128,-0.188,0.660,1.0,-1.818e-12,1.818e-12,-1.761e-05,2
174512000,174504000,0.715,-0.124,-0.185,0.661,1.0,-1.818e-12,1.818e-12,-1.761e-05,2
174612000,174604000,0.716,-0.121,-0.183,0.662,1.0,-1.818e-12,1.818e-12,-1.761e-05,2
174712000,174704000,0.716,-0.118,-0.181,0.662,1.0,-1.818e-12,1.818e-12,-1.761e-05,2
174812000,174804000,0.717,-0.116,-0.179,0.663,1.0,-1.818e-12,1.818e-12,-1.761e-05,2
174912000,174904000,0.717,-0.113,-0.178,0.663,1.0,-1.818e-12,1.818e-12,-1.761e-05,2
175012000,175000000,0.718,-0.112,-0.176,0.663,1.0,-1.818e-12,1.818e-12,-1.761e-05,2
175112000,175100000,0.718,-0.112,-0.173,0.663,1.0,-1.818e-12,1.818e-12,-1.761e-05,2
175212000,175200000,0.719,-0.112,-0.169,0.664,1.0,-1.818e-12,1.818e-12,-1.761e-05,2
175312000,175300000,0.719,-0.111,-0.165,0.665,1.0,-1.818e-12,1.818e-12,-1.761e-05,2
175412000,175400000,0.720,-0.110,-0.160,0.665,1.0,-1.818e-12,1.818e-12,-1.761e-05,2
175512000,175500000,0.720,-0.107,-0.154,0.667,1.0,-1.818e-12,1.818e-12,-1.761e-05,2
175612000,175600000,0.721,-0.103,-0.147,0.668,1.0,-1.818e-12,1.818e-12,-1.761e-05,2
175712000,175700000,0.721,-0.097,-0.141,0.670,1.0,-1.818e-12,1.818e-12,-1.761e-05,2
175812000,175800000,0.722,-0.089,-0.136,0.672,1.0,-1.818e-12,1.818e-12,-1.761e-05,2
175912000,175900000,0.722,-0.081,-0.131,0.673,1.0,-1.818e-12,1.818e-12,-1.761e-05,2
176012000,176000000,0.723,-0.074,-0.126,0.674,1.0,-1.818e-12,1.818e-12,-1.761e-05,2
176112000,176100000,0.723,-0.068,-0.122,0.675,1.0,-1.818e-12,1.818e-12,-1.761e-05,2
176212000,176200000,0.724,-0.063,-0.119,0.676,1.0,-1.818e-12,1.818e-12,-1.761e-05,2
176312000,176300000,0.724,-0.059,-0.118,0.676,1.0,-1.818e-12,1.818e-12,-1.761e-05,2
176412000,176400000,0.724,-0.058,-0.118,0.676,1.0,-1.818e-12,1.818e-12,-1.761e-05,2
176512000,176500000,0.724,-0.058,-0.119,0.675,1.0,-1.818e-12,1.818e-12,-1.761e-05,2
176612000,176600000,0.724,-0.061,-0.122,0.675,1.0,-1.818e-12,1.818e-12,-1.761e-05,2
176712000,176700000,0.724,-0.066,-0.125,0.674,1.0,-1.818e-12,1.818e-12,-1.761e-05,2
176812000,176800000,0.724,-0.072,-0.129,0.673,1.0,-1.818e-12,1.818e-12,-1.761e-05,2
176912000,176900000,0.723,-0.079,-0.134,0.672,1.0,-1.818e-12,1.818e-12,-1.761e-05,2
177012000,176996000,0.722,-0.086,-0.140,0.671,1.0,-1.818e-12,1.818e-12,-1.761e-05,2
177116000,177096000,0.721,-0.093,-0.146,0.670,1.0,-1.818e-12,1.818e-12,-1.761e-05,2
177216000,177200000,0.720,-0.100,-0.152,0.668,1.0,-1.818e-12,1.818e-12,-1.761e-05,2
177316000,177300000,0.719,-0.106,-0.158,0.667,1.0,-1.818e-12,1.818e-12,-1.761e-05,2
177416000,177400000,0.718,-0.112,-0.164,0.666,1.0,-1.818e-12,1.818e-12,-1.761e-05,2
177516000,177500000,0.717,-0.118,-0.170,0.664,1.0,-1.818e-12,1.818e-12,-1.761e-05,2
177616000,177600000,0.716,-0.123,-0.175,0.663,1.0,-1.818e-12,1.818e-12,-1.761e-05,2
177716000,177696000,0.716,-0.126,-0.179,0.662,1.0,-1.818e-12,1.818e-12,-1.761e-05,2
177816000,177796000,0.715,-0.130,-0.182,0.661,1.0,-1.818e-12,1.818e-12,-1.761e-05,2
177916000,177896000,0.714,-0.132,-0.185,0.660,1.0,-1.818e-12,1.818e-12,-1.761e-05,2
178016000,177996000,0.714,-0.134,-0.188,0.660,1.0,-1.818e-12,1.818e-12,-1.761e-05,2
178116000,178096000,0.714,-0.135,-0.190,0.659,1.0,-1.818e-12,1.818e-12,-1.761e-05,2
178216000,178196000,0.714,-0.135,-0.191,0.659,1.0,-1.818e-12,1.818e-12,-1.761e-05,2
178316000,178296000,0.714,-0.135,-0.191,0.659,1.0,-1.818e-12,1.818e-12,-1.761e-05,2
178416000,178396000,0.714,-0.134,-0.192,0.659,1.0,-1.818e-12,1.818e-12,-1.761e-05,2
178516000,178496000,0.714,-0.132,-0.192,0.659,1.0,-1.818e-12,1.818e-12,-1.761e-05,2
178616000,178596000,0.715,-0.131,-0.191,0.659,1.0,-1.818e-12,1.818e-12,-1.761e-05,2
178716000,178696000,0.716,-0.133,-0.184,0.659,1.0,-1.818e-12,1.818e-12,-1.761e-05,2
178816000,178796000,0.717,-0.133,-0.173,0.660,1.0,-1.818e-12,1.818e-12,-1.761e-05,2
178916000,178896000,0.719,-0.130,-0.160,0.662,1.0,-1.818e-12,1.818e-12,-1.761e-05,2
179016000,178992000,0.721,-0.124,-0.143,0.665,1.0,-1.818e-12,1.818e-12,-1.761e-05,2
179116000,179096000,0.723,-0.112,-0.120,0.669,1.0,-1.818e-12,1.818e-12,-1.761e-05,2
179216000,179196000,0.726,-0.095,-0.095,0.673,1.0,-1.818e-12,1.818e-12,-1.761e-05,2
179316000,179296000,0.727,-0.069,-0.070,0.678,1.0,-1.818e-12,1.818e-12,-1.761e-05,2
179416000,179396000,0.728,-0.038,-0.045,0.682,1.0,-1.818e-12,1.818e-12,-1.761e-05,2
179516000,179496000,0.728,-0.006,-0.018,0.684,1.0,-1.818e-12,1.818e-12,-1.761e-05,2
179616000,179596000,0.728,0.024,0.009,0.685,1.0,-1.818e-12,1.818e-12,-1.761e-05,2
179716000,179696000,0.726,0.054,0.036,0.684,1.0,-1.818e-12,1.818e-12,-1.761e-05,2
179816000,179796000,0.723,0.083,0.061,0.682,1.0,-1.818e-12,1.818e-12,-1.761e-05,2
179916000,179896000,0.720,0.108,0.082,0.680,1.0,-1.818e-12,1.818e-12,-1.761e-05,2
180016000,179996000,0.716,0.130,0.101,0.677,1.0,-1.818e-12,1.818e-12,-1.761e-05,2
180116000,180096000,0.714,0.146,0.115,0.674,1.0,-1.818e-12,1.818e-12,-1.761e-05,2
180216000,180196000,0.711,0.157,0.124,0.673,1.0,-1.818e-12,1.818e-12,-1.761e-05,2
180316000,180296000,0.710,0.162,0.128,0.672,1.0,-1.818e-12,1.818e-12,-1.761e-05,2
180416000,180396000,0.710,0.160,0.127,0.672,1.0,-1.818e-12,1.818e-12,-1.761e-05,2
180516000,180496000,0.712,0.152,0.121,0.674,1.0,-1.818e-12,1.818e-12,-1.761e-05,2
180616000,180596000,0.714,0.138,0.109,0.676,1.0,-1.818e-12,1.818e-12,-1.761e-05,2
180716000,180696000,0.718,0.119,0.093,0.679,1.0,-1.818e-12,1.818e-12,-1.761e-05,2
180816000,180796000,0.721,0.097,0.072,0.681,1.0,-1.818e-12,1.818e-12,-1.761e-05,2
180916000,180896000,0.724,0.070,0.048,0.684,1.0,-1.818e-12,1.818e-12,-1.761e-05,2
181016000,180996000,0.726,0.042,0.021,0.685,1.0,-1.818e-12,1.818e-12,-1.761e-05,2
181116000,181096000,0.727,0.012,-0.006,0.686,1.0,-1.818e-12,1.818e-12,-1.761e-05,2
181216000,181196000,0.727,-0.017,-0.034,0.685,1.0,-1.818e-12,1.818e-12,-1.761e-05,2
181316000,181296000,0.725,-0.047,-0.062,0.683,1.0,-1.818e-12,1.818e-12,-1.761e-05,2
181416000,181396000,0.723,-0.075,-0.088,0.680,1.0,-1.818e-12,1.818e-12,-1.761e-05,2
181516000,181496000,0.720,-0.100,-0.112,0.677,1.0,-1.818e-12,1.818e-12,-1.761e-05,2
181616000,181596000,0.716,-0.122,-0.132,0.673,1.0,-1.818e-12,1.818e-12,-1.761e-05,2
181716000,181696000,0.712,-0.141,-0.150,0.670,1.0,-1.818e-12,1.818e-12,-1.761e-05,2
181816000,181796000,0.709,-0.155,-0.163,0.667,1.0,-1.818e-12,1.818e-12,-1.761e-05,2
181916000,181916000,0.707,-0.166,-0.172,0.664,1.0,-1.818e-12,1.818e-12,-1.761e-05,2
182016000,182016000,0.706,-0.168,-0.175,0.664,1.0,-1.818e-12,1.818e-12,-1.761e-05,2
182116000,182116000,0.707,-0.165,-0.172,0.665,1.0,-1.818e-12,1.818e-12,-1.761e-05,2
182216000,182216000,0.709,-0.157,-0.163,0.667,1.0,-1.818e-12,1.818e-12,-1.761e-05,2
182316000,182316000,0.712,-0.143,-0.150,0.670,1.0,-1.818e-12,1.818e-12,-1.761e-05,2
182416000,182416000,0.715,-0.125,-0.132,0.674,1.0,-1.818e-12,1.818e-12,-1.761e-05,2
182516000,182516000,0.719,-0.102,-0.110,0.678,1.0,-1.818e-12,1.818e-12,-1.761e-05,2
182620000,182616000,0.722,-0.075,-0.084,0.681,1.0,-1.818e-12,1.818e-12,-1.761e-05,2
182720000,182720000,0.725,-0.045,-0.056,0.684,1.0,-1.818e-12,1.818e-12,-1.761e-05,2
182820000,182820000,0.726,-0.015,-0.027,0.686,1.0,-1.818e-12,1.818e-12,-1.761e-05,2
182920000,182920000,0.726,0.014,0.001,0.686,1.0,-1.818e-12,1.818e-12,-1.761e-05,2
183020000,183020000,0.725,0.044,0.030,0.685,1.0,-1.818e-12,1.818e-12,-1.761e-05,2
183120000,183120000,0.723,0.072,0.057,0.683,1.0,-1.818e-12,1.818e-12,-1.761e-05,2
183220000,183220000,0.720,0.099,0.081,0.681,1.0,-1.818e-12,1.818e-12,-1.761e-05,2
183320000,183320000,0.717,0.122,0.103,0.678,1.0,-1.818e-12,1.818e-12,-1.761e-05,2
183420000,183420000,0.713,0.141,0.122,0.674,1.0,-1.818e-12,1.818e-12,-1.761e-05,2
183520000,183520000,0.710,0.157,0.137,0.671,1.0,-1.818e-12,1.818e-12,-1.761e-05,2
183620000,183620000,0.708,0.168,0.147,0.669,1.0,-1.818e-12,1.818e-12,-1.761e-05,2
183720000,183720000,0.706,0.174,0.153,0.668,1.0,-1.818e-12,1.818e-12,-1.761e-05,2
183820000,183820000,0.706,0.175,0.155,0.667,1.0,-1.818e-12,1.818e-12,-1.761e-05,2
183920000,183920000,0.707,0.171,0.151,0.668,1.0,-1.818e-12,1.818e-12,-1.761e-05,2
184020000,184020000,0.709,0.162,0.143,0.670,1.0,-1.818e-12,1.818e-12,-1.761e-05,2
184120000,184120000,0.712,0.148,0.130,0.672,1.0,-1.818e-12,1.818e-12,-1.761e-05,2
184220000,184220000,0.716,0.130,0.114,0.675,1.0,-1.818e-12,1.818e-12,-1.761e-05,2
184320000,184320000,0.719,0.108,0.094,0.679,1.0,-1.818e-12,1.818e-12,-1.761e-05,2
184420000,184420000,0.723,0.084,0.072,0.681,1.0,-1.818e-12,1.818e-12,-1.761e-05,2
184520000,184520000,0.725,0.058,0.047,0.683,1.0,-1.818e-12,1.818e-12,-1.761e-05,2
184620000,184620000,0.727,0.031,0.022,0.685,1.0,-1.818e-12,1.818e-12,-1.761e-05,2
184720000,184720000,0.727,0.004,-0.003,0.685,1.0,-1.818e-12,1.818e-12,-1.761e-05,2
184820000,184820000,0.727,-0.021,-0.028,0.685,1.0,-1.818e-12,1.818e-12,-1.761e-05,2
184920000,184920000,0.726,-0.046,-0.051,0.684,1.0,-1.818e-12,1.818e-12,-1.761e-05,2
185020000,185020000,0.724,-0.069,-0.072,0.682,1.0,-1.818e-12,1.818e-12,-1.761e-05,2
185120000,185120000,0.721,-0.089,-0.091,0.680,1.0,-1.818e-12,1.818e-12,-1.761e-05,2
185220000,185220000,0.719,-0.105,-0.107,0.677,1.0,-1.818e-12,1.818e-12,-1.761e-05,2
185320000,185320000,0.717,-0.118,-0.119,0.676,1.0,-1.818e-12,1.818e-12,-1.761e-05,2
185420000,185420000,0.715,-0.126,-0.127,0.674,1.0,-1.818e-12,1.818e-12,-1.761e-05,2
185520000,185520000,0.715,-0.130,-0.131,0.674,1.0,-1.818e-12,1.818e-12,-1.761e-05,2
185620000,185620000,0.715,-0.129,-0.130,0.674,1.0,-1.818e-12,1.818e-12,-1.761e-05,2
185720000,185720000,0.716,-0.124,-0.126,0.675,1.0,-1.818e-12,1.818e-12,-1.761e-05,2
185820000,185820000,0.717,-0.115,-0.117,0.676,1.0,-1.818e-12,1.818e-12,-1.761e-05,2
185920000,185920000,0.719,-0.102,-0.105,0.678,1.0,-1.818e-12,1.818e-12,-1.761e-05,2
186020000,186020000,0.721,-0.085,-0.089,0.680,1.0,-1.818e-12,1.818e-12,-1.761e-05,2
186120000,186120000,0.723,-0.065,-0.070,0.683,1.0,-1.818e-12,1.818e-12,-1.761e-05,2
186220000,186220000,0.725,-0.043,-0.050,0.684,1.0,-1.818e-12,1.818e-12,-1.761e-05,2
186320000,186320000,0.726,-0.020,-0.028,0.686,1.0,-1.818e-12,1.818e-12,-1.761e-05,2
186420000,186420000,0.727,0.003,-0.005,0.686,1.0,-1.818e-12,1.818e-12,-1.761e-05,2
186520000,186520000,0.726,0.027,0.016,0.686,1.0,-1.818e-12,1.818e-12,-1.761e-05,2
186620000,186620000,0.725,0.050,0.038,0.685,1.0,-1.818e-12,1.818e-12,-1.761e-05,2
186720000,186720000,0.723,0.072,0.058,0.683,1.0,-1.818e-12,1.818e-12,-1.761e-05,2
186820000,186820000,0.721,0.091,0.076,0.681,1.0,-1.818e-12,1.818e-12,-1.761e-05,2
186920000,186920000,0.719,0.108,0.092,0.679,1.0,-1.818e-12,1.818e-12,-1.761e-05,2
187020000,187020000,0.717,0.122,0.104,0.677,1.0,-1.818e-12,1.818e-12,-1.761e-05,2
187120000,187120000,0.715,0.132,0.114,0.676,1.0,-1.818e-12,1.818e-12,-1.761e-05,2
187220000,187220000,0.714,0.138,0.120,0.675,1.0,-1.818e-12,1.818e-12,-1.761e-05,2
187320000,187320000,0.713,0.141,0.123,0.674,1.0,-1.818e-12,1.818e-12,-1.761e-05,2
187420000,187420000,0.714,0.139,0.121,0.674,1.0,-1.818e-12,1.818e-12,-1.761e-05,2
187520000,187520000,0.715,0.134,0.116,0.675,1.0,-1.818e-12,1.818e-12,-1.761e-05,2
187620000,187620000,0.717,0.125,0.108,0.677,1.0,-1.818e-12,1.818e-12,-1.761e-05,2
187720000,187720000,0.719,0.112,0.096,0.678,1.0,-1.818e-12,1.818e-12,-1.761e-05,2
187820000,187820000,0.721,0.096,0.081,0.680,1.0,-1.818e-12,1.818e-12,-1.761e-05,2
187920000,187920000,0.723,0.077,0.063,0.682,1.0,-1.818e-12,1.818e-12,-1.761e-05,2
188020000,188020000,0.725,0.057,0.044,0.684,1.0,-1.818e-12,1.818e-12,-1.761e-05,2
188120000,188120000,0.726,0.035,0.024,0.685,1.0,-1.818e-12,1.818e-12,-1.761e-05,2
188220000,188220000,0.727,0.013,0.003,0.685,1.0,-1.818e-12,1.818e-12,-1.761e-05,2
188320000,188320000,0.727,-0.008,-0.017,0.685,1.0,-1.818e-12,1.818e-12,-1.761e-05,2
188420000,188420000,0.727,-0.029,-0.037,0.684,1.0,-1.818e-12,1.818e-12,-1.761e-05,2
188520000,188520000,0.725,-0.048,-0.055,0.683,1.0,-1.818e-12,1.818e-12,-1.761e-05,2
188620000,188620000,0.724,-0.066,-0.072,0.682,1.0,-1.818e-12,1.818e-12,-1.761e-05,2
188720000,188720000,0.722,-0.081,-0.086,0.680,1.0,-1.818e-12,1.818e-12,-1.761e-05,2
188820000,188820000,0.721,-0.093,-0.098,0.679,1.0,-1.818e-12,1.818e-12,-1.761e-05,2
188920000,188920000,0.720,-0.102,-0.106,0.677,1.0,-1.818e-12,1.818e-12,-1.761e-05,2
189020000,189020000,0.719,-0.108,-0.112,0.677,1.0,-1.818e-12,1.818e-12,-1.761e-05,2
189120000,189120000,0.718,-0.110,-0.114,0.676,1.0,-1.818e-12,1.818e-12,-1.761e-05,2
189220000,189220000,0.719,-0.108,-0.112,0.677,1.0,-1.818e-12,1.818e-12,-1.761e-05,2
189320000,189320000,0.719,-0.102,-0.107,0.677,1.0,-1.818e-12,1.818e-12,-1.761e-05,2
189420000,189420000,0.721,-0.093,-0.099,0.679,1.0,-1.818e-12,1.818e-12,-1.761e-05,2
189520000,189520000,0.722,-0.081,-0.088,0.680,1.0,-1.818e-12,1.818e-12,-1.761e-05,2
189620000,189620000,0.724,-0.067,-0.074,0.682,1.0,-1.818e-12,1.818e-12,-1.761e-05,2
189720000,189720000,0.725,-0.050,-0.058,0.683,1.0,-1.818e-12,1.818e-12,-1.761e-05,2
189820000,189820000,0.726,-0.031,-0.041,0.685,1.0,-1.818e-12,1.818e-12,-1.761e-05,2
189920000,189920000,0.727,-0.012,-0.023,0.685,1.0,-1.818e-12,1.818e-12,-1.761e-05,2
190020000,190020000,0.727,0.007,-0.004,0.686,1.0,-1.818e-12,1.818e-12,-1.761e-05,2
190120000,190120000,0.726,0.027,0.013,0.686,1.0,-1.818e-12,1.818e-12,-1.761e-05,2
190220000,190220000,0.726,0.045,0.031,0.685,1.0,-1.818e-12,1.818e-12,-1.761e-05,2
190320000,190320000,0.724,0.063,0.047,0.684,1.0,-1.818e-12,1.818e-12,-1.761e-05,2
190420000,190420000,0.723,0.079,0.061,0.683,1.0,-1.818e-12,1.818e-12,-1.761e-05,2
190520000,190520000,0.721,0.092,0.074,0.681,1.0,-1.818e-12,1.818e-12,-1.761e-05,2
190620000,190620000,0.720,0.103,0.084,0.680,1.0,-1.818e-12,1.818e-12,-1.761e-05,2
190720000,190720000,0.719,0.110,0.091,0.679,1.0,-1.818e-12,1.818e-12,-1.761e-05,2
190820000,190820000,0.718,0.115,0.095,0.679,1.0,-1.818e-12,1.818e-12,-1.761e-05,2
190920000,190920000,0.718,0.116,0.097,0.678,1.0,-1.818e-12,1.818e-12,-1.761e-05,2
191020000,191020000,0.718,0.114,0.095,0.679,1.0,-1.818e-12,1.818e-12,-1.761e-05,2
191120000,191120000,0.719,0.109,0.090,0.679,1.0,-1.818e-12,1.818e-12,-1.761e-05,2
191220000,191220000,0.720,0.101,0.082,0.680,1.0,-1.818e-12,1.818e-12,-1.761e-05,2
191320000,191320000,0.722,0.090,0.072,0.681,1.0,-1.818e-12,1.818e-12,-1.761e-05,2
191420000,191420000,0.723,0.077,0.059,0.683,1.0,-1.818e-12,1.818e-12,-1.761e-05,2
191520000,191520000,0.725,0.062,0.045,0.684,1.0,-1.818e-12,1.818e-12,-1.761e-05,2
191620000,191620000,0.726,0.045,0.029,0.685,1.0,-1.818e-12,1.818e-12,-1.761e-05,2
191720000,191720000,0.727,0.027,0.013,0.685,1.0,-1.818e-12,1.818e-12,-1.761e-05,2
191820000,191820000,0.727,0.009,-0.003,0.685,1.0,-1.818e-12,1.818e-12,-1.761e-05,2
191920000,191920000,0.727,-0.007,-0.020,0.685,1.0,-1.818e-12,1.818e-12,-1.761e-05,2
192020000,192020000,0.727,-0.024,-0.036,0.685,1.0,-1.818e-12,1.818e-12,-1.761e-05,2
192120000,192120000,0.726,-0.040,-0.050,0.684,1.0,-1.818e-12,1.818e-12,-1.761e-05,2
192224000,192220000,0.725,-0.054,-0.064,0.683,1.0,-1.818e-12,1.818e-12,-1.761e-05,2
192324000,192324000,0.724,-0.067,-0.075,0.681,1.0,-1.818e-12,1.818e-12,-1.761e-05,2
192424000,192424000,0.723,-0.076,-0.084,0.680,1.0,-1.818e-12,1.818e-12,-1.761e-05,2
192524000,192524000,0.722,-0.083,-0.091,0.680,1.0,-1.818e-12,1.818e-12,-1.761e-05,2
192624000,192624000,0.722,-0.087,-0.094,0.679,1.0,-1.818e-12,1.818e-12,-1.761e-05,2
192724000,192724000,0.721,-0.088,-0.095,0.679,1.0,-1.818e-12,1.818e-12,-1.761e-05,2
192824000,192824000,0.722,-0.086,-0.093,0.679,1.0,-1.818e-12,1.818e-12,-1.761e-05,2
192924000,192924000,0.722,-0.081,-0.089,0.680,1.0,-1.818e-12,1.818e-12,-1.761e-05,2
193024000,193024000,0.723,-0.073,-0.081,0.681,1.0,-1.818e-12,1.818e-12,-1.761e-05,2
193124000,193124000,0.724,-0.062,-0.072,0.682,1.0,-1.818e-12,1.818e-12,-1.761e-05,2
193224000,193224000,0.725,-0.050,-0.060,0.683,1.0,-1.818e-12,1.818e-12,-1.761e-05,2
193324000,193324000,0.726,-0.036,-0.047,0.684,1.0,-1.818e-12,1.818e-12,-1.761e-05,2
193424000,193424000,0.727,-0.020,-0.032,0.685,1.0,-1.818e-12,1.818e-12,-1.761e-05,2
193524000,193524000,0.727,-0.004,-0.017,0.685,1.0,-1.818e-12,1.818e-12,-1.761e-05,2
193624000,193624000,0.727,0.011,-0.002,0.686,1.0,-1.818e-12,1.818e-12,-1.761e-05,2
193724000,193724000,0.727,0.027,0.012,0.685,1.0,-1.818e-12,1.818e-12,-1.761e-05,2
193824000,193824000,0.726,0.043,0.026,0.685,1.0,-1.818e-12,1.818e-12,-1.761e-05,2
193924000,193924000,0.725,0.057,0.039,0.684,1.0,-1.818e-12,1.818e-12,-1.761e-05,2
194024000,194024000,0.724,0.069,0.050,0.683,1.0,-1.818e-12,1.818e-12,-1.761e-05,2
194124000,194124000,0.723,0.080,0.060,0.683,1.0,-1.818e-12,1.818e-12,-1.761e-05,2
194224000,194224000,0.722,0.088,0.068,0.682,1.0,-1.818e-12,1.818e-12,-1.761e-05,2
194324000,194324000,0.721,0.094,0.073,0.681,1.0,-1.818e-12,1.818e-12,-1.761e-05,2
194424000,194424000,0.721,0.097,0.076,0.681,1.0,-1.818e-12,1.818e-12,-1.761e-05,2
194524000,194524000,0.721,0.097,0.076,0.681,1.0,-1.818e-12,1.818e-12,-1.761e-05,2
194624000,194624000,0.721,0.095,0.074,0.681,1.0,-1.818e-12,1.818e-12,-1.761e-05,2
194724000,194724000,0.722,0.090,0.069,0.682,1.0,-1.818e-12,1.818e-12,-1.761e-05,2
194824000,194824000,0.723,0.082,0.062,0.682,1.0,-1.818e-12,1.818e-12,-1.761e-05,2
194924000,194924000,0.724,0.073,0.053,0.683,1.0,-1.818e-12,1.818e-12,-1.761e-05,2
195024000,195024000,0.725,0.061,0.042,0.684,1.0,-1.818e-12,1.818e-12,-1.761e-05,2
195124000,195124000,0.726,0.048,0.031,0.685,1.0,-1.818e-12,1.818e-12,-1.761e-05,2
195228000,195224000,0.726,0.034,0.018,0.685,1.0,-1.818e-12,1.818e-12,-1.761e-05,2
195332000,195328000,0.727,0.019,0.004,0.685,1.0,-1.818e-12,1.818e-12,-1.761e-05,2
195432000,195432000,0.727,0.004,-0.010,0.685,1.0,-1.818e-12,1.818e-12,-1.761e-05,2
195532000,195532000,0.727,-0.009,-0.023,0.685,1.0,-1.818e-12,1.818e-12,-1.761e-05,2
195632000,195632000,0.727,-0.023,-0.035,0.685,1.0,-1.818e-12,1.818e-12,-1.761e-05,2
195732000,195732000,0.726,-0.035,-0.047,0.684,1.0,-1.818e-12,1.818e-12,-1.761e-05,2
195832000,195832000,0.726,-0.046,-0.057,0.683,1.0,-1.818e-12,1.818e-12,-1.761e-05,2
195932000,195932000,0.725,-0.055,-0.065,0.682,1.0,-1.818e-12,1.818e-12,-1.761e-05,2
196032000,196032000,0.724,-0.061,-0.071,0.682,1.0,-1.818e-12,1.818e-12,-1.761e-05,2
196132000,196132000,0.724,-0.066,-0.076,0.681,1.0,-1.818e-12,1.818e-12,-1.761e-05,2
196232000,196232000,0.724,-0.068,-0.078,0.681,1.0,-1.818e-12,1.818e-12,-1.761e-05,2
196332000,196332000,0.724,-0.068,-0.077,0.681,1.0,-1.818e-12,1.818e-12,-1.761e-05,2
196432000,196432000,0.724,-0.065,-0.075,0.682,1.0,-1.818e-12,1.818e-12,-1.761e-05,2
196532000,196532000,0.724,-0.060,-0.070,0.682,1.0,-1.818e-12,1.818e-12,-1.761e-05,2
196632000,196632000,0.725,-0.053,-0.063,0.683,1.0,-1.818e-12,1.818e-12,-1.761e-05,2
196732000,196732000,0.726,-0.044,-0.055,0.684,1.0,-1.818e-12,1.818e-12,-1.761e-05,2
196832000,196832000,0.726,-0.033,-0.045,0.684,1.0,-1.818e-12,1.818e-12,-1.761e-05,2
196932000,196932000,0.727,-0.021,-0.034,0.685,1.0,-1.818e-12,1.818e-12,-1.761e-05,2
197032000,197032000,0.727,-0.009,-0.022,0.685,1.0,-1.818e-12,1.818e-12,-1.761e-05,2
197132000,197132000,0.727,0.003,-0.010,0.686,1.0,-1.818e-12,1.818e-12,-1.761e-05,2
197232000,197232000,0.727,0.016,0.001,0.686,1.0,-1.818e-12,1.818e-12,-1.761e-05,2
197332000,197332000,0.726,0.029,0.013,0.685,1.0,-1.818e-12,1.818e-12,-1.761e-05,2
197432000,197432000,0.726,0.041,0.024,0.685,1.0,-1.818e-12,1.818e-12,-1.761e-05,2
197532000,197532000,0.725,0.051,0.034,0.685,1.0,-1.818e-12,1.818e-12,-1.761e-05,2
197632000,197632000,0.725,0.061,0.043,0.684,1.0,-1.818e-12,1.818e-12,-1.761e-05,2
197732000,197732000,0.724,0.069,0.050,0.684,1.0,-1.818e-12,1.818e-12,-1.761e-05,2
197832000,197832000,0.723,0.075,0.056,0.683,1.0,-1.818e-12,1.818e-12,-1.761e-05,2
197932000,197932000,0.723,0.079,0.060,0.683,1.0,-1.818e-12,1.818e-12,-1.761e-05,2
198032000,198032000,0.723,0.080,0.062,0.683,1.0,-1.818e-12,1.818e-12,-1.761e-05,2
198132000,198132000,0.723,0.080,0.061,0.683,1.0,-1.818e-12,1.818e-12,-1.761e-05,2
198232000,198232000,0.723,0.078,0.059,0.683,1.0,-1.818e-12,1.818e-12,-1.761e-05,2
198332000,198328000,0.723,0.074,0.055,0.683,1.0,-1.818e-12,1.818e-12,-1.761e-05,2
198432000,198432000,0.724,0.067,0.049,0.684,1.0,-1.818e-12,1.818e-12,-1.761e-05,2
198532000,198532000,0.725,0.059,0.042,0.684,1.0,-1.818e-12,1.818e-12,-1.761e-05,2
198636000,198632000,0.725,0.050,0.033,0.685,1.0,-1.818e-12,1.818e-12,-1.761e-05,2
198736000,198736000,0.726,0.039,0.023,0.685,1.0,-1.818e-12,1.818e-12,-1.761e-05,2
198836000,198836000,0.727,0.028,0.012,0.685,1.0,-1.818e-12,1.818e-12,-1.761e-05,2
198936000,198936000,0.727,0.016,0.002,0.685,1.0,-1.818e-12,1.818e-12,-1.761e-05,2
